stop_id,service_id,direction_id,numroutes,TripsServingStop,stop_name,stop_lat,stop_lon
13659,2_merged_2421819,0,1,64,ZOO STATION,32.741005,-96.812844
13659,2_merged_2421819,1,1,66,ZOO STATION,32.741005,-96.812844
15262,2_merged_2421819,0,2,127,CORINTH RAIL STATION,32.74831,-96.798302
15262,2_merged_2421819,1,2,132,CORINTH RAIL STATION,32.74831,-96.798302
15913,2_merged_2421819,0,1,64,WESTMORELAND STATION,32.71994,-96.871605
15913,2_merged_2421819,1,1,66,WESTMORELAND STATION,32.71994,-96.871605
16083,2_merged_2421819,0,1,63,MORRELL STATION,32.740135,-96.80272
16083,2_merged_2421819,1,1,66,MORRELL STATION,32.740135,-96.80272
21030,2_merged_2421819,0,1,63,ILLINOIS TC/STATION,32.723278,-96.804978
21030,2_merged_2421819,1,1,66,ILLINOIS TC/STATION,32.723278,-96.804978
21210,2_merged_2421819,0,1,64,HAMPTON STATION,32.72644,-96.854996
21210,2_merged_2421819,1,1,66,HAMPTON STATION,32.72644,-96.854996
22729,2_merged_2421819,0,2,129,CEDARS STATION,32.768836,-96.793412
22729,2_merged_2421819,1,2,130,CEDARS STATION,32.768836,-96.793412
22730,2_merged_2421819,0,1,64,TYLER VERNON STATION,32.733274,-96.838305
22730,2_merged_2421819,1,1,66,TYLER VERNON STATION,32.733274,-96.838305
22745,2_merged_2421819,0,2,123,SANTA FE JUNCTION,32.764739,-96.787368
22745,2_merged_2421819,1,2,120,SANTA FE JUNCTION,32.764739,-96.787368
22747,2_merged_2421819,0,2,129,CONVENTION CENTER STATION,32.772579,-96.803174
22747,2_merged_2421819,1,2,130,CONVENTION CENTER STATION,32.772579,-96.803174
22748,2_merged_2421819,0,2,129,UNION STATION,32.775987,-96.808031
22748,2_merged_2421819,1,2,130,UNION STATION,32.775987,-96.808031
22749,2_merged_2421819,0,4,252,WEST END STATION,32.780838,-96.805569
22749,2_merged_2421819,1,4,253,WEST END STATION,32.780838,-96.805569
22750,2_merged_2421819,0,4,252,AKARD STATION,32.781839,-96.800726
22750,2_merged_2421819,1,4,253,AKARD STATION,32.781839,-96.800726
22751,2_merged_2421819,0,4,252,ST PAUL STATION,32.784686,-96.797196
22751,2_merged_2421819,1,4,253,ST PAUL STATION,32.784686,-96.797196
22752_merged_2421810,2_merged_2421819,0,4,252,PEARL/ARTS DISTRICT STATION,32.786423,-96.794243
22752_merged_2421810,2_merged_2421819,1,4,253,PEARL/ARTS DISTRICT STATION,32.786423,-96.794243
22938,2_merged_2421819,0,3,185,MOCKINGBIRD STATION,32.837806,-96.774666
22938,2_merged_2421819,1,3,185,MOCKINGBIRD STATION,32.837806,-96.774666
22984,2_merged_2421819,0,2,118,LOVERS LANE STATION,32.849157,-96.771511
22984,2_merged_2421819,1,2,118,LOVERS LANE STATION,32.849157,-96.771511
23320,2_merged_2421819,0,1,63,LEDBETTER STATION,32.683296,-96.788597
23320,2_merged_2421819,1,1,66,LEDBETTER STATION,32.683296,-96.788597
23390,2_merged_2421819,0,1,63,KIEST STATION,32.707489,-96.801094
23390,2_merged_2421819,1,1,66,KIEST STATION,32.707489,-96.801094
23391,2_merged_2421819,0,1,63,VA MEDICAL CENTER STATION,32.693912,-96.792504
23391,2_merged_2421819,1,1,66,VA MEDICAL CENTER STATION,32.693912,-96.792504
26420_merged_2421812,2_merged_2421819,0,3,185,CITYPLACE/UPTOWN STATION,32.805732,-96.792832
26420_merged_2421812,2_merged_2421819,1,3,185,CITYPLACE/UPTOWN STATION,32.805732,-96.792832
26652_merged_2421804,2_merged_2421819,0,1,67,WHITE ROCK STATION,32.854946,-96.734459
26652_merged_2421804,2_merged_2421819,1,1,67,WHITE ROCK STATION,32.854946,-96.734459
26668,2_merged_2421819,0,1,67,LBJ / SKILLMAN STATION,32.897796,-96.711823
26668,2_merged_2421819,1,1,67,LBJ / SKILLMAN STATION,32.897796,-96.711823
26669,2_merged_2421819,0,2,118,WALNUT HILL STATION,32.883106,-96.764771
26669,2_merged_2421819,1,2,118,WALNUT HILL STATION,32.883106,-96.764771
26670,2_merged_2421819,0,2,118,LBJ / CENTRAL STATION,32.918701,-96.751625
26670,2_merged_2421819,1,2,118,LBJ / CENTRAL STATION,32.918701,-96.751625
26671,2_merged_2421819,0,2,118,FOREST LN STATION,32.908532,-96.762691
26671,2_merged_2421819,1,2,118,FOREST LN STATION,32.908532,-96.762691
26672,2_merged_2421819,0,2,88,SPRING VALLEY STATION,32.940673,-96.737748
26672,2_merged_2421819,1,2,88,SPRING VALLEY STATION,32.940673,-96.737748
26673,2_merged_2421819,0,2,88,ARAPAHO CENTER STATION,32.962516,-96.722474
26673,2_merged_2421819,1,2,88,ARAPAHO CENTER STATION,32.962516,-96.722474
26674,2_merged_2421819,0,2,88,GALATYN PARK STATION,32.985073,-96.710803
26674,2_merged_2421819,1,2,88,GALATYN PARK STATION,32.985073,-96.710803
26690,2_merged_2421819,0,1,67,FOREST / JUPITER STATION,32.908313,-96.679207
26690,2_merged_2421819,1,1,67,FOREST / JUPITER STATION,32.908313,-96.679207
26691,2_merged_2421819,0,1,67,DOWNTOWN GARLAND STATION,32.916292,-96.635756
26691,2_merged_2421819,1,1,67,DOWNTOWN GARLAND STATION,32.916292,-96.635756
26895,2_merged_2421819,0,2,88,BUSH TURNPIKE STATION WEST,33.003227,-96.703713
26895,2_merged_2421819,1,2,88,BUSH TURNPIKE STATION WEST,33.003227,-96.703713
26896,2_merged_2421819,0,2,88,DOWNTOWN PLANO STATION,33.021621,-96.700707
26896,2_merged_2421819,1,2,88,DOWNTOWN PLANO STATION,33.021621,-96.700707
26897,2_merged_2421819,0,2,88,PARKER ROAD STATION,33.033752,-96.700974
26897,2_merged_2421819,1,2,88,PARKER ROAD STATION,33.033752,-96.700974
28264,2_merged_2421819,0,2,123,VICTORY STATION,32.789903,-96.812363
28264,2_merged_2421819,1,2,123,VICTORY STATION,32.789903,-96.812363
28755,2_merged_2421819,0,2,118,PARK LANE STATION,32.872791,-96.765717
28755,2_merged_2421819,1,2,118,PARK LANE STATION,32.872791,-96.765717
29815,2_merged_2421819,0,1,69,NORTH CARROLLTON/FRANKFORD STATION,32.990958,-96.93644
29815,2_merged_2421819,1,1,69,NORTH CARROLLTON/FRANKFORD STATION,32.990958,-96.93644
29816,2_merged_2421819,0,1,69,TRINITY MILLS RAIL STATION,32.979915,-96.92562
29816,2_merged_2421819,1,1,69,TRINITY MILLS RAIL STATION,32.979915,-96.92562
29817,2_merged_2421819,0,1,69,DOWNTOWN CARROLLTON STATION,32.954362,-96.908481
29817,2_merged_2421819,1,1,69,DOWNTOWN CARROLLTON STATION,32.954362,-96.908481
29818,2_merged_2421819,0,1,69,FARMERS BRANCH STATION,32.922445,-96.896572
29818,2_merged_2421819,1,1,69,FARMERS BRANCH STATION,32.922445,-96.896572
29819,2_merged_2421819,0,1,69,ROYAL LANE STATION,32.896339,-96.888455
29819,2_merged_2421819,1,1,69,ROYAL LANE STATION,32.896339,-96.888455
29820,2_merged_2421819,0,1,69,WALNUT HILL/DENTON STATION,32.881923,-96.883875
29820,2_merged_2421819,1,1,69,WALNUT HILL/DENTON STATION,32.881923,-96.883875
29821,2_merged_2421819,0,2,135,BACHMAN STATION,32.854818,-96.877044
29821,2_merged_2421819,1,2,135,BACHMAN STATION,32.854818,-96.877044
29822_merged_2421803,2_merged_2421819,0,2,123,BURBANK STATION,32.842981,-96.862185
29822_merged_2421803,2_merged_2421819,1,2,123,BURBANK STATION,32.842981,-96.862185
29824,2_merged_2421819,0,2,123,INWOOD/LOVE FIELD STATION,32.823166,-96.833512
29824,2_merged_2421819,1,2,123,INWOOD/LOVE FIELD STATION,32.823166,-96.833512
29825,2_merged_2421819,0,2,123,MARKET CENTER STATION,32.804751,-96.823348
29825,2_merged_2421819,1,2,123,MARKET CENTER STATION,32.804751,-96.823348
29826,2_merged_2421819,0,2,123,SOUTHWEST MEDICAL DISTRICT/PARKLAND,32.812661,-96.832957
29826,2_merged_2421819,1,2,123,SOUTHWEST MEDICAL DISTRICT/PARKLAND,32.812661,-96.832957
29831,2_merged_2421819,0,1,68,HATCHER STATION,32.76634,-96.74172
29831,2_merged_2421819,1,1,68,HATCHER STATION,32.76634,-96.74172
29832,2_merged_2421819,0,1,68,LAWNVIEW STATION,32.765562,-96.720925
29832,2_merged_2421819,1,1,68,LAWNVIEW STATION,32.765562,-96.720925
29833,2_merged_2421819,0,1,68,LAKE JUNE STATION,32.732236,-96.709593
29833,2_merged_2421819,1,1,68,LAKE JUNE STATION,32.732236,-96.709593
29834,2_merged_2421819,0,1,68,BUCKNER STATION,32.717607,-96.683832
29834,2_merged_2421819,1,1,68,BUCKNER STATION,32.717607,-96.683832
31084,2_merged_2421819,0,1,70,UNIVERSITY OF DALLAS STATION,32.849532,-96.915867
31084,2_merged_2421819,1,1,70,UNIVERSITY OF DALLAS STATION,32.849532,-96.915867
32040,2_merged_2421819,0,1,68,MLK STATION,32.773793,-96.764651
32040,2_merged_2421819,1,1,68,MLK STATION,32.773793,-96.764651
32041,2_merged_2421819,0,2,67,FAIR PARK STATION,32.782049,-96.766046
32041,2_merged_2421819,1,2,68,FAIR PARK STATION,32.782049,-96.766046
32042,2_merged_2421819,0,2,67,BAYLOR STATION,32.786495,-96.782132
32042,2_merged_2421819,1,2,68,BAYLOR STATION,32.786495,-96.782132
32043,2_merged_2421819,0,2,67,DEEP ELLUM STATION,32.786144,-96.788897
32043,2_merged_2421819,1,2,68,DEEP ELLUM STATION,32.786144,-96.788897
32049_merged_2421801,2_merged_2421819,0,1,67,LAKE HIGHLANDS STATION,32.879729,-96.730376
32049_merged_2421801,2_merged_2421819,1,1,67,LAKE HIGHLANDS STATION,32.879729,-96.730376
32133,2_merged_2421819,1,1,18,NWROF RELIEF POINT,32.870437,-96.880193
32337,2_merged_2421819,0,1,70,LAS COLINAS URBAN CENTER STATION,32.869576,-96.933469
32337,2_merged_2421819,1,1,70,LAS COLINAS URBAN CENTER STATION,32.869576,-96.933469
32338,2_merged_2421819,0,1,70,IRVING CONVENTION CENTER STATION,32.876956,-96.938574
32338,2_merged_2421819,1,1,70,IRVING CONVENTION CENTER STATION,32.876956,-96.938574
13659,3_merged_2421818,0,1,53,ZOO STATION,32.741005,-96.812844
13659,3_merged_2421818,1,1,53,ZOO STATION,32.741005,-96.812844
15262,3_merged_2421818,0,2,106,CORINTH RAIL STATION,32.74831,-96.798302
15262,3_merged_2421818,1,2,106,CORINTH RAIL STATION,32.74831,-96.798302
15913,3_merged_2421818,0,1,53,WESTMORELAND STATION,32.71994,-96.871605
15913,3_merged_2421818,1,1,53,WESTMORELAND STATION,32.71994,-96.871605
16083,3_merged_2421818,0,1,53,MORRELL STATION,32.740135,-96.80272
16083,3_merged_2421818,1,1,53,MORRELL STATION,32.740135,-96.80272
21030,3_merged_2421818,0,1,53,ILLINOIS TC/STATION,32.723278,-96.804978
21030,3_merged_2421818,1,1,53,ILLINOIS TC/STATION,32.723278,-96.804978
21210,3_merged_2421818,0,1,53,HAMPTON STATION,32.72644,-96.854996
21210,3_merged_2421818,1,1,53,HAMPTON STATION,32.72644,-96.854996
22729,3_merged_2421818,0,2,103,CEDARS STATION,32.768836,-96.793412
22729,3_merged_2421818,1,2,103,CEDARS STATION,32.768836,-96.793412
22730,3_merged_2421818,0,1,53,TYLER VERNON STATION,32.733274,-96.838305
22730,3_merged_2421818,1,1,53,TYLER VERNON STATION,32.733274,-96.838305
22745,3_merged_2421818,0,2,96,SANTA FE JUNCTION,32.764739,-96.787368
22745,3_merged_2421818,1,2,98,SANTA FE JUNCTION,32.764739,-96.787368
22747,3_merged_2421818,0,2,103,CONVENTION CENTER STATION,32.772579,-96.803174
22747,3_merged_2421818,1,2,103,CONVENTION CENTER STATION,32.772579,-96.803174
22748,3_merged_2421818,0,2,103,UNION STATION,32.775987,-96.808031
22748,3_merged_2421818,1,2,103,UNION STATION,32.775987,-96.808031
22749,3_merged_2421818,0,4,200,WEST END STATION,32.780838,-96.805569
22749,3_merged_2421818,1,4,200,WEST END STATION,32.780838,-96.805569
22750,3_merged_2421818,0,4,200,AKARD STATION,32.781839,-96.800726
22750,3_merged_2421818,1,4,200,AKARD STATION,32.781839,-96.800726
22751,3_merged_2421818,0,4,200,ST PAUL STATION,32.784686,-96.797196
22751,3_merged_2421818,1,4,200,ST PAUL STATION,32.784686,-96.797196
22752_merged_2421810,3_merged_2421818,0,4,200,PEARL/ARTS DISTRICT STATION,32.786423,-96.794243
22752_merged_2421810,3_merged_2421818,1,4,200,PEARL/ARTS DISTRICT STATION,32.786423,-96.794243
22938,3_merged_2421818,0,3,148,MOCKINGBIRD STATION,32.837806,-96.774666
22938,3_merged_2421818,1,3,148,MOCKINGBIRD STATION,32.837806,-96.774666
22984,3_merged_2421818,0,2,97,LOVERS LANE STATION,32.849157,-96.771511
22984,3_merged_2421818,1,2,97,LOVERS LANE STATION,32.849157,-96.771511
23320,3_merged_2421818,0,1,53,LEDBETTER STATION,32.683296,-96.788597
23320,3_merged_2421818,1,1,53,LEDBETTER STATION,32.683296,-96.788597
23390,3_merged_2421818,0,1,53,KIEST STATION,32.707489,-96.801094
23390,3_merged_2421818,1,1,53,KIEST STATION,32.707489,-96.801094
23391,3_merged_2421818,0,1,53,VA MEDICAL CENTER STATION,32.693912,-96.792504
23391,3_merged_2421818,1,1,53,VA MEDICAL CENTER STATION,32.693912,-96.792504
26420_merged_2421812,3_merged_2421818,0,3,148,CITYPLACE/UPTOWN STATION,32.805732,-96.792832
26420_merged_2421812,3_merged_2421818,1,3,148,CITYPLACE/UPTOWN STATION,32.805732,-96.792832
26652_merged_2421804,3_merged_2421818,0,1,51,WHITE ROCK STATION,32.854946,-96.734459
26652_merged_2421804,3_merged_2421818,1,1,51,WHITE ROCK STATION,32.854946,-96.734459
26668,3_merged_2421818,0,1,51,LBJ / SKILLMAN STATION,32.897796,-96.711823
26668,3_merged_2421818,1,1,51,LBJ / SKILLMAN STATION,32.897796,-96.711823
26669,3_merged_2421818,0,2,97,WALNUT HILL STATION,32.883106,-96.764771
26669,3_merged_2421818,1,2,97,WALNUT HILL STATION,32.883106,-96.764771
26670,3_merged_2421818,0,2,97,LBJ / CENTRAL STATION,32.918701,-96.751625
26670,3_merged_2421818,1,2,97,LBJ / CENTRAL STATION,32.918701,-96.751625
26671,3_merged_2421818,0,2,97,FOREST LN STATION,32.908532,-96.762691
26671,3_merged_2421818,1,2,97,FOREST LN STATION,32.908532,-96.762691
26672,3_merged_2421818,0,1,52,SPRING VALLEY STATION,32.940673,-96.737748
26672,3_merged_2421818,1,1,52,SPRING VALLEY STATION,32.940673,-96.737748
26673,3_merged_2421818,0,1,52,ARAPAHO CENTER STATION,32.962516,-96.722474
26673,3_merged_2421818,1,1,52,ARAPAHO CENTER STATION,32.962516,-96.722474
26674,3_merged_2421818,0,1,52,GALATYN PARK STATION,32.985073,-96.710803
26674,3_merged_2421818,1,1,52,GALATYN PARK STATION,32.985073,-96.710803
26690,3_merged_2421818,0,1,51,FOREST / JUPITER STATION,32.908313,-96.679207
26690,3_merged_2421818,1,1,51,FOREST / JUPITER STATION,32.908313,-96.679207
26691,3_merged_2421818,0,1,51,DOWNTOWN GARLAND STATION,32.916292,-96.635756
26691,3_merged_2421818,1,1,51,DOWNTOWN GARLAND STATION,32.916292,-96.635756
26895,3_merged_2421818,0,1,52,BUSH TURNPIKE STATION WEST,33.003227,-96.703713
26895,3_merged_2421818,1,1,52,BUSH TURNPIKE STATION WEST,33.003227,-96.703713
26896,3_merged_2421818,0,1,52,DOWNTOWN PLANO STATION,33.021621,-96.700707
26896,3_merged_2421818,1,1,52,DOWNTOWN PLANO STATION,33.021621,-96.700707
26897,3_merged_2421818,0,1,52,PARKER ROAD STATION,33.033752,-96.700974
26897,3_merged_2421818,1,1,52,PARKER ROAD STATION,33.033752,-96.700974
28264,3_merged_2421818,0,2,97,VICTORY STATION,32.789903,-96.812363
28264,3_merged_2421818,1,2,97,VICTORY STATION,32.789903,-96.812363
28755,3_merged_2421818,0,2,97,PARK LANE STATION,32.872791,-96.765717
28755,3_merged_2421818,1,2,97,PARK LANE STATION,32.872791,-96.765717
29815,3_merged_2421818,0,1,55,NORTH CARROLLTON/FRANKFORD STATION,32.990958,-96.93644
29815,3_merged_2421818,1,1,55,NORTH CARROLLTON/FRANKFORD STATION,32.990958,-96.93644
29816,3_merged_2421818,0,1,55,TRINITY MILLS RAIL STATION,32.979915,-96.92562
29816,3_merged_2421818,1,1,55,TRINITY MILLS RAIL STATION,32.979915,-96.92562
29817,3_merged_2421818,0,1,55,DOWNTOWN CARROLLTON STATION,32.954362,-96.908481
29817,3_merged_2421818,1,1,55,DOWNTOWN CARROLLTON STATION,32.954362,-96.908481
29818,3_merged_2421818,0,1,55,FARMERS BRANCH STATION,32.922445,-96.896572
29818,3_merged_2421818,1,1,55,FARMERS BRANCH STATION,32.922445,-96.896572
29819,3_merged_2421818,0,1,55,ROYAL LANE STATION,32.896339,-96.888455
29819,3_merged_2421818,1,1,55,ROYAL LANE STATION,32.896339,-96.888455
29820,3_merged_2421818,0,1,55,WALNUT HILL/DENTON STATION,32.881923,-96.883875
29820,3_merged_2421818,1,1,55,WALNUT HILL/DENTON STATION,32.881923,-96.883875
29821,3_merged_2421818,0,2,107,BACHMAN STATION,32.854818,-96.877044
29821,3_merged_2421818,1,2,105,BACHMAN STATION,32.854818,-96.877044
29822_merged_2421803,3_merged_2421818,0,2,97,BURBANK STATION,32.842981,-96.862185
29822_merged_2421803,3_merged_2421818,1,2,97,BURBANK STATION,32.842981,-96.862185
29824,3_merged_2421818,0,2,97,INWOOD/LOVE FIELD STATION,32.823166,-96.833512
29824,3_merged_2421818,1,2,97,INWOOD/LOVE FIELD STATION,32.823166,-96.833512
29825,3_merged_2421818,0,2,97,MARKET CENTER STATION,32.804751,-96.823348
29825,3_merged_2421818,1,2,97,MARKET CENTER STATION,32.804751,-96.823348
29826,3_merged_2421818,0,2,97,SOUTHWEST MEDICAL DISTRICT/PARKLAND,32.812661,-96.832957
29826,3_merged_2421818,1,2,97,SOUTHWEST MEDICAL DISTRICT/PARKLAND,32.812661,-96.832957
29831,3_merged_2421818,0,1,52,HATCHER STATION,32.76634,-96.74172
29831,3_merged_2421818,1,1,52,HATCHER STATION,32.76634,-96.74172
29832,3_merged_2421818,0,1,52,LAWNVIEW STATION,32.765562,-96.720925
29832,3_merged_2421818,1,1,52,LAWNVIEW STATION,32.765562,-96.720925
29833,3_merged_2421818,0,1,52,LAKE JUNE STATION,32.732236,-96.709593
29833,3_merged_2421818,1,1,52,LAKE JUNE STATION,32.732236,-96.709593
29834,3_merged_2421818,0,1,52,BUCKNER STATION,32.717607,-96.683832
29834,3_merged_2421818,1,1,52,BUCKNER STATION,32.717607,-96.683832
31084,3_merged_2421818,0,1,53,UNIVERSITY OF DALLAS STATION,32.849532,-96.915867
31084,3_merged_2421818,1,1,53,UNIVERSITY OF DALLAS STATION,32.849532,-96.915867
32040,3_merged_2421818,0,1,52,MLK STATION,32.773793,-96.764651
32040,3_merged_2421818,1,1,52,MLK STATION,32.773793,-96.764651
32041,3_merged_2421818,0,1,52,FAIR PARK STATION,32.782049,-96.766046
32041,3_merged_2421818,1,1,52,FAIR PARK STATION,32.782049,-96.766046
32042,3_merged_2421818,0,1,52,BAYLOR STATION,32.786495,-96.782132
32042,3_merged_2421818,1,1,52,BAYLOR STATION,32.786495,-96.782132
32043,3_merged_2421818,0,1,52,DEEP ELLUM STATION,32.786144,-96.788897
32043,3_merged_2421818,1,1,52,DEEP ELLUM STATION,32.786144,-96.788897
32049_merged_2421801,3_merged_2421818,0,1,51,LAKE HIGHLANDS STATION,32.879729,-96.730376
32049_merged_2421801,3_merged_2421818,1,1,51,LAKE HIGHLANDS STATION,32.879729,-96.730376
32133,3_merged_2421818,1,1,22,NWROF RELIEF POINT,32.870437,-96.880193
32337,3_merged_2421818,0,1,53,LAS COLINAS URBAN CENTER STATION,32.869576,-96.933469
32337,3_merged_2421818,1,1,53,LAS COLINAS URBAN CENTER STATION,32.869576,-96.933469
32338,3_merged_2421818,0,1,53,IRVING CONVENTION CENTER STATION,32.876956,-96.938574
32338,3_merged_2421818,1,1,53,IRVING CONVENTION CENTER STATION,32.876956,-96.938574
13659,4_merged_2421820,0,1,53,ZOO STATION,32.741005,-96.812844
13659,4_merged_2421820,1,1,53,ZOO STATION,32.741005,-96.812844
15262,4_merged_2421820,0,2,106,CORINTH RAIL STATION,32.74831,-96.798302
15262,4_merged_2421820,1,2,106,CORINTH RAIL STATION,32.74831,-96.798302
15913,4_merged_2421820,0,1,53,WESTMORELAND STATION,32.71994,-96.871605
15913,4_merged_2421820,1,1,53,WESTMORELAND STATION,32.71994,-96.871605
16083,4_merged_2421820,0,1,53,MORRELL STATION,32.740135,-96.80272
16083,4_merged_2421820,1,1,53,MORRELL STATION,32.740135,-96.80272
21030,4_merged_2421820,0,1,53,ILLINOIS TC/STATION,32.723278,-96.804978
21030,4_merged_2421820,1,1,53,ILLINOIS TC/STATION,32.723278,-96.804978
21210,4_merged_2421820,0,1,53,HAMPTON STATION,32.72644,-96.854996
21210,4_merged_2421820,1,1,53,HAMPTON STATION,32.72644,-96.854996
22729,4_merged_2421820,0,2,103,CEDARS STATION,32.768836,-96.793412
22729,4_merged_2421820,1,2,103,CEDARS STATION,32.768836,-96.793412
22730,4_merged_2421820,0,1,53,TYLER VERNON STATION,32.733274,-96.838305
22730,4_merged_2421820,1,1,53,TYLER VERNON STATION,32.733274,-96.838305
22745,4_merged_2421820,0,2,96,SANTA FE JUNCTION,32.764739,-96.787368
22745,4_merged_2421820,1,2,98,SANTA FE JUNCTION,32.764739,-96.787368
22747,4_merged_2421820,0,2,103,CONVENTION CENTER STATION,32.772579,-96.803174
22747,4_merged_2421820,1,2,103,CONVENTION CENTER STATION,32.772579,-96.803174
22748,4_merged_2421820,0,2,103,UNION STATION,32.775987,-96.808031
22748,4_merged_2421820,1,2,103,UNION STATION,32.775987,-96.808031
22749,4_merged_2421820,0,4,200,WEST END STATION,32.780838,-96.805569
22749,4_merged_2421820,1,4,200,WEST END STATION,32.780838,-96.805569
22750,4_merged_2421820,0,4,200,AKARD STATION,32.781839,-96.800726
22750,4_merged_2421820,1,4,200,AKARD STATION,32.781839,-96.800726
22751,4_merged_2421820,0,4,200,ST PAUL STATION,32.784686,-96.797196
22751,4_merged_2421820,1,4,200,ST PAUL STATION,32.784686,-96.797196
22752_merged_2421810,4_merged_2421820,0,4,200,PEARL/ARTS DISTRICT STATION,32.786423,-96.794243
22752_merged_2421810,4_merged_2421820,1,4,200,PEARL/ARTS DISTRICT STATION,32.786423,-96.794243
22938,4_merged_2421820,0,3,148,MOCKINGBIRD STATION,32.837806,-96.774666
22938,4_merged_2421820,1,3,148,MOCKINGBIRD STATION,32.837806,-96.774666
22984,4_merged_2421820,0,2,97,LOVERS LANE STATION,32.849157,-96.771511
22984,4_merged_2421820,1,2,97,LOVERS LANE STATION,32.849157,-96.771511
23320,4_merged_2421820,0,1,53,LEDBETTER STATION,32.683296,-96.788597
23320,4_merged_2421820,1,1,53,LEDBETTER STATION,32.683296,-96.788597
23390,4_merged_2421820,0,1,53,KIEST STATION,32.707489,-96.801094
23390,4_merged_2421820,1,1,53,KIEST STATION,32.707489,-96.801094
23391,4_merged_2421820,0,1,53,VA MEDICAL CENTER STATION,32.693912,-96.792504
23391,4_merged_2421820,1,1,53,VA MEDICAL CENTER STATION,32.693912,-96.792504
26420_merged_2421812,4_merged_2421820,0,3,148,CITYPLACE/UPTOWN STATION,32.805732,-96.792832
26420_merged_2421812,4_merged_2421820,1,3,148,CITYPLACE/UPTOWN STATION,32.805732,-96.792832
26652_merged_2421804,4_merged_2421820,0,1,51,WHITE ROCK STATION,32.854946,-96.734459
26652_merged_2421804,4_merged_2421820,1,1,51,WHITE ROCK STATION,32.854946,-96.734459
26668,4_merged_2421820,0,1,51,LBJ / SKILLMAN STATION,32.897796,-96.711823
26668,4_merged_2421820,1,1,51,LBJ / SKILLMAN STATION,32.897796,-96.711823
26669,4_merged_2421820,0,2,97,WALNUT HILL STATION,32.883106,-96.764771
26669,4_merged_2421820,1,2,97,WALNUT HILL STATION,32.883106,-96.764771
26670,4_merged_2421820,0,2,97,LBJ / CENTRAL STATION,32.918701,-96.751625
26670,4_merged_2421820,1,2,97,LBJ / CENTRAL STATION,32.918701,-96.751625
26671,4_merged_2421820,0,2,97,FOREST LN STATION,32.908532,-96.762691
26671,4_merged_2421820,1,2,97,FOREST LN STATION,32.908532,-96.762691
26672,4_merged_2421820,0,1,52,SPRING VALLEY STATION,32.940673,-96.737748
26672,4_merged_2421820,1,1,52,SPRING VALLEY STATION,32.940673,-96.737748
26673,4_merged_2421820,0,1,52,ARAPAHO CENTER STATION,32.962516,-96.722474
26673,4_merged_2421820,1,1,52,ARAPAHO CENTER STATION,32.962516,-96.722474
26674,4_merged_2421820,0,1,52,GALATYN PARK STATION,32.985073,-96.710803
26674,4_merged_2421820,1,1,52,GALATYN PARK STATION,32.985073,-96.710803
26690,4_merged_2421820,0,1,51,FOREST / JUPITER STATION,32.908313,-96.679207
26690,4_merged_2421820,1,1,51,FOREST / JUPITER STATION,32.908313,-96.679207
26691,4_merged_2421820,0,1,51,DOWNTOWN GARLAND STATION,32.916292,-96.635756
26691,4_merged_2421820,1,1,51,DOWNTOWN GARLAND STATION,32.916292,-96.635756
26895,4_merged_2421820,0,1,52,BUSH TURNPIKE STATION WEST,33.003227,-96.703713
26895,4_merged_2421820,1,1,52,BUSH TURNPIKE STATION WEST,33.003227,-96.703713
26896,4_merged_2421820,0,1,52,DOWNTOWN PLANO STATION,33.021621,-96.700707
26896,4_merged_2421820,1,1,52,DOWNTOWN PLANO STATION,33.021621,-96.700707
26897,4_merged_2421820,0,1,52,PARKER ROAD STATION,33.033752,-96.700974
26897,4_merged_2421820,1,1,52,PARKER ROAD STATION,33.033752,-96.700974
28264,4_merged_2421820,0,2,97,VICTORY STATION,32.789903,-96.812363
28264,4_merged_2421820,1,2,97,VICTORY STATION,32.789903,-96.812363
28755,4_merged_2421820,0,2,97,PARK LANE STATION,32.872791,-96.765717
28755,4_merged_2421820,1,2,97,PARK LANE STATION,32.872791,-96.765717
29815,4_merged_2421820,0,1,55,NORTH CARROLLTON/FRANKFORD STATION,32.990958,-96.93644
29815,4_merged_2421820,1,1,55,NORTH CARROLLTON/FRANKFORD STATION,32.990958,-96.93644
29816,4_merged_2421820,0,1,55,TRINITY MILLS RAIL STATION,32.979915,-96.92562
29816,4_merged_2421820,1,1,55,TRINITY MILLS RAIL STATION,32.979915,-96.92562
29817,4_merged_2421820,0,1,55,DOWNTOWN CARROLLTON STATION,32.954362,-96.908481
29817,4_merged_2421820,1,1,55,DOWNTOWN CARROLLTON STATION,32.954362,-96.908481
29818,4_merged_2421820,0,1,55,FARMERS BRANCH STATION,32.922445,-96.896572
29818,4_merged_2421820,1,1,55,FARMERS BRANCH STATION,32.922445,-96.896572
29819,4_merged_2421820,0,1,55,ROYAL LANE STATION,32.896339,-96.888455
29819,4_merged_2421820,1,1,55,ROYAL LANE STATION,32.896339,-96.888455
29820,4_merged_2421820,0,1,55,WALNUT HILL/DENTON STATION,32.881923,-96.883875
29820,4_merged_2421820,1,1,55,WALNUT HILL/DENTON STATION,32.881923,-96.883875
29821,4_merged_2421820,0,2,107,BACHMAN STATION,32.854818,-96.877044
29821,4_merged_2421820,1,2,105,BACHMAN STATION,32.854818,-96.877044
29822_merged_2421803,4_merged_2421820,0,2,97,BURBANK STATION,32.842981,-96.862185
29822_merged_2421803,4_merged_2421820,1,2,97,BURBANK STATION,32.842981,-96.862185
29824,4_merged_2421820,0,2,97,INWOOD/LOVE FIELD STATION,32.823166,-96.833512
29824,4_merged_2421820,1,2,97,INWOOD/LOVE FIELD STATION,32.823166,-96.833512
29825,4_merged_2421820,0,2,97,MARKET CENTER STATION,32.804751,-96.823348
29825,4_merged_2421820,1,2,97,MARKET CENTER STATION,32.804751,-96.823348
29826,4_merged_2421820,0,2,97,SOUTHWEST MEDICAL DISTRICT/PARKLAND,32.812661,-96.832957
29826,4_merged_2421820,1,2,97,SOUTHWEST MEDICAL DISTRICT/PARKLAND,32.812661,-96.832957
29831,4_merged_2421820,0,1,52,HATCHER STATION,32.76634,-96.74172
29831,4_merged_2421820,1,1,52,HATCHER STATION,32.76634,-96.74172
29832,4_merged_2421820,0,1,52,LAWNVIEW STATION,32.765562,-96.720925
29832,4_merged_2421820,1,1,52,LAWNVIEW STATION,32.765562,-96.720925
29833,4_merged_2421820,0,1,52,LAKE JUNE STATION,32.732236,-96.709593
29833,4_merged_2421820,1,1,52,LAKE JUNE STATION,32.732236,-96.709593
29834,4_merged_2421820,0,1,52,BUCKNER STATION,32.717607,-96.683832
29834,4_merged_2421820,1,1,52,BUCKNER STATION,32.717607,-96.683832
31084,4_merged_2421820,0,1,53,UNIVERSITY OF DALLAS STATION,32.849532,-96.915867
31084,4_merged_2421820,1,1,53,UNIVERSITY OF DALLAS STATION,32.849532,-96.915867
32040,4_merged_2421820,0,1,52,MLK STATION,32.773793,-96.764651
32040,4_merged_2421820,1,1,52,MLK STATION,32.773793,-96.764651
32041,4_merged_2421820,0,1,52,FAIR PARK STATION,32.782049,-96.766046
32041,4_merged_2421820,1,1,52,FAIR PARK STATION,32.782049,-96.766046
32042,4_merged_2421820,0,1,52,BAYLOR STATION,32.786495,-96.782132
32042,4_merged_2421820,1,1,52,BAYLOR STATION,32.786495,-96.782132
32043,4_merged_2421820,0,1,52,DEEP ELLUM STATION,32.786144,-96.788897
32043,4_merged_2421820,1,1,52,DEEP ELLUM STATION,32.786144,-96.788897
32049_merged_2421801,4_merged_2421820,0,1,51,LAKE HIGHLANDS STATION,32.879729,-96.730376
32049_merged_2421801,4_merged_2421820,1,1,51,LAKE HIGHLANDS STATION,32.879729,-96.730376
32133,4_merged_2421820,1,1,22,NWROF RELIEF POINT,32.870437,-96.880193
32337,4_merged_2421820,0,1,53,LAS COLINAS URBAN CENTER STATION,32.869576,-96.933469
32337,4_merged_2421820,1,1,53,LAS COLINAS URBAN CENTER STATION,32.869576,-96.933469
32338,4_merged_2421820,0,1,53,IRVING CONVENTION CENTER STATION,32.876956,-96.938574
32338,4_merged_2421820,1,1,53,IRVING CONVENTION CENTER STATION,32.876956,-96.938574
