route_id,stop_id,service_id,direction_id,avghdwy,stdev_hdwy,stop_name,stop_lat,stop_lon,route_short_name,route_long_name
12270,13659,2_merged_2421819,0,19.2,4.4,ZOO STATION,32.741005,-96.812844,RED,DART Rail RED LINE
12270,13659,2_merged_2421819,1,18.7,5.7,ZOO STATION,32.741005,-96.812844,RED,DART Rail RED LINE
12267,15262,2_merged_2421819,0,19.5,4.7,CORINTH RAIL STATION,32.74831,-96.798302,BLUE,DART Rail BLUE LINE
12267,15262,2_merged_2421819,1,18.6,4.7,CORINTH RAIL STATION,32.74831,-96.798302,BLUE,DART Rail BLUE LINE
12270,15262,2_merged_2421819,0,19.2,4.4,CORINTH RAIL STATION,32.74831,-96.798302,RED,DART Rail RED LINE
12270,15262,2_merged_2421819,1,18.7,5.7,CORINTH RAIL STATION,32.74831,-96.798302,RED,DART Rail RED LINE
12270,15913,2_merged_2421819,0,19.2,4.4,WESTMORELAND STATION,32.71994,-96.871605,RED,DART Rail RED LINE
12270,15913,2_merged_2421819,1,18.7,5.7,WESTMORELAND STATION,32.71994,-96.871605,RED,DART Rail RED LINE
12267,16083,2_merged_2421819,0,19.5,4.7,MORRELL STATION,32.740135,-96.80272,BLUE,DART Rail BLUE LINE
12267,16083,2_merged_2421819,1,18.6,4.7,MORRELL STATION,32.740135,-96.80272,BLUE,DART Rail BLUE LINE
12267,21030,2_merged_2421819,0,19.5,4.7,ILLINOIS TC/STATION,32.723278,-96.804978,BLUE,DART Rail BLUE LINE
12267,21030,2_merged_2421819,1,18.6,4.6,ILLINOIS TC/STATION,32.723278,-96.804978,BLUE,DART Rail BLUE LINE
12270,21210,2_merged_2421819,0,19.2,4.4,HAMPTON STATION,32.72644,-96.854996,RED,DART Rail RED LINE
12270,21210,2_merged_2421819,1,18.7,5.7,HAMPTON STATION,32.72644,-96.854996,RED,DART Rail RED LINE
12267,22729,2_merged_2421819,0,18.5,5.4,CEDARS STATION,32.768836,-96.793412,BLUE,DART Rail BLUE LINE
12267,22729,2_merged_2421819,1,18.3,5.5,CEDARS STATION,32.768836,-96.793412,BLUE,DART Rail BLUE LINE
12270,22729,2_merged_2421819,0,18.9,3.6,CEDARS STATION,32.768836,-96.793412,RED,DART Rail RED LINE
12270,22729,2_merged_2421819,1,19.4,7.0,CEDARS STATION,32.768836,-96.793412,RED,DART Rail RED LINE
12270,22730,2_merged_2421819,0,19.2,4.4,TYLER VERNON STATION,32.733274,-96.838305,RED,DART Rail RED LINE
12270,22730,2_merged_2421819,1,18.7,5.7,TYLER VERNON STATION,32.733274,-96.838305,RED,DART Rail RED LINE
12267,22745,2_merged_2421819,0,19.2,4.3,SANTA FE JUNCTION,32.764739,-96.787368,BLUE,DART Rail BLUE LINE
12267,22745,2_merged_2421819,1,19.4,4.6,SANTA FE JUNCTION,32.764739,-96.787368,BLUE,DART Rail BLUE LINE
12270,22745,2_merged_2421819,0,18.9,3.6,SANTA FE JUNCTION,32.764739,-96.787368,RED,DART Rail RED LINE
12270,22745,2_merged_2421819,1,19.5,5.1,SANTA FE JUNCTION,32.764739,-96.787368,RED,DART Rail RED LINE
12267,22747,2_merged_2421819,0,18.5,5.4,CONVENTION CENTER STATION,32.772579,-96.803174,BLUE,DART Rail BLUE LINE
12267,22747,2_merged_2421819,1,18.3,5.5,CONVENTION CENTER STATION,32.772579,-96.803174,BLUE,DART Rail BLUE LINE
12270,22747,2_merged_2421819,0,18.9,3.6,CONVENTION CENTER STATION,32.772579,-96.803174,RED,DART Rail RED LINE
12270,22747,2_merged_2421819,1,19.4,7.0,CONVENTION CENTER STATION,32.772579,-96.803174,RED,DART Rail RED LINE
12267,22748,2_merged_2421819,0,18.5,5.4,UNION STATION,32.775987,-96.808031,BLUE,DART Rail BLUE LINE
12267,22748,2_merged_2421819,1,18.3,5.5,UNION STATION,32.775987,-96.808031,BLUE,DART Rail BLUE LINE
12270,22748,2_merged_2421819,0,18.9,3.6,UNION STATION,32.775987,-96.808031,RED,DART Rail RED LINE
12270,22748,2_merged_2421819,1,19.4,7.0,UNION STATION,32.775987,-96.808031,RED,DART Rail RED LINE
12267,22749,2_merged_2421819,0,18.5,5.4,WEST END STATION,32.780838,-96.805569,BLUE,DART Rail BLUE LINE
12267,22749,2_merged_2421819,1,18.3,5.5,WEST END STATION,32.780838,-96.805569,BLUE,DART Rail BLUE LINE
12268,22749,2_merged_2421819,0,19.1,4.9,WEST END STATION,32.780838,-96.805569,GREEN,DART Rail GREEN LINE
12268,22749,2_merged_2421819,1,18.5,4.2,WEST END STATION,32.780838,-96.805569,GREEN,DART Rail GREEN LINE
12269,22749,2_merged_2421819,0,18.8,7.1,WEST END STATION,32.780838,-96.805569,ORANGE,DART Rail ORANGE LINE
12269,22749,2_merged_2421819,1,18.7,5.5,WEST END STATION,32.780838,-96.805569,ORANGE,DART Rail ORANGE LINE
12270,22749,2_merged_2421819,0,18.9,3.6,WEST END STATION,32.780838,-96.805569,RED,DART Rail RED LINE
12270,22749,2_merged_2421819,1,19.4,7.0,WEST END STATION,32.780838,-96.805569,RED,DART Rail RED LINE
12267,22750,2_merged_2421819,0,18.5,5.4,AKARD STATION,32.781839,-96.800726,BLUE,DART Rail BLUE LINE
12267,22750,2_merged_2421819,1,18.3,5.5,AKARD STATION,32.781839,-96.800726,BLUE,DART Rail BLUE LINE
12268,22750,2_merged_2421819,0,19.1,4.9,AKARD STATION,32.781839,-96.800726,GREEN,DART Rail GREEN LINE
12268,22750,2_merged_2421819,1,18.5,4.2,AKARD STATION,32.781839,-96.800726,GREEN,DART Rail GREEN LINE
12269,22750,2_merged_2421819,0,18.8,7.1,AKARD STATION,32.781839,-96.800726,ORANGE,DART Rail ORANGE LINE
12269,22750,2_merged_2421819,1,18.7,5.5,AKARD STATION,32.781839,-96.800726,ORANGE,DART Rail ORANGE LINE
12270,22750,2_merged_2421819,0,18.9,3.6,AKARD STATION,32.781839,-96.800726,RED,DART Rail RED LINE
12270,22750,2_merged_2421819,1,19.4,7.0,AKARD STATION,32.781839,-96.800726,RED,DART Rail RED LINE
12267,22751,2_merged_2421819,0,18.5,5.4,ST PAUL STATION,32.784686,-96.797196,BLUE,DART Rail BLUE LINE
12267,22751,2_merged_2421819,1,18.3,5.5,ST PAUL STATION,32.784686,-96.797196,BLUE,DART Rail BLUE LINE
12268,22751,2_merged_2421819,0,19.1,4.9,ST PAUL STATION,32.784686,-96.797196,GREEN,DART Rail GREEN LINE
12268,22751,2_merged_2421819,1,18.5,4.2,ST PAUL STATION,32.784686,-96.797196,GREEN,DART Rail GREEN LINE
12269,22751,2_merged_2421819,0,18.8,7.1,ST PAUL STATION,32.784686,-96.797196,ORANGE,DART Rail ORANGE LINE
12269,22751,2_merged_2421819,1,18.7,5.5,ST PAUL STATION,32.784686,-96.797196,ORANGE,DART Rail ORANGE LINE
12270,22751,2_merged_2421819,0,18.9,3.6,ST PAUL STATION,32.784686,-96.797196,RED,DART Rail RED LINE
12270,22751,2_merged_2421819,1,19.4,7.0,ST PAUL STATION,32.784686,-96.797196,RED,DART Rail RED LINE
12267,22752_merged_2421810,2_merged_2421819,0,18.5,5.4,PEARL/ARTS DISTRICT STATION,32.786423,-96.794243,BLUE,DART Rail BLUE LINE
12267,22752_merged_2421810,2_merged_2421819,1,18.3,5.5,PEARL/ARTS DISTRICT STATION,32.786423,-96.794243,BLUE,DART Rail BLUE LINE
12268,22752_merged_2421810,2_merged_2421819,0,19.1,4.9,PEARL/ARTS DISTRICT STATION,32.786423,-96.794243,GREEN,DART Rail GREEN LINE
12268,22752_merged_2421810,2_merged_2421819,1,18.5,4.2,PEARL/ARTS DISTRICT STATION,32.786423,-96.794243,GREEN,DART Rail GREEN LINE
12269,22752_merged_2421810,2_merged_2421819,0,18.8,7.1,PEARL/ARTS DISTRICT STATION,32.786423,-96.794243,ORANGE,DART Rail ORANGE LINE
12269,22752_merged_2421810,2_merged_2421819,1,18.7,5.5,PEARL/ARTS DISTRICT STATION,32.786423,-96.794243,ORANGE,DART Rail ORANGE LINE
12270,22752_merged_2421810,2_merged_2421819,0,18.9,3.6,PEARL/ARTS DISTRICT STATION,32.786423,-96.794243,RED,DART Rail RED LINE
12270,22752_merged_2421810,2_merged_2421819,1,19.4,7.0,PEARL/ARTS DISTRICT STATION,32.786423,-96.794243,RED,DART Rail RED LINE
12267,22938,2_merged_2421819,0,18.5,5.3,MOCKINGBIRD STATION,32.837806,-96.774666,BLUE,DART Rail BLUE LINE
12267,22938,2_merged_2421819,1,18.3,5.5,MOCKINGBIRD STATION,32.837806,-96.774666,BLUE,DART Rail BLUE LINE
12269,22938,2_merged_2421819,0,19.9,7.7,MOCKINGBIRD STATION,32.837806,-96.774666,ORANGE,DART Rail ORANGE LINE
12269,22938,2_merged_2421819,1,19.2,5.4,MOCKINGBIRD STATION,32.837806,-96.774666,ORANGE,DART Rail ORANGE LINE
12270,22938,2_merged_2421819,0,18.9,3.6,MOCKINGBIRD STATION,32.837806,-96.774666,RED,DART Rail RED LINE
12270,22938,2_merged_2421819,1,19.4,7.0,MOCKINGBIRD STATION,32.837806,-96.774666,RED,DART Rail RED LINE
12269,22984,2_merged_2421819,0,19.9,7.7,LOVERS LANE STATION,32.849157,-96.771511,ORANGE,DART Rail ORANGE LINE
12269,22984,2_merged_2421819,1,19.2,5.4,LOVERS LANE STATION,32.849157,-96.771511,ORANGE,DART Rail ORANGE LINE
12270,22984,2_merged_2421819,0,18.9,3.6,LOVERS LANE STATION,32.849157,-96.771511,RED,DART Rail RED LINE
12270,22984,2_merged_2421819,1,19.4,7.0,LOVERS LANE STATION,32.849157,-96.771511,RED,DART Rail RED LINE
12267,23320,2_merged_2421819,0,19.5,4.8,LEDBETTER STATION,32.683296,-96.788597,BLUE,DART Rail BLUE LINE
12267,23320,2_merged_2421819,1,18.6,4.6,LEDBETTER STATION,32.683296,-96.788597,BLUE,DART Rail BLUE LINE
12267,23390,2_merged_2421819,0,19.5,4.8,KIEST STATION,32.707489,-96.801094,BLUE,DART Rail BLUE LINE
12267,23390,2_merged_2421819,1,18.6,4.6,KIEST STATION,32.707489,-96.801094,BLUE,DART Rail BLUE LINE
12267,23391,2_merged_2421819,0,19.5,4.8,VA MEDICAL CENTER STATION,32.693912,-96.792504,BLUE,DART Rail BLUE LINE
12267,23391,2_merged_2421819,1,18.6,4.6,VA MEDICAL CENTER STATION,32.693912,-96.792504,BLUE,DART Rail BLUE LINE
12267,26420_merged_2421812,2_merged_2421819,0,18.5,5.4,CITYPLACE/UPTOWN STATION,32.805732,-96.792832,BLUE,DART Rail BLUE LINE
12267,26420_merged_2421812,2_merged_2421819,1,18.3,5.5,CITYPLACE/UPTOWN STATION,32.805732,-96.792832,BLUE,DART Rail BLUE LINE
12269,26420_merged_2421812,2_merged_2421819,0,19.9,7.7,CITYPLACE/UPTOWN STATION,32.805732,-96.792832,ORANGE,DART Rail ORANGE LINE
12269,26420_merged_2421812,2_merged_2421819,1,19.2,5.4,CITYPLACE/UPTOWN STATION,32.805732,-96.792832,ORANGE,DART Rail ORANGE LINE
12270,26420_merged_2421812,2_merged_2421819,0,18.9,3.6,CITYPLACE/UPTOWN STATION,32.805732,-96.792832,RED,DART Rail RED LINE
12270,26420_merged_2421812,2_merged_2421819,1,19.4,7.0,CITYPLACE/UPTOWN STATION,32.805732,-96.792832,RED,DART Rail RED LINE
12267,26652_merged_2421804,2_merged_2421819,0,18.4,5.2,WHITE ROCK STATION,32.854946,-96.734459,BLUE,DART Rail BLUE LINE
12267,26652_merged_2421804,2_merged_2421819,1,18.3,5.5,WHITE ROCK STATION,32.854946,-96.734459,BLUE,DART Rail BLUE LINE
12267,26668,2_merged_2421819,0,18.4,5.2,LBJ / SKILLMAN STATION,32.897796,-96.711823,BLUE,DART Rail BLUE LINE
12267,26668,2_merged_2421819,1,18.3,5.5,LBJ / SKILLMAN STATION,32.897796,-96.711823,BLUE,DART Rail BLUE LINE
12269,26669,2_merged_2421819,0,19.9,7.7,WALNUT HILL STATION,32.883106,-96.764771,ORANGE,DART Rail ORANGE LINE
12269,26669,2_merged_2421819,1,19.2,5.4,WALNUT HILL STATION,32.883106,-96.764771,ORANGE,DART Rail ORANGE LINE
12270,26669,2_merged_2421819,0,18.9,3.6,WALNUT HILL STATION,32.883106,-96.764771,RED,DART Rail RED LINE
12270,26669,2_merged_2421819,1,19.4,7.1,WALNUT HILL STATION,32.883106,-96.764771,RED,DART Rail RED LINE
12269,26670,2_merged_2421819,0,19.9,7.7,LBJ / CENTRAL STATION,32.918701,-96.751625,ORANGE,DART Rail ORANGE LINE
12269,26670,2_merged_2421819,1,19.2,5.4,LBJ / CENTRAL STATION,32.918701,-96.751625,ORANGE,DART Rail ORANGE LINE
12270,26670,2_merged_2421819,0,18.9,3.6,LBJ / CENTRAL STATION,32.918701,-96.751625,RED,DART Rail RED LINE
12270,26670,2_merged_2421819,1,19.4,7.1,LBJ / CENTRAL STATION,32.918701,-96.751625,RED,DART Rail RED LINE
12269,26671,2_merged_2421819,0,19.9,7.7,FOREST LN STATION,32.908532,-96.762691,ORANGE,DART Rail ORANGE LINE
12269,26671,2_merged_2421819,1,19.2,5.4,FOREST LN STATION,32.908532,-96.762691,ORANGE,DART Rail ORANGE LINE
12270,26671,2_merged_2421819,0,18.9,3.6,FOREST LN STATION,32.908532,-96.762691,RED,DART Rail RED LINE
12270,26671,2_merged_2421819,1,19.4,7.1,FOREST LN STATION,32.908532,-96.762691,RED,DART Rail RED LINE
12269,26672,2_merged_2421819,0,18.1,10.3,SPRING VALLEY STATION,32.940673,-96.737748,ORANGE,DART Rail ORANGE LINE
12269,26672,2_merged_2421819,1,16.2,2.8,SPRING VALLEY STATION,32.940673,-96.737748,ORANGE,DART Rail ORANGE LINE
12270,26672,2_merged_2421819,0,18.9,3.6,SPRING VALLEY STATION,32.940673,-96.737748,RED,DART Rail RED LINE
12270,26672,2_merged_2421819,1,19.5,7.1,SPRING VALLEY STATION,32.940673,-96.737748,RED,DART Rail RED LINE
12269,26673,2_merged_2421819,0,18.1,10.3,ARAPAHO CENTER STATION,32.962516,-96.722474,ORANGE,DART Rail ORANGE LINE
12269,26673,2_merged_2421819,1,16.2,2.8,ARAPAHO CENTER STATION,32.962516,-96.722474,ORANGE,DART Rail ORANGE LINE
12270,26673,2_merged_2421819,0,18.9,3.6,ARAPAHO CENTER STATION,32.962516,-96.722474,RED,DART Rail RED LINE
12270,26673,2_merged_2421819,1,19.5,7.1,ARAPAHO CENTER STATION,32.962516,-96.722474,RED,DART Rail RED LINE
12269,26674,2_merged_2421819,0,18.1,10.3,GALATYN PARK STATION,32.985073,-96.710803,ORANGE,DART Rail ORANGE LINE
12269,26674,2_merged_2421819,1,16.2,2.8,GALATYN PARK STATION,32.985073,-96.710803,ORANGE,DART Rail ORANGE LINE
12270,26674,2_merged_2421819,0,18.9,3.6,GALATYN PARK STATION,32.985073,-96.710803,RED,DART Rail RED LINE
12270,26674,2_merged_2421819,1,19.5,7.2,GALATYN PARK STATION,32.985073,-96.710803,RED,DART Rail RED LINE
12267,26690,2_merged_2421819,0,18.4,5.1,FOREST / JUPITER STATION,32.908313,-96.679207,BLUE,DART Rail BLUE LINE
12267,26690,2_merged_2421819,1,18.3,5.5,FOREST / JUPITER STATION,32.908313,-96.679207,BLUE,DART Rail BLUE LINE
12267,26691,2_merged_2421819,0,18.4,5.1,DOWNTOWN GARLAND STATION,32.916292,-96.635756,BLUE,DART Rail BLUE LINE
12267,26691,2_merged_2421819,1,18.3,5.5,DOWNTOWN GARLAND STATION,32.916292,-96.635756,BLUE,DART Rail BLUE LINE
12269,26895,2_merged_2421819,0,18.1,10.3,BUSH TURNPIKE STATION WEST,33.003227,-96.703713,ORANGE,DART Rail ORANGE LINE
12269,26895,2_merged_2421819,1,16.2,2.8,BUSH TURNPIKE STATION WEST,33.003227,-96.703713,ORANGE,DART Rail ORANGE LINE
12270,26895,2_merged_2421819,0,18.9,3.6,BUSH TURNPIKE STATION WEST,33.003227,-96.703713,RED,DART Rail RED LINE
12270,26895,2_merged_2421819,1,19.5,7.2,BUSH TURNPIKE STATION WEST,33.003227,-96.703713,RED,DART Rail RED LINE
12269,26896,2_merged_2421819,0,18.1,10.3,DOWNTOWN PLANO STATION,33.021621,-96.700707,ORANGE,DART Rail ORANGE LINE
12269,26896,2_merged_2421819,1,16.2,2.8,DOWNTOWN PLANO STATION,33.021621,-96.700707,ORANGE,DART Rail ORANGE LINE
12270,26896,2_merged_2421819,0,18.9,3.6,DOWNTOWN PLANO STATION,33.021621,-96.700707,RED,DART Rail RED LINE
12270,26896,2_merged_2421819,1,19.5,7.2,DOWNTOWN PLANO STATION,33.021621,-96.700707,RED,DART Rail RED LINE
12269,26897,2_merged_2421819,0,18.1,10.3,PARKER ROAD STATION,33.033752,-96.700974,ORANGE,DART Rail ORANGE LINE
12269,26897,2_merged_2421819,1,16.2,2.8,PARKER ROAD STATION,33.033752,-96.700974,ORANGE,DART Rail ORANGE LINE
12270,26897,2_merged_2421819,0,18.9,3.6,PARKER ROAD STATION,33.033752,-96.700974,RED,DART Rail RED LINE
12270,26897,2_merged_2421819,1,19.5,7.2,PARKER ROAD STATION,33.033752,-96.700974,RED,DART Rail RED LINE
12268,28264,2_merged_2421819,0,19.1,4.9,VICTORY STATION,32.789903,-96.812363,GREEN,DART Rail GREEN LINE
12268,28264,2_merged_2421819,1,18.5,4.2,VICTORY STATION,32.789903,-96.812363,GREEN,DART Rail GREEN LINE
12269,28264,2_merged_2421819,0,18.8,7.1,VICTORY STATION,32.789903,-96.812363,ORANGE,DART Rail ORANGE LINE
12269,28264,2_merged_2421819,1,18.7,5.5,VICTORY STATION,32.789903,-96.812363,ORANGE,DART Rail ORANGE LINE
12269,28755,2_merged_2421819,0,19.9,7.7,PARK LANE STATION,32.872791,-96.765717,ORANGE,DART Rail ORANGE LINE
12269,28755,2_merged_2421819,1,19.2,5.4,PARK LANE STATION,32.872791,-96.765717,ORANGE,DART Rail ORANGE LINE
12270,28755,2_merged_2421819,0,18.9,3.6,PARK LANE STATION,32.872791,-96.765717,RED,DART Rail RED LINE
12270,28755,2_merged_2421819,1,19.4,7.1,PARK LANE STATION,32.872791,-96.765717,RED,DART Rail RED LINE
12268,29815,2_merged_2421819,0,18.2,5.5,NORTH CARROLLTON/FRANKFORD STATION,32.990958,-96.93644,GREEN,DART Rail GREEN LINE
12268,29815,2_merged_2421819,1,18.3,5.1,NORTH CARROLLTON/FRANKFORD STATION,32.990958,-96.93644,GREEN,DART Rail GREEN LINE
12268,29816,2_merged_2421819,0,18.2,5.5,TRINITY MILLS RAIL STATION,32.979915,-96.92562,GREEN,DART Rail GREEN LINE
12268,29816,2_merged_2421819,1,18.3,5.1,TRINITY MILLS RAIL STATION,32.979915,-96.92562,GREEN,DART Rail GREEN LINE
12268,29817,2_merged_2421819,0,18.2,5.5,DOWNTOWN CARROLLTON STATION,32.954362,-96.908481,GREEN,DART Rail GREEN LINE
12268,29817,2_merged_2421819,1,18.3,5.1,DOWNTOWN CARROLLTON STATION,32.954362,-96.908481,GREEN,DART Rail GREEN LINE
12268,29818,2_merged_2421819,0,18.2,5.5,FARMERS BRANCH STATION,32.922445,-96.896572,GREEN,DART Rail GREEN LINE
12268,29818,2_merged_2421819,1,18.3,5.1,FARMERS BRANCH STATION,32.922445,-96.896572,GREEN,DART Rail GREEN LINE
12268,29819,2_merged_2421819,0,18.2,5.5,ROYAL LANE STATION,32.896339,-96.888455,GREEN,DART Rail GREEN LINE
12268,29819,2_merged_2421819,1,18.3,5.1,ROYAL LANE STATION,32.896339,-96.888455,GREEN,DART Rail GREEN LINE
12268,29820,2_merged_2421819,0,18.2,5.5,WALNUT HILL/DENTON STATION,32.881923,-96.883875,GREEN,DART Rail GREEN LINE
12268,29820,2_merged_2421819,1,18.3,5.1,WALNUT HILL/DENTON STATION,32.881923,-96.883875,GREEN,DART Rail GREEN LINE
12268,29821,2_merged_2421819,0,19.1,4.9,BACHMAN STATION,32.854818,-96.877044,GREEN,DART Rail GREEN LINE
12268,29821,2_merged_2421819,1,18.5,4.2,BACHMAN STATION,32.854818,-96.877044,GREEN,DART Rail GREEN LINE
12269,29821,2_merged_2421819,0,17.5,6.2,BACHMAN STATION,32.854818,-96.877044,ORANGE,DART Rail ORANGE LINE
12269,29821,2_merged_2421819,1,17.8,5.8,BACHMAN STATION,32.854818,-96.877044,ORANGE,DART Rail ORANGE LINE
12268,29822_merged_2421803,2_merged_2421819,0,19.1,4.9,BURBANK STATION,32.842981,-96.862185,GREEN,DART Rail GREEN LINE
12268,29822_merged_2421803,2_merged_2421819,1,18.5,4.2,BURBANK STATION,32.842981,-96.862185,GREEN,DART Rail GREEN LINE
12269,29822_merged_2421803,2_merged_2421819,0,18.8,7.1,BURBANK STATION,32.842981,-96.862185,ORANGE,DART Rail ORANGE LINE
12269,29822_merged_2421803,2_merged_2421819,1,18.7,5.5,BURBANK STATION,32.842981,-96.862185,ORANGE,DART Rail ORANGE LINE
12268,29824,2_merged_2421819,0,19.1,4.9,INWOOD/LOVE FIELD STATION,32.823166,-96.833512,GREEN,DART Rail GREEN LINE
12268,29824,2_merged_2421819,1,18.5,4.2,INWOOD/LOVE FIELD STATION,32.823166,-96.833512,GREEN,DART Rail GREEN LINE
12269,29824,2_merged_2421819,0,18.8,7.1,INWOOD/LOVE FIELD STATION,32.823166,-96.833512,ORANGE,DART Rail ORANGE LINE
12269,29824,2_merged_2421819,1,18.7,5.5,INWOOD/LOVE FIELD STATION,32.823166,-96.833512,ORANGE,DART Rail ORANGE LINE
12268,29825,2_merged_2421819,0,19.1,4.9,MARKET CENTER STATION,32.804751,-96.823348,GREEN,DART Rail GREEN LINE
12268,29825,2_merged_2421819,1,18.5,4.2,MARKET CENTER STATION,32.804751,-96.823348,GREEN,DART Rail GREEN LINE
12269,29825,2_merged_2421819,0,18.8,7.1,MARKET CENTER STATION,32.804751,-96.823348,ORANGE,DART Rail ORANGE LINE
12269,29825,2_merged_2421819,1,18.7,5.5,MARKET CENTER STATION,32.804751,-96.823348,ORANGE,DART Rail ORANGE LINE
12268,29826,2_merged_2421819,0,19.1,4.9,SOUTHWEST MEDICAL DISTRICT/PARKLAND,32.812661,-96.832957,GREEN,DART Rail GREEN LINE
12268,29826,2_merged_2421819,1,18.5,4.2,SOUTHWEST MEDICAL DISTRICT/PARKLAND,32.812661,-96.832957,GREEN,DART Rail GREEN LINE
12269,29826,2_merged_2421819,0,18.8,7.1,SOUTHWEST MEDICAL DISTRICT/PARKLAND,32.812661,-96.832957,ORANGE,DART Rail ORANGE LINE
12269,29826,2_merged_2421819,1,18.7,5.5,SOUTHWEST MEDICAL DISTRICT/PARKLAND,32.812661,-96.832957,ORANGE,DART Rail ORANGE LINE
12268,29831,2_merged_2421819,0,18.2,4.6,HATCHER STATION,32.76634,-96.74172,GREEN,DART Rail GREEN LINE
12268,29831,2_merged_2421819,1,18.1,4.7,HATCHER STATION,32.76634,-96.74172,GREEN,DART Rail GREEN LINE
12268,29832,2_merged_2421819,0,18.2,4.6,LAWNVIEW STATION,32.765562,-96.720925,GREEN,DART Rail GREEN LINE
12268,29832,2_merged_2421819,1,18.1,4.7,LAWNVIEW STATION,32.765562,-96.720925,GREEN,DART Rail GREEN LINE
12268,29833,2_merged_2421819,0,18.2,4.6,LAKE JUNE STATION,32.732236,-96.709593,GREEN,DART Rail GREEN LINE
12268,29833,2_merged_2421819,1,18.1,4.7,LAKE JUNE STATION,32.732236,-96.709593,GREEN,DART Rail GREEN LINE
12268,29834,2_merged_2421819,0,18.2,4.6,BUCKNER STATION,32.717607,-96.683832,GREEN,DART Rail GREEN LINE
12268,29834,2_merged_2421819,1,18.1,4.7,BUCKNER STATION,32.717607,-96.683832,GREEN,DART Rail GREEN LINE
12269,31084,2_merged_2421819,0,17.8,6.5,UNIVERSITY OF DALLAS STATION,32.849532,-96.915867,ORANGE,DART Rail ORANGE LINE
12269,31084,2_merged_2421819,1,17.8,5.8,UNIVERSITY OF DALLAS STATION,32.849532,-96.915867,ORANGE,DART Rail ORANGE LINE
12268,32040,2_merged_2421819,0,18.2,4.6,MLK STATION,32.773793,-96.764651,GREEN,DART Rail GREEN LINE
12268,32040,2_merged_2421819,1,18.1,4.7,MLK STATION,32.773793,-96.764651,GREEN,DART Rail GREEN LINE
12268,32041,2_merged_2421819,0,19.1,4.9,FAIR PARK STATION,32.782049,-96.766046,GREEN,DART Rail GREEN LINE
12268,32041,2_merged_2421819,1,18.5,4.2,FAIR PARK STATION,32.782049,-96.766046,GREEN,DART Rail GREEN LINE
12269,32041,2_merged_2421819,0,15.0,,FAIR PARK STATION,32.782049,-96.766046,ORANGE,DART Rail ORANGE LINE
12269,32041,2_merged_2421819,1,,,FAIR PARK STATION,32.782049,-96.766046,ORANGE,DART Rail ORANGE LINE
12268,32042,2_merged_2421819,0,19.1,4.9,BAYLOR STATION,32.786495,-96.782132,GREEN,DART Rail GREEN LINE
12268,32042,2_merged_2421819,1,18.5,4.2,BAYLOR STATION,32.786495,-96.782132,GREEN,DART Rail GREEN LINE
12269,32042,2_merged_2421819,0,15.0,,BAYLOR STATION,32.786495,-96.782132,ORANGE,DART Rail ORANGE LINE
12269,32042,2_merged_2421819,1,,,BAYLOR STATION,32.786495,-96.782132,ORANGE,DART Rail ORANGE LINE
12268,32043,2_merged_2421819,0,19.1,4.9,DEEP ELLUM STATION,32.786144,-96.788897,GREEN,DART Rail GREEN LINE
12268,32043,2_merged_2421819,1,18.5,4.2,DEEP ELLUM STATION,32.786144,-96.788897,GREEN,DART Rail GREEN LINE
12269,32043,2_merged_2421819,0,15.0,,DEEP ELLUM STATION,32.786144,-96.788897,ORANGE,DART Rail ORANGE LINE
12269,32043,2_merged_2421819,1,,,DEEP ELLUM STATION,32.786144,-96.788897,ORANGE,DART Rail ORANGE LINE
12267,32049_merged_2421801,2_merged_2421819,0,18.4,5.2,LAKE HIGHLANDS STATION,32.879729,-96.730376,BLUE,DART Rail BLUE LINE
12267,32049_merged_2421801,2_merged_2421819,1,18.3,5.5,LAKE HIGHLANDS STATION,32.879729,-96.730376,BLUE,DART Rail BLUE LINE
12268,32133,2_merged_2421819,1,21.0,6.2,NWROF RELIEF POINT,32.870437,-96.880193,GREEN,DART Rail GREEN LINE
12269,32337,2_merged_2421819,0,17.8,6.5,LAS COLINAS URBAN CENTER STATION,32.869576,-96.933469,ORANGE,DART Rail ORANGE LINE
12269,32337,2_merged_2421819,1,17.8,5.8,LAS COLINAS URBAN CENTER STATION,32.869576,-96.933469,ORANGE,DART Rail ORANGE LINE
12269,32338,2_merged_2421819,0,17.8,6.5,IRVING CONVENTION CENTER STATION,32.876956,-96.938574,ORANGE,DART Rail ORANGE LINE
12269,32338,2_merged_2421819,1,17.8,5.8,IRVING CONVENTION CENTER STATION,32.876956,-96.938574,ORANGE,DART Rail ORANGE LINE
12270,13659,3_merged_2421818,0,23.0,6.1,ZOO STATION,32.741005,-96.812844,RED,DART Rail RED LINE
12270,13659,3_merged_2421818,1,23.2,5.9,ZOO STATION,32.741005,-96.812844,RED,DART Rail RED LINE
12267,15262,3_merged_2421818,0,23.3,5.8,CORINTH RAIL STATION,32.74831,-96.798302,BLUE,DART Rail BLUE LINE
12267,15262,3_merged_2421818,1,23.4,7.2,CORINTH RAIL STATION,32.74831,-96.798302,BLUE,DART Rail BLUE LINE
12270,15262,3_merged_2421818,0,23.0,6.1,CORINTH RAIL STATION,32.74831,-96.798302,RED,DART Rail RED LINE
12270,15262,3_merged_2421818,1,23.2,5.9,CORINTH RAIL STATION,32.74831,-96.798302,RED,DART Rail RED LINE
12270,15913,3_merged_2421818,0,23.0,6.1,WESTMORELAND STATION,32.71994,-96.871605,RED,DART Rail RED LINE
12270,15913,3_merged_2421818,1,23.1,5.9,WESTMORELAND STATION,32.71994,-96.871605,RED,DART Rail RED LINE
12267,16083,3_merged_2421818,0,23.3,5.8,MORRELL STATION,32.740135,-96.80272,BLUE,DART Rail BLUE LINE
12267,16083,3_merged_2421818,1,23.4,7.2,MORRELL STATION,32.740135,-96.80272,BLUE,DART Rail BLUE LINE
12267,21030,3_merged_2421818,0,23.3,5.8,ILLINOIS TC/STATION,32.723278,-96.804978,BLUE,DART Rail BLUE LINE
12267,21030,3_merged_2421818,1,23.4,7.1,ILLINOIS TC/STATION,32.723278,-96.804978,BLUE,DART Rail BLUE LINE
12270,21210,3_merged_2421818,0,23.0,6.1,HAMPTON STATION,32.72644,-96.854996,RED,DART Rail RED LINE
12270,21210,3_merged_2421818,1,23.1,5.9,HAMPTON STATION,32.72644,-96.854996,RED,DART Rail RED LINE
12267,22729,3_merged_2421818,0,24.4,6.7,CEDARS STATION,32.768836,-96.793412,BLUE,DART Rail BLUE LINE
12267,22729,3_merged_2421818,1,24.3,6.7,CEDARS STATION,32.768836,-96.793412,BLUE,DART Rail BLUE LINE
12270,22729,3_merged_2421818,0,24.5,8.1,CEDARS STATION,32.768836,-96.793412,RED,DART Rail RED LINE
12270,22729,3_merged_2421818,1,24.3,6.7,CEDARS STATION,32.768836,-96.793412,RED,DART Rail RED LINE
12270,22730,3_merged_2421818,0,23.0,6.1,TYLER VERNON STATION,32.733274,-96.838305,RED,DART Rail RED LINE
12270,22730,3_merged_2421818,1,23.2,5.9,TYLER VERNON STATION,32.733274,-96.838305,RED,DART Rail RED LINE
12267,22745,3_merged_2421818,0,24.3,5.3,SANTA FE JUNCTION,32.764739,-96.787368,BLUE,DART Rail BLUE LINE
12267,22745,3_merged_2421818,1,24.1,6.7,SANTA FE JUNCTION,32.764739,-96.787368,BLUE,DART Rail BLUE LINE
12270,22745,3_merged_2421818,0,24.3,5.2,SANTA FE JUNCTION,32.764739,-96.787368,RED,DART Rail RED LINE
12270,22745,3_merged_2421818,1,23.9,6.7,SANTA FE JUNCTION,32.764739,-96.787368,RED,DART Rail RED LINE
12267,22747,3_merged_2421818,0,24.4,6.7,CONVENTION CENTER STATION,32.772579,-96.803174,BLUE,DART Rail BLUE LINE
12267,22747,3_merged_2421818,1,24.3,6.7,CONVENTION CENTER STATION,32.772579,-96.803174,BLUE,DART Rail BLUE LINE
12270,22747,3_merged_2421818,0,24.5,8.1,CONVENTION CENTER STATION,32.772579,-96.803174,RED,DART Rail RED LINE
12270,22747,3_merged_2421818,1,24.3,6.7,CONVENTION CENTER STATION,32.772579,-96.803174,RED,DART Rail RED LINE
12267,22748,3_merged_2421818,0,24.4,6.7,UNION STATION,32.775987,-96.808031,BLUE,DART Rail BLUE LINE
12267,22748,3_merged_2421818,1,24.3,6.7,UNION STATION,32.775987,-96.808031,BLUE,DART Rail BLUE LINE
12270,22748,3_merged_2421818,0,24.5,8.1,UNION STATION,32.775987,-96.808031,RED,DART Rail RED LINE
12270,22748,3_merged_2421818,1,24.3,6.7,UNION STATION,32.775987,-96.808031,RED,DART Rail RED LINE
12267,22749,3_merged_2421818,0,24.4,6.7,WEST END STATION,32.780838,-96.805569,BLUE,DART Rail BLUE LINE
12267,22749,3_merged_2421818,1,24.3,6.7,WEST END STATION,32.780838,-96.805569,BLUE,DART Rail BLUE LINE
12268,22749,3_merged_2421818,0,24.1,5.7,WEST END STATION,32.780838,-96.805569,GREEN,DART Rail GREEN LINE
12268,22749,3_merged_2421818,1,23.9,5.6,WEST END STATION,32.780838,-96.805569,GREEN,DART Rail GREEN LINE
12269,22749,3_merged_2421818,0,22.9,4.9,WEST END STATION,32.780838,-96.805569,ORANGE,DART Rail ORANGE LINE
12269,22749,3_merged_2421818,1,22.9,4.5,WEST END STATION,32.780838,-96.805569,ORANGE,DART Rail ORANGE LINE
12270,22749,3_merged_2421818,0,24.5,8.1,WEST END STATION,32.780838,-96.805569,RED,DART Rail RED LINE
12270,22749,3_merged_2421818,1,24.3,6.7,WEST END STATION,32.780838,-96.805569,RED,DART Rail RED LINE
12267,22750,3_merged_2421818,0,24.4,6.7,AKARD STATION,32.781839,-96.800726,BLUE,DART Rail BLUE LINE
12267,22750,3_merged_2421818,1,24.3,6.7,AKARD STATION,32.781839,-96.800726,BLUE,DART Rail BLUE LINE
12268,22750,3_merged_2421818,0,24.1,5.7,AKARD STATION,32.781839,-96.800726,GREEN,DART Rail GREEN LINE
12268,22750,3_merged_2421818,1,23.9,5.6,AKARD STATION,32.781839,-96.800726,GREEN,DART Rail GREEN LINE
12269,22750,3_merged_2421818,0,22.9,4.9,AKARD STATION,32.781839,-96.800726,ORANGE,DART Rail ORANGE LINE
12269,22750,3_merged_2421818,1,22.9,4.5,AKARD STATION,32.781839,-96.800726,ORANGE,DART Rail ORANGE LINE
12270,22750,3_merged_2421818,0,24.5,8.1,AKARD STATION,32.781839,-96.800726,RED,DART Rail RED LINE
12270,22750,3_merged_2421818,1,24.3,6.7,AKARD STATION,32.781839,-96.800726,RED,DART Rail RED LINE
12267,22751,3_merged_2421818,0,24.4,6.7,ST PAUL STATION,32.784686,-96.797196,BLUE,DART Rail BLUE LINE
12267,22751,3_merged_2421818,1,24.3,6.7,ST PAUL STATION,32.784686,-96.797196,BLUE,DART Rail BLUE LINE
12268,22751,3_merged_2421818,0,24.1,5.7,ST PAUL STATION,32.784686,-96.797196,GREEN,DART Rail GREEN LINE
12268,22751,3_merged_2421818,1,23.9,5.6,ST PAUL STATION,32.784686,-96.797196,GREEN,DART Rail GREEN LINE
12269,22751,3_merged_2421818,0,22.9,4.9,ST PAUL STATION,32.784686,-96.797196,ORANGE,DART Rail ORANGE LINE
12269,22751,3_merged_2421818,1,22.9,4.5,ST PAUL STATION,32.784686,-96.797196,ORANGE,DART Rail ORANGE LINE
12270,22751,3_merged_2421818,0,24.5,8.1,ST PAUL STATION,32.784686,-96.797196,RED,DART Rail RED LINE
12270,22751,3_merged_2421818,1,24.3,6.7,ST PAUL STATION,32.784686,-96.797196,RED,DART Rail RED LINE
12267,22752_merged_2421810,3_merged_2421818,0,24.4,6.7,PEARL/ARTS DISTRICT STATION,32.786423,-96.794243,BLUE,DART Rail BLUE LINE
12267,22752_merged_2421810,3_merged_2421818,1,24.3,6.7,PEARL/ARTS DISTRICT STATION,32.786423,-96.794243,BLUE,DART Rail BLUE LINE
12268,22752_merged_2421810,3_merged_2421818,0,24.1,5.7,PEARL/ARTS DISTRICT STATION,32.786423,-96.794243,GREEN,DART Rail GREEN LINE
12268,22752_merged_2421810,3_merged_2421818,1,23.9,5.6,PEARL/ARTS DISTRICT STATION,32.786423,-96.794243,GREEN,DART Rail GREEN LINE
12269,22752_merged_2421810,3_merged_2421818,0,22.9,4.9,PEARL/ARTS DISTRICT STATION,32.786423,-96.794243,ORANGE,DART Rail ORANGE LINE
12269,22752_merged_2421810,3_merged_2421818,1,22.9,4.5,PEARL/ARTS DISTRICT STATION,32.786423,-96.794243,ORANGE,DART Rail ORANGE LINE
12270,22752_merged_2421810,3_merged_2421818,0,24.5,8.1,PEARL/ARTS DISTRICT STATION,32.786423,-96.794243,RED,DART Rail RED LINE
12270,22752_merged_2421810,3_merged_2421818,1,24.3,6.7,PEARL/ARTS DISTRICT STATION,32.786423,-96.794243,RED,DART Rail RED LINE
12267,22938,3_merged_2421818,0,24.4,6.7,MOCKINGBIRD STATION,32.837806,-96.774666,BLUE,DART Rail BLUE LINE
12267,22938,3_merged_2421818,1,24.3,6.7,MOCKINGBIRD STATION,32.837806,-96.774666,BLUE,DART Rail BLUE LINE
12269,22938,3_merged_2421818,0,22.9,4.9,MOCKINGBIRD STATION,32.837806,-96.774666,ORANGE,DART Rail ORANGE LINE
12269,22938,3_merged_2421818,1,22.9,4.5,MOCKINGBIRD STATION,32.837806,-96.774666,ORANGE,DART Rail ORANGE LINE
12270,22938,3_merged_2421818,0,24.4,7.9,MOCKINGBIRD STATION,32.837806,-96.774666,RED,DART Rail RED LINE
12270,22938,3_merged_2421818,1,24.3,6.7,MOCKINGBIRD STATION,32.837806,-96.774666,RED,DART Rail RED LINE
12269,22984,3_merged_2421818,0,22.9,4.9,LOVERS LANE STATION,32.849157,-96.771511,ORANGE,DART Rail ORANGE LINE
12269,22984,3_merged_2421818,1,22.9,4.5,LOVERS LANE STATION,32.849157,-96.771511,ORANGE,DART Rail ORANGE LINE
12270,22984,3_merged_2421818,0,24.4,7.9,LOVERS LANE STATION,32.849157,-96.771511,RED,DART Rail RED LINE
12270,22984,3_merged_2421818,1,24.3,6.7,LOVERS LANE STATION,32.849157,-96.771511,RED,DART Rail RED LINE
12267,23320,3_merged_2421818,0,23.3,5.8,LEDBETTER STATION,32.683296,-96.788597,BLUE,DART Rail BLUE LINE
12267,23320,3_merged_2421818,1,23.4,7.1,LEDBETTER STATION,32.683296,-96.788597,BLUE,DART Rail BLUE LINE
12267,23390,3_merged_2421818,0,23.3,5.8,KIEST STATION,32.707489,-96.801094,BLUE,DART Rail BLUE LINE
12267,23390,3_merged_2421818,1,23.4,7.1,KIEST STATION,32.707489,-96.801094,BLUE,DART Rail BLUE LINE
12267,23391,3_merged_2421818,0,23.3,5.8,VA MEDICAL CENTER STATION,32.693912,-96.792504,BLUE,DART Rail BLUE LINE
12267,23391,3_merged_2421818,1,23.4,7.1,VA MEDICAL CENTER STATION,32.693912,-96.792504,BLUE,DART Rail BLUE LINE
12267,26420_merged_2421812,3_merged_2421818,0,24.4,6.7,CITYPLACE/UPTOWN STATION,32.805732,-96.792832,BLUE,DART Rail BLUE LINE
12267,26420_merged_2421812,3_merged_2421818,1,24.3,6.7,CITYPLACE/UPTOWN STATION,32.805732,-96.792832,BLUE,DART Rail BLUE LINE
12269,26420_merged_2421812,3_merged_2421818,0,22.9,4.9,CITYPLACE/UPTOWN STATION,32.805732,-96.792832,ORANGE,DART Rail ORANGE LINE
12269,26420_merged_2421812,3_merged_2421818,1,22.9,4.5,CITYPLACE/UPTOWN STATION,32.805732,-96.792832,ORANGE,DART Rail ORANGE LINE
12270,26420_merged_2421812,3_merged_2421818,0,24.4,8.0,CITYPLACE/UPTOWN STATION,32.805732,-96.792832,RED,DART Rail RED LINE
12270,26420_merged_2421812,3_merged_2421818,1,24.3,6.7,CITYPLACE/UPTOWN STATION,32.805732,-96.792832,RED,DART Rail RED LINE
12267,26652_merged_2421804,3_merged_2421818,0,24.4,6.5,WHITE ROCK STATION,32.854946,-96.734459,BLUE,DART Rail BLUE LINE
12267,26652_merged_2421804,3_merged_2421818,1,24.3,6.7,WHITE ROCK STATION,32.854946,-96.734459,BLUE,DART Rail BLUE LINE
12267,26668,3_merged_2421818,0,24.3,6.5,LBJ / SKILLMAN STATION,32.897796,-96.711823,BLUE,DART Rail BLUE LINE
12267,26668,3_merged_2421818,1,24.3,6.7,LBJ / SKILLMAN STATION,32.897796,-96.711823,BLUE,DART Rail BLUE LINE
12269,26669,3_merged_2421818,0,22.9,4.9,WALNUT HILL STATION,32.883106,-96.764771,ORANGE,DART Rail ORANGE LINE
12269,26669,3_merged_2421818,1,22.9,4.5,WALNUT HILL STATION,32.883106,-96.764771,ORANGE,DART Rail ORANGE LINE
12270,26669,3_merged_2421818,0,24.4,7.9,WALNUT HILL STATION,32.883106,-96.764771,RED,DART Rail RED LINE
12270,26669,3_merged_2421818,1,24.3,6.7,WALNUT HILL STATION,32.883106,-96.764771,RED,DART Rail RED LINE
12269,26670,3_merged_2421818,0,22.9,4.9,LBJ / CENTRAL STATION,32.918701,-96.751625,ORANGE,DART Rail ORANGE LINE
12269,26670,3_merged_2421818,1,22.9,4.5,LBJ / CENTRAL STATION,32.918701,-96.751625,ORANGE,DART Rail ORANGE LINE
12270,26670,3_merged_2421818,0,24.4,7.8,LBJ / CENTRAL STATION,32.918701,-96.751625,RED,DART Rail RED LINE
12270,26670,3_merged_2421818,1,24.3,6.7,LBJ / CENTRAL STATION,32.918701,-96.751625,RED,DART Rail RED LINE
12269,26671,3_merged_2421818,0,22.9,4.9,FOREST LN STATION,32.908532,-96.762691,ORANGE,DART Rail ORANGE LINE
12269,26671,3_merged_2421818,1,22.9,4.5,FOREST LN STATION,32.908532,-96.762691,ORANGE,DART Rail ORANGE LINE
12270,26671,3_merged_2421818,0,24.4,7.8,FOREST LN STATION,32.908532,-96.762691,RED,DART Rail RED LINE
12270,26671,3_merged_2421818,1,24.3,6.7,FOREST LN STATION,32.908532,-96.762691,RED,DART Rail RED LINE
12270,26672,3_merged_2421818,0,24.4,7.7,SPRING VALLEY STATION,32.940673,-96.737748,RED,DART Rail RED LINE
12270,26672,3_merged_2421818,1,24.3,6.7,SPRING VALLEY STATION,32.940673,-96.737748,RED,DART Rail RED LINE
12270,26673,3_merged_2421818,0,24.3,7.6,ARAPAHO CENTER STATION,32.962516,-96.722474,RED,DART Rail RED LINE
12270,26673,3_merged_2421818,1,24.3,6.7,ARAPAHO CENTER STATION,32.962516,-96.722474,RED,DART Rail RED LINE
12270,26674,3_merged_2421818,0,24.3,7.5,GALATYN PARK STATION,32.985073,-96.710803,RED,DART Rail RED LINE
12270,26674,3_merged_2421818,1,24.3,6.7,GALATYN PARK STATION,32.985073,-96.710803,RED,DART Rail RED LINE
12267,26690,3_merged_2421818,0,24.3,6.4,FOREST / JUPITER STATION,32.908313,-96.679207,BLUE,DART Rail BLUE LINE
12267,26690,3_merged_2421818,1,24.3,6.7,FOREST / JUPITER STATION,32.908313,-96.679207,BLUE,DART Rail BLUE LINE
12267,26691,3_merged_2421818,0,24.3,6.3,DOWNTOWN GARLAND STATION,32.916292,-96.635756,BLUE,DART Rail BLUE LINE
12267,26691,3_merged_2421818,1,24.3,6.7,DOWNTOWN GARLAND STATION,32.916292,-96.635756,BLUE,DART Rail BLUE LINE
12270,26895,3_merged_2421818,0,24.3,7.4,BUSH TURNPIKE STATION WEST,33.003227,-96.703713,RED,DART Rail RED LINE
12270,26895,3_merged_2421818,1,24.3,6.7,BUSH TURNPIKE STATION WEST,33.003227,-96.703713,RED,DART Rail RED LINE
12270,26896,3_merged_2421818,0,24.3,7.4,DOWNTOWN PLANO STATION,33.021621,-96.700707,RED,DART Rail RED LINE
12270,26896,3_merged_2421818,1,24.3,6.7,DOWNTOWN PLANO STATION,33.021621,-96.700707,RED,DART Rail RED LINE
12270,26897,3_merged_2421818,0,24.3,7.4,PARKER ROAD STATION,33.033752,-96.700974,RED,DART Rail RED LINE
12270,26897,3_merged_2421818,1,24.3,6.7,PARKER ROAD STATION,33.033752,-96.700974,RED,DART Rail RED LINE
12268,28264,3_merged_2421818,0,24.1,5.7,VICTORY STATION,32.789903,-96.812363,GREEN,DART Rail GREEN LINE
12268,28264,3_merged_2421818,1,23.9,5.6,VICTORY STATION,32.789903,-96.812363,GREEN,DART Rail GREEN LINE
12269,28264,3_merged_2421818,0,22.9,4.9,VICTORY STATION,32.789903,-96.812363,ORANGE,DART Rail ORANGE LINE
12269,28264,3_merged_2421818,1,22.9,4.5,VICTORY STATION,32.789903,-96.812363,ORANGE,DART Rail ORANGE LINE
12269,28755,3_merged_2421818,0,22.9,4.9,PARK LANE STATION,32.872791,-96.765717,ORANGE,DART Rail ORANGE LINE
12269,28755,3_merged_2421818,1,22.9,4.5,PARK LANE STATION,32.872791,-96.765717,ORANGE,DART Rail ORANGE LINE
12270,28755,3_merged_2421818,0,24.4,7.9,PARK LANE STATION,32.872791,-96.765717,RED,DART Rail RED LINE
12270,28755,3_merged_2421818,1,24.3,6.7,PARK LANE STATION,32.872791,-96.765717,RED,DART Rail RED LINE
12268,29815,3_merged_2421818,0,23.2,6.1,NORTH CARROLLTON/FRANKFORD STATION,32.990958,-96.93644,GREEN,DART Rail GREEN LINE
12268,29815,3_merged_2421818,1,23.3,6.6,NORTH CARROLLTON/FRANKFORD STATION,32.990958,-96.93644,GREEN,DART Rail GREEN LINE
12268,29816,3_merged_2421818,0,23.2,6.1,TRINITY MILLS RAIL STATION,32.979915,-96.92562,GREEN,DART Rail GREEN LINE
12268,29816,3_merged_2421818,1,23.3,6.6,TRINITY MILLS RAIL STATION,32.979915,-96.92562,GREEN,DART Rail GREEN LINE
12268,29817,3_merged_2421818,0,23.2,6.1,DOWNTOWN CARROLLTON STATION,32.954362,-96.908481,GREEN,DART Rail GREEN LINE
12268,29817,3_merged_2421818,1,23.3,6.6,DOWNTOWN CARROLLTON STATION,32.954362,-96.908481,GREEN,DART Rail GREEN LINE
12268,29818,3_merged_2421818,0,23.2,6.1,FARMERS BRANCH STATION,32.922445,-96.896572,GREEN,DART Rail GREEN LINE
12268,29818,3_merged_2421818,1,23.3,6.6,FARMERS BRANCH STATION,32.922445,-96.896572,GREEN,DART Rail GREEN LINE
12268,29819,3_merged_2421818,0,23.2,6.1,ROYAL LANE STATION,32.896339,-96.888455,GREEN,DART Rail GREEN LINE
12268,29819,3_merged_2421818,1,23.3,6.6,ROYAL LANE STATION,32.896339,-96.888455,GREEN,DART Rail GREEN LINE
12268,29820,3_merged_2421818,0,23.2,6.1,WALNUT HILL/DENTON STATION,32.881923,-96.883875,GREEN,DART Rail GREEN LINE
12268,29820,3_merged_2421818,1,23.3,6.6,WALNUT HILL/DENTON STATION,32.881923,-96.883875,GREEN,DART Rail GREEN LINE
12268,29821,3_merged_2421818,0,24.1,5.7,BACHMAN STATION,32.854818,-96.877044,GREEN,DART Rail GREEN LINE
12268,29821,3_merged_2421818,1,23.9,5.6,BACHMAN STATION,32.854818,-96.877044,GREEN,DART Rail GREEN LINE
12269,29821,3_merged_2421818,0,23.0,6.9,BACHMAN STATION,32.854818,-96.877044,ORANGE,DART Rail ORANGE LINE
12269,29821,3_merged_2421818,1,24.0,7.5,BACHMAN STATION,32.854818,-96.877044,ORANGE,DART Rail ORANGE LINE
12268,29822_merged_2421803,3_merged_2421818,0,24.1,5.7,BURBANK STATION,32.842981,-96.862185,GREEN,DART Rail GREEN LINE
12268,29822_merged_2421803,3_merged_2421818,1,23.9,5.6,BURBANK STATION,32.842981,-96.862185,GREEN,DART Rail GREEN LINE
12269,29822_merged_2421803,3_merged_2421818,0,22.9,4.9,BURBANK STATION,32.842981,-96.862185,ORANGE,DART Rail ORANGE LINE
12269,29822_merged_2421803,3_merged_2421818,1,22.9,4.5,BURBANK STATION,32.842981,-96.862185,ORANGE,DART Rail ORANGE LINE
12268,29824,3_merged_2421818,0,24.1,5.7,INWOOD/LOVE FIELD STATION,32.823166,-96.833512,GREEN,DART Rail GREEN LINE
12268,29824,3_merged_2421818,1,23.9,5.6,INWOOD/LOVE FIELD STATION,32.823166,-96.833512,GREEN,DART Rail GREEN LINE
12269,29824,3_merged_2421818,0,22.9,4.9,INWOOD/LOVE FIELD STATION,32.823166,-96.833512,ORANGE,DART Rail ORANGE LINE
12269,29824,3_merged_2421818,1,22.9,4.5,INWOOD/LOVE FIELD STATION,32.823166,-96.833512,ORANGE,DART Rail ORANGE LINE
12268,29825,3_merged_2421818,0,24.1,5.7,MARKET CENTER STATION,32.804751,-96.823348,GREEN,DART Rail GREEN LINE
12268,29825,3_merged_2421818,1,23.9,5.6,MARKET CENTER STATION,32.804751,-96.823348,GREEN,DART Rail GREEN LINE
12269,29825,3_merged_2421818,0,22.9,4.9,MARKET CENTER STATION,32.804751,-96.823348,ORANGE,DART Rail ORANGE LINE
12269,29825,3_merged_2421818,1,22.9,4.5,MARKET CENTER STATION,32.804751,-96.823348,ORANGE,DART Rail ORANGE LINE
12268,29826,3_merged_2421818,0,24.1,5.7,SOUTHWEST MEDICAL DISTRICT/PARKLAND,32.812661,-96.832957,GREEN,DART Rail GREEN LINE
12268,29826,3_merged_2421818,1,23.9,5.6,SOUTHWEST MEDICAL DISTRICT/PARKLAND,32.812661,-96.832957,GREEN,DART Rail GREEN LINE
12269,29826,3_merged_2421818,0,22.9,4.9,SOUTHWEST MEDICAL DISTRICT/PARKLAND,32.812661,-96.832957,ORANGE,DART Rail ORANGE LINE
12269,29826,3_merged_2421818,1,22.9,4.5,SOUTHWEST MEDICAL DISTRICT/PARKLAND,32.812661,-96.832957,ORANGE,DART Rail ORANGE LINE
12268,29831,3_merged_2421818,0,24.4,6.7,HATCHER STATION,32.76634,-96.74172,GREEN,DART Rail GREEN LINE
12268,29831,3_merged_2421818,1,24.3,6.6,HATCHER STATION,32.76634,-96.74172,GREEN,DART Rail GREEN LINE
12268,29832,3_merged_2421818,0,24.4,6.7,LAWNVIEW STATION,32.765562,-96.720925,GREEN,DART Rail GREEN LINE
12268,29832,3_merged_2421818,1,24.3,6.6,LAWNVIEW STATION,32.765562,-96.720925,GREEN,DART Rail GREEN LINE
12268,29833,3_merged_2421818,0,24.4,6.7,LAKE JUNE STATION,32.732236,-96.709593,GREEN,DART Rail GREEN LINE
12268,29833,3_merged_2421818,1,24.3,6.6,LAKE JUNE STATION,32.732236,-96.709593,GREEN,DART Rail GREEN LINE
12268,29834,3_merged_2421818,0,24.4,6.7,BUCKNER STATION,32.717607,-96.683832,GREEN,DART Rail GREEN LINE
12268,29834,3_merged_2421818,1,24.3,6.6,BUCKNER STATION,32.717607,-96.683832,GREEN,DART Rail GREEN LINE
12269,31084,3_merged_2421818,0,23.9,8.4,UNIVERSITY OF DALLAS STATION,32.849532,-96.915867,ORANGE,DART Rail ORANGE LINE
12269,31084,3_merged_2421818,1,24.0,7.5,UNIVERSITY OF DALLAS STATION,32.849532,-96.915867,ORANGE,DART Rail ORANGE LINE
12268,32040,3_merged_2421818,0,24.4,6.7,MLK STATION,32.773793,-96.764651,GREEN,DART Rail GREEN LINE
12268,32040,3_merged_2421818,1,24.3,6.6,MLK STATION,32.773793,-96.764651,GREEN,DART Rail GREEN LINE
12268,32041,3_merged_2421818,0,24.1,5.7,FAIR PARK STATION,32.782049,-96.766046,GREEN,DART Rail GREEN LINE
12268,32041,3_merged_2421818,1,23.9,5.6,FAIR PARK STATION,32.782049,-96.766046,GREEN,DART Rail GREEN LINE
12268,32042,3_merged_2421818,0,24.1,5.7,BAYLOR STATION,32.786495,-96.782132,GREEN,DART Rail GREEN LINE
12268,32042,3_merged_2421818,1,23.9,5.6,BAYLOR STATION,32.786495,-96.782132,GREEN,DART Rail GREEN LINE
12268,32043,3_merged_2421818,0,24.1,5.7,DEEP ELLUM STATION,32.786144,-96.788897,GREEN,DART Rail GREEN LINE
12268,32043,3_merged_2421818,1,23.9,5.6,DEEP ELLUM STATION,32.786144,-96.788897,GREEN,DART Rail GREEN LINE
12267,32049_merged_2421801,3_merged_2421818,0,24.3,6.5,LAKE HIGHLANDS STATION,32.879729,-96.730376,BLUE,DART Rail BLUE LINE
12267,32049_merged_2421801,3_merged_2421818,1,24.3,6.7,LAKE HIGHLANDS STATION,32.879729,-96.730376,BLUE,DART Rail BLUE LINE
12268,32133,3_merged_2421818,1,29.0,14.8,NWROF RELIEF POINT,32.870437,-96.880193,GREEN,DART Rail GREEN LINE
12269,32337,3_merged_2421818,0,23.9,8.4,LAS COLINAS URBAN CENTER STATION,32.869576,-96.933469,ORANGE,DART Rail ORANGE LINE
12269,32337,3_merged_2421818,1,24.0,7.5,LAS COLINAS URBAN CENTER STATION,32.869576,-96.933469,ORANGE,DART Rail ORANGE LINE
12269,32338,3_merged_2421818,0,23.9,8.4,IRVING CONVENTION CENTER STATION,32.876956,-96.938574,ORANGE,DART Rail ORANGE LINE
12269,32338,3_merged_2421818,1,24.0,7.5,IRVING CONVENTION CENTER STATION,32.876956,-96.938574,ORANGE,DART Rail ORANGE LINE
12270,13659,4_merged_2421820,0,23.0,6.1,ZOO STATION,32.741005,-96.812844,RED,DART Rail RED LINE
12270,13659,4_merged_2421820,1,23.2,5.9,ZOO STATION,32.741005,-96.812844,RED,DART Rail RED LINE
12267,15262,4_merged_2421820,0,23.3,5.8,CORINTH RAIL STATION,32.74831,-96.798302,BLUE,DART Rail BLUE LINE
12267,15262,4_merged_2421820,1,23.4,7.2,CORINTH RAIL STATION,32.74831,-96.798302,BLUE,DART Rail BLUE LINE
12270,15262,4_merged_2421820,0,23.0,6.1,CORINTH RAIL STATION,32.74831,-96.798302,RED,DART Rail RED LINE
12270,15262,4_merged_2421820,1,23.2,5.9,CORINTH RAIL STATION,32.74831,-96.798302,RED,DART Rail RED LINE
12270,15913,4_merged_2421820,0,23.0,6.1,WESTMORELAND STATION,32.71994,-96.871605,RED,DART Rail RED LINE
12270,15913,4_merged_2421820,1,23.1,5.9,WESTMORELAND STATION,32.71994,-96.871605,RED,DART Rail RED LINE
12267,16083,4_merged_2421820,0,23.3,5.8,MORRELL STATION,32.740135,-96.80272,BLUE,DART Rail BLUE LINE
12267,16083,4_merged_2421820,1,23.4,7.2,MORRELL STATION,32.740135,-96.80272,BLUE,DART Rail BLUE LINE
12267,21030,4_merged_2421820,0,23.3,5.8,ILLINOIS TC/STATION,32.723278,-96.804978,BLUE,DART Rail BLUE LINE
12267,21030,4_merged_2421820,1,23.4,7.1,ILLINOIS TC/STATION,32.723278,-96.804978,BLUE,DART Rail BLUE LINE
12270,21210,4_merged_2421820,0,23.0,6.1,HAMPTON STATION,32.72644,-96.854996,RED,DART Rail RED LINE
12270,21210,4_merged_2421820,1,23.1,5.9,HAMPTON STATION,32.72644,-96.854996,RED,DART Rail RED LINE
12267,22729,4_merged_2421820,0,24.4,6.7,CEDARS STATION,32.768836,-96.793412,BLUE,DART Rail BLUE LINE
12267,22729,4_merged_2421820,1,24.3,6.7,CEDARS STATION,32.768836,-96.793412,BLUE,DART Rail BLUE LINE
12270,22729,4_merged_2421820,0,24.5,8.1,CEDARS STATION,32.768836,-96.793412,RED,DART Rail RED LINE
12270,22729,4_merged_2421820,1,24.3,6.7,CEDARS STATION,32.768836,-96.793412,RED,DART Rail RED LINE
12270,22730,4_merged_2421820,0,23.0,6.1,TYLER VERNON STATION,32.733274,-96.838305,RED,DART Rail RED LINE
12270,22730,4_merged_2421820,1,23.2,5.9,TYLER VERNON STATION,32.733274,-96.838305,RED,DART Rail RED LINE
12267,22745,4_merged_2421820,0,24.3,5.3,SANTA FE JUNCTION,32.764739,-96.787368,BLUE,DART Rail BLUE LINE
12267,22745,4_merged_2421820,1,24.1,6.7,SANTA FE JUNCTION,32.764739,-96.787368,BLUE,DART Rail BLUE LINE
12270,22745,4_merged_2421820,0,24.3,5.2,SANTA FE JUNCTION,32.764739,-96.787368,RED,DART Rail RED LINE
12270,22745,4_merged_2421820,1,23.9,6.7,SANTA FE JUNCTION,32.764739,-96.787368,RED,DART Rail RED LINE
12267,22747,4_merged_2421820,0,24.4,6.7,CONVENTION CENTER STATION,32.772579,-96.803174,BLUE,DART Rail BLUE LINE
12267,22747,4_merged_2421820,1,24.3,6.7,CONVENTION CENTER STATION,32.772579,-96.803174,BLUE,DART Rail BLUE LINE
12270,22747,4_merged_2421820,0,24.5,8.1,CONVENTION CENTER STATION,32.772579,-96.803174,RED,DART Rail RED LINE
12270,22747,4_merged_2421820,1,24.3,6.7,CONVENTION CENTER STATION,32.772579,-96.803174,RED,DART Rail RED LINE
12267,22748,4_merged_2421820,0,24.4,6.7,UNION STATION,32.775987,-96.808031,BLUE,DART Rail BLUE LINE
12267,22748,4_merged_2421820,1,24.3,6.7,UNION STATION,32.775987,-96.808031,BLUE,DART Rail BLUE LINE
12270,22748,4_merged_2421820,0,24.5,8.1,UNION STATION,32.775987,-96.808031,RED,DART Rail RED LINE
12270,22748,4_merged_2421820,1,24.3,6.7,UNION STATION,32.775987,-96.808031,RED,DART Rail RED LINE
12267,22749,4_merged_2421820,0,24.4,6.7,WEST END STATION,32.780838,-96.805569,BLUE,DART Rail BLUE LINE
12267,22749,4_merged_2421820,1,24.3,6.7,WEST END STATION,32.780838,-96.805569,BLUE,DART Rail BLUE LINE
12268,22749,4_merged_2421820,0,24.1,5.7,WEST END STATION,32.780838,-96.805569,GREEN,DART Rail GREEN LINE
12268,22749,4_merged_2421820,1,23.9,5.6,WEST END STATION,32.780838,-96.805569,GREEN,DART Rail GREEN LINE
12269,22749,4_merged_2421820,0,22.9,4.9,WEST END STATION,32.780838,-96.805569,ORANGE,DART Rail ORANGE LINE
12269,22749,4_merged_2421820,1,22.9,4.5,WEST END STATION,32.780838,-96.805569,ORANGE,DART Rail ORANGE LINE
12270,22749,4_merged_2421820,0,24.5,8.1,WEST END STATION,32.780838,-96.805569,RED,DART Rail RED LINE
12270,22749,4_merged_2421820,1,24.3,6.7,WEST END STATION,32.780838,-96.805569,RED,DART Rail RED LINE
12267,22750,4_merged_2421820,0,24.4,6.7,AKARD STATION,32.781839,-96.800726,BLUE,DART Rail BLUE LINE
12267,22750,4_merged_2421820,1,24.3,6.7,AKARD STATION,32.781839,-96.800726,BLUE,DART Rail BLUE LINE
12268,22750,4_merged_2421820,0,24.1,5.7,AKARD STATION,32.781839,-96.800726,GREEN,DART Rail GREEN LINE
12268,22750,4_merged_2421820,1,23.9,5.6,AKARD STATION,32.781839,-96.800726,GREEN,DART Rail GREEN LINE
12269,22750,4_merged_2421820,0,22.9,4.9,AKARD STATION,32.781839,-96.800726,ORANGE,DART Rail ORANGE LINE
12269,22750,4_merged_2421820,1,22.9,4.5,AKARD STATION,32.781839,-96.800726,ORANGE,DART Rail ORANGE LINE
12270,22750,4_merged_2421820,0,24.5,8.1,AKARD STATION,32.781839,-96.800726,RED,DART Rail RED LINE
12270,22750,4_merged_2421820,1,24.3,6.7,AKARD STATION,32.781839,-96.800726,RED,DART Rail RED LINE
12267,22751,4_merged_2421820,0,24.4,6.7,ST PAUL STATION,32.784686,-96.797196,BLUE,DART Rail BLUE LINE
12267,22751,4_merged_2421820,1,24.3,6.7,ST PAUL STATION,32.784686,-96.797196,BLUE,DART Rail BLUE LINE
12268,22751,4_merged_2421820,0,24.1,5.7,ST PAUL STATION,32.784686,-96.797196,GREEN,DART Rail GREEN LINE
12268,22751,4_merged_2421820,1,23.9,5.6,ST PAUL STATION,32.784686,-96.797196,GREEN,DART Rail GREEN LINE
12269,22751,4_merged_2421820,0,22.9,4.9,ST PAUL STATION,32.784686,-96.797196,ORANGE,DART Rail ORANGE LINE
12269,22751,4_merged_2421820,1,22.9,4.5,ST PAUL STATION,32.784686,-96.797196,ORANGE,DART Rail ORANGE LINE
12270,22751,4_merged_2421820,0,24.5,8.1,ST PAUL STATION,32.784686,-96.797196,RED,DART Rail RED LINE
12270,22751,4_merged_2421820,1,24.3,6.7,ST PAUL STATION,32.784686,-96.797196,RED,DART Rail RED LINE
12267,22752_merged_2421810,4_merged_2421820,0,24.4,6.7,PEARL/ARTS DISTRICT STATION,32.786423,-96.794243,BLUE,DART Rail BLUE LINE
12267,22752_merged_2421810,4_merged_2421820,1,24.3,6.7,PEARL/ARTS DISTRICT STATION,32.786423,-96.794243,BLUE,DART Rail BLUE LINE
12268,22752_merged_2421810,4_merged_2421820,0,24.1,5.7,PEARL/ARTS DISTRICT STATION,32.786423,-96.794243,GREEN,DART Rail GREEN LINE
12268,22752_merged_2421810,4_merged_2421820,1,23.9,5.6,PEARL/ARTS DISTRICT STATION,32.786423,-96.794243,GREEN,DART Rail GREEN LINE
12269,22752_merged_2421810,4_merged_2421820,0,22.9,4.9,PEARL/ARTS DISTRICT STATION,32.786423,-96.794243,ORANGE,DART Rail ORANGE LINE
12269,22752_merged_2421810,4_merged_2421820,1,22.9,4.5,PEARL/ARTS DISTRICT STATION,32.786423,-96.794243,ORANGE,DART Rail ORANGE LINE
12270,22752_merged_2421810,4_merged_2421820,0,24.5,8.1,PEARL/ARTS DISTRICT STATION,32.786423,-96.794243,RED,DART Rail RED LINE
12270,22752_merged_2421810,4_merged_2421820,1,24.3,6.7,PEARL/ARTS DISTRICT STATION,32.786423,-96.794243,RED,DART Rail RED LINE
12267,22938,4_merged_2421820,0,24.4,6.7,MOCKINGBIRD STATION,32.837806,-96.774666,BLUE,DART Rail BLUE LINE
12267,22938,4_merged_2421820,1,24.3,6.7,MOCKINGBIRD STATION,32.837806,-96.774666,BLUE,DART Rail BLUE LINE
12269,22938,4_merged_2421820,0,22.9,4.9,MOCKINGBIRD STATION,32.837806,-96.774666,ORANGE,DART Rail ORANGE LINE
12269,22938,4_merged_2421820,1,22.9,4.5,MOCKINGBIRD STATION,32.837806,-96.774666,ORANGE,DART Rail ORANGE LINE
12270,22938,4_merged_2421820,0,24.4,7.9,MOCKINGBIRD STATION,32.837806,-96.774666,RED,DART Rail RED LINE
12270,22938,4_merged_2421820,1,24.3,6.7,MOCKINGBIRD STATION,32.837806,-96.774666,RED,DART Rail RED LINE
12269,22984,4_merged_2421820,0,22.9,4.9,LOVERS LANE STATION,32.849157,-96.771511,ORANGE,DART Rail ORANGE LINE
12269,22984,4_merged_2421820,1,22.9,4.5,LOVERS LANE STATION,32.849157,-96.771511,ORANGE,DART Rail ORANGE LINE
12270,22984,4_merged_2421820,0,24.4,7.9,LOVERS LANE STATION,32.849157,-96.771511,RED,DART Rail RED LINE
12270,22984,4_merged_2421820,1,24.3,6.7,LOVERS LANE STATION,32.849157,-96.771511,RED,DART Rail RED LINE
12267,23320,4_merged_2421820,0,23.3,5.8,LEDBETTER STATION,32.683296,-96.788597,BLUE,DART Rail BLUE LINE
12267,23320,4_merged_2421820,1,23.4,7.1,LEDBETTER STATION,32.683296,-96.788597,BLUE,DART Rail BLUE LINE
12267,23390,4_merged_2421820,0,23.3,5.8,KIEST STATION,32.707489,-96.801094,BLUE,DART Rail BLUE LINE
12267,23390,4_merged_2421820,1,23.4,7.1,KIEST STATION,32.707489,-96.801094,BLUE,DART Rail BLUE LINE
12267,23391,4_merged_2421820,0,23.3,5.8,VA MEDICAL CENTER STATION,32.693912,-96.792504,BLUE,DART Rail BLUE LINE
12267,23391,4_merged_2421820,1,23.4,7.1,VA MEDICAL CENTER STATION,32.693912,-96.792504,BLUE,DART Rail BLUE LINE
12267,26420_merged_2421812,4_merged_2421820,0,24.4,6.7,CITYPLACE/UPTOWN STATION,32.805732,-96.792832,BLUE,DART Rail BLUE LINE
12267,26420_merged_2421812,4_merged_2421820,1,24.3,6.7,CITYPLACE/UPTOWN STATION,32.805732,-96.792832,BLUE,DART Rail BLUE LINE
12269,26420_merged_2421812,4_merged_2421820,0,22.9,4.9,CITYPLACE/UPTOWN STATION,32.805732,-96.792832,ORANGE,DART Rail ORANGE LINE
12269,26420_merged_2421812,4_merged_2421820,1,22.9,4.5,CITYPLACE/UPTOWN STATION,32.805732,-96.792832,ORANGE,DART Rail ORANGE LINE
12270,26420_merged_2421812,4_merged_2421820,0,24.4,8.0,CITYPLACE/UPTOWN STATION,32.805732,-96.792832,RED,DART Rail RED LINE
12270,26420_merged_2421812,4_merged_2421820,1,24.3,6.7,CITYPLACE/UPTOWN STATION,32.805732,-96.792832,RED,DART Rail RED LINE
12267,26652_merged_2421804,4_merged_2421820,0,24.4,6.5,WHITE ROCK STATION,32.854946,-96.734459,BLUE,DART Rail BLUE LINE
12267,26652_merged_2421804,4_merged_2421820,1,24.3,6.7,WHITE ROCK STATION,32.854946,-96.734459,BLUE,DART Rail BLUE LINE
12267,26668,4_merged_2421820,0,24.3,6.5,LBJ / SKILLMAN STATION,32.897796,-96.711823,BLUE,DART Rail BLUE LINE
12267,26668,4_merged_2421820,1,24.3,6.7,LBJ / SKILLMAN STATION,32.897796,-96.711823,BLUE,DART Rail BLUE LINE
12269,26669,4_merged_2421820,0,22.9,4.9,WALNUT HILL STATION,32.883106,-96.764771,ORANGE,DART Rail ORANGE LINE
12269,26669,4_merged_2421820,1,22.9,4.5,WALNUT HILL STATION,32.883106,-96.764771,ORANGE,DART Rail ORANGE LINE
12270,26669,4_merged_2421820,0,24.4,7.9,WALNUT HILL STATION,32.883106,-96.764771,RED,DART Rail RED LINE
12270,26669,4_merged_2421820,1,24.3,6.7,WALNUT HILL STATION,32.883106,-96.764771,RED,DART Rail RED LINE
12269,26670,4_merged_2421820,0,22.9,4.9,LBJ / CENTRAL STATION,32.918701,-96.751625,ORANGE,DART Rail ORANGE LINE
12269,26670,4_merged_2421820,1,22.9,4.5,LBJ / CENTRAL STATION,32.918701,-96.751625,ORANGE,DART Rail ORANGE LINE
12270,26670,4_merged_2421820,0,24.4,7.8,LBJ / CENTRAL STATION,32.918701,-96.751625,RED,DART Rail RED LINE
12270,26670,4_merged_2421820,1,24.3,6.7,LBJ / CENTRAL STATION,32.918701,-96.751625,RED,DART Rail RED LINE
12269,26671,4_merged_2421820,0,22.9,4.9,FOREST LN STATION,32.908532,-96.762691,ORANGE,DART Rail ORANGE LINE
12269,26671,4_merged_2421820,1,22.9,4.5,FOREST LN STATION,32.908532,-96.762691,ORANGE,DART Rail ORANGE LINE
12270,26671,4_merged_2421820,0,24.4,7.8,FOREST LN STATION,32.908532,-96.762691,RED,DART Rail RED LINE
12270,26671,4_merged_2421820,1,24.3,6.7,FOREST LN STATION,32.908532,-96.762691,RED,DART Rail RED LINE
12270,26672,4_merged_2421820,0,24.4,7.7,SPRING VALLEY STATION,32.940673,-96.737748,RED,DART Rail RED LINE
12270,26672,4_merged_2421820,1,24.3,6.7,SPRING VALLEY STATION,32.940673,-96.737748,RED,DART Rail RED LINE
12270,26673,4_merged_2421820,0,24.3,7.6,ARAPAHO CENTER STATION,32.962516,-96.722474,RED,DART Rail RED LINE
12270,26673,4_merged_2421820,1,24.3,6.7,ARAPAHO CENTER STATION,32.962516,-96.722474,RED,DART Rail RED LINE
12270,26674,4_merged_2421820,0,24.3,7.5,GALATYN PARK STATION,32.985073,-96.710803,RED,DART Rail RED LINE
12270,26674,4_merged_2421820,1,24.3,6.7,GALATYN PARK STATION,32.985073,-96.710803,RED,DART Rail RED LINE
12267,26690,4_merged_2421820,0,24.3,6.4,FOREST / JUPITER STATION,32.908313,-96.679207,BLUE,DART Rail BLUE LINE
12267,26690,4_merged_2421820,1,24.3,6.7,FOREST / JUPITER STATION,32.908313,-96.679207,BLUE,DART Rail BLUE LINE
12267,26691,4_merged_2421820,0,24.3,6.3,DOWNTOWN GARLAND STATION,32.916292,-96.635756,BLUE,DART Rail BLUE LINE
12267,26691,4_merged_2421820,1,24.3,6.7,DOWNTOWN GARLAND STATION,32.916292,-96.635756,BLUE,DART Rail BLUE LINE
12270,26895,4_merged_2421820,0,24.3,7.4,BUSH TURNPIKE STATION WEST,33.003227,-96.703713,RED,DART Rail RED LINE
12270,26895,4_merged_2421820,1,24.3,6.7,BUSH TURNPIKE STATION WEST,33.003227,-96.703713,RED,DART Rail RED LINE
12270,26896,4_merged_2421820,0,24.3,7.4,DOWNTOWN PLANO STATION,33.021621,-96.700707,RED,DART Rail RED LINE
12270,26896,4_merged_2421820,1,24.3,6.7,DOWNTOWN PLANO STATION,33.021621,-96.700707,RED,DART Rail RED LINE
12270,26897,4_merged_2421820,0,24.3,7.4,PARKER ROAD STATION,33.033752,-96.700974,RED,DART Rail RED LINE
12270,26897,4_merged_2421820,1,24.3,6.7,PARKER ROAD STATION,33.033752,-96.700974,RED,DART Rail RED LINE
12268,28264,4_merged_2421820,0,24.1,5.7,VICTORY STATION,32.789903,-96.812363,GREEN,DART Rail GREEN LINE
12268,28264,4_merged_2421820,1,23.9,5.6,VICTORY STATION,32.789903,-96.812363,GREEN,DART Rail GREEN LINE
12269,28264,4_merged_2421820,0,22.9,4.9,VICTORY STATION,32.789903,-96.812363,ORANGE,DART Rail ORANGE LINE
12269,28264,4_merged_2421820,1,22.9,4.5,VICTORY STATION,32.789903,-96.812363,ORANGE,DART Rail ORANGE LINE
12269,28755,4_merged_2421820,0,22.9,4.9,PARK LANE STATION,32.872791,-96.765717,ORANGE,DART Rail ORANGE LINE
12269,28755,4_merged_2421820,1,22.9,4.5,PARK LANE STATION,32.872791,-96.765717,ORANGE,DART Rail ORANGE LINE
12270,28755,4_merged_2421820,0,24.4,7.9,PARK LANE STATION,32.872791,-96.765717,RED,DART Rail RED LINE
12270,28755,4_merged_2421820,1,24.3,6.7,PARK LANE STATION,32.872791,-96.765717,RED,DART Rail RED LINE
12268,29815,4_merged_2421820,0,23.2,6.1,NORTH CARROLLTON/FRANKFORD STATION,32.990958,-96.93644,GREEN,DART Rail GREEN LINE
12268,29815,4_merged_2421820,1,23.3,6.6,NORTH CARROLLTON/FRANKFORD STATION,32.990958,-96.93644,GREEN,DART Rail GREEN LINE
12268,29816,4_merged_2421820,0,23.2,6.1,TRINITY MILLS RAIL STATION,32.979915,-96.92562,GREEN,DART Rail GREEN LINE
12268,29816,4_merged_2421820,1,23.3,6.6,TRINITY MILLS RAIL STATION,32.979915,-96.92562,GREEN,DART Rail GREEN LINE
12268,29817,4_merged_2421820,0,23.2,6.1,DOWNTOWN CARROLLTON STATION,32.954362,-96.908481,GREEN,DART Rail GREEN LINE
12268,29817,4_merged_2421820,1,23.3,6.6,DOWNTOWN CARROLLTON STATION,32.954362,-96.908481,GREEN,DART Rail GREEN LINE
12268,29818,4_merged_2421820,0,23.2,6.1,FARMERS BRANCH STATION,32.922445,-96.896572,GREEN,DART Rail GREEN LINE
12268,29818,4_merged_2421820,1,23.3,6.6,FARMERS BRANCH STATION,32.922445,-96.896572,GREEN,DART Rail GREEN LINE
12268,29819,4_merged_2421820,0,23.2,6.1,ROYAL LANE STATION,32.896339,-96.888455,GREEN,DART Rail GREEN LINE
12268,29819,4_merged_2421820,1,23.3,6.6,ROYAL LANE STATION,32.896339,-96.888455,GREEN,DART Rail GREEN LINE
12268,29820,4_merged_2421820,0,23.2,6.1,WALNUT HILL/DENTON STATION,32.881923,-96.883875,GREEN,DART Rail GREEN LINE
12268,29820,4_merged_2421820,1,23.3,6.6,WALNUT HILL/DENTON STATION,32.881923,-96.883875,GREEN,DART Rail GREEN LINE
12268,29821,4_merged_2421820,0,24.1,5.7,BACHMAN STATION,32.854818,-96.877044,GREEN,DART Rail GREEN LINE
12268,29821,4_merged_2421820,1,23.9,5.6,BACHMAN STATION,32.854818,-96.877044,GREEN,DART Rail GREEN LINE
12269,29821,4_merged_2421820,0,23.0,6.9,BACHMAN STATION,32.854818,-96.877044,ORANGE,DART Rail ORANGE LINE
12269,29821,4_merged_2421820,1,24.0,7.6,BACHMAN STATION,32.854818,-96.877044,ORANGE,DART Rail ORANGE LINE
12268,29822_merged_2421803,4_merged_2421820,0,24.1,5.7,BURBANK STATION,32.842981,-96.862185,GREEN,DART Rail GREEN LINE
12268,29822_merged_2421803,4_merged_2421820,1,23.9,5.6,BURBANK STATION,32.842981,-96.862185,GREEN,DART Rail GREEN LINE
12269,29822_merged_2421803,4_merged_2421820,0,22.9,4.9,BURBANK STATION,32.842981,-96.862185,ORANGE,DART Rail ORANGE LINE
12269,29822_merged_2421803,4_merged_2421820,1,22.9,4.5,BURBANK STATION,32.842981,-96.862185,ORANGE,DART Rail ORANGE LINE
12268,29824,4_merged_2421820,0,24.1,5.7,INWOOD/LOVE FIELD STATION,32.823166,-96.833512,GREEN,DART Rail GREEN LINE
12268,29824,4_merged_2421820,1,23.9,5.6,INWOOD/LOVE FIELD STATION,32.823166,-96.833512,GREEN,DART Rail GREEN LINE
12269,29824,4_merged_2421820,0,22.9,4.9,INWOOD/LOVE FIELD STATION,32.823166,-96.833512,ORANGE,DART Rail ORANGE LINE
12269,29824,4_merged_2421820,1,22.9,4.5,INWOOD/LOVE FIELD STATION,32.823166,-96.833512,ORANGE,DART Rail ORANGE LINE
12268,29825,4_merged_2421820,0,24.1,5.7,MARKET CENTER STATION,32.804751,-96.823348,GREEN,DART Rail GREEN LINE
12268,29825,4_merged_2421820,1,23.9,5.6,MARKET CENTER STATION,32.804751,-96.823348,GREEN,DART Rail GREEN LINE
12269,29825,4_merged_2421820,0,22.9,4.9,MARKET CENTER STATION,32.804751,-96.823348,ORANGE,DART Rail ORANGE LINE
12269,29825,4_merged_2421820,1,22.9,4.5,MARKET CENTER STATION,32.804751,-96.823348,ORANGE,DART Rail ORANGE LINE
12268,29826,4_merged_2421820,0,24.1,5.7,SOUTHWEST MEDICAL DISTRICT/PARKLAND,32.812661,-96.832957,GREEN,DART Rail GREEN LINE
12268,29826,4_merged_2421820,1,23.9,5.6,SOUTHWEST MEDICAL DISTRICT/PARKLAND,32.812661,-96.832957,GREEN,DART Rail GREEN LINE
12269,29826,4_merged_2421820,0,22.9,4.9,SOUTHWEST MEDICAL DISTRICT/PARKLAND,32.812661,-96.832957,ORANGE,DART Rail ORANGE LINE
12269,29826,4_merged_2421820,1,22.9,4.5,SOUTHWEST MEDICAL DISTRICT/PARKLAND,32.812661,-96.832957,ORANGE,DART Rail ORANGE LINE
12268,29831,4_merged_2421820,0,24.4,6.7,HATCHER STATION,32.76634,-96.74172,GREEN,DART Rail GREEN LINE
12268,29831,4_merged_2421820,1,24.3,6.6,HATCHER STATION,32.76634,-96.74172,GREEN,DART Rail GREEN LINE
12268,29832,4_merged_2421820,0,24.4,6.7,LAWNVIEW STATION,32.765562,-96.720925,GREEN,DART Rail GREEN LINE
12268,29832,4_merged_2421820,1,24.3,6.6,LAWNVIEW STATION,32.765562,-96.720925,GREEN,DART Rail GREEN LINE
12268,29833,4_merged_2421820,0,24.4,6.7,LAKE JUNE STATION,32.732236,-96.709593,GREEN,DART Rail GREEN LINE
12268,29833,4_merged_2421820,1,24.3,6.6,LAKE JUNE STATION,32.732236,-96.709593,GREEN,DART Rail GREEN LINE
12268,29834,4_merged_2421820,0,24.4,6.7,BUCKNER STATION,32.717607,-96.683832,GREEN,DART Rail GREEN LINE
12268,29834,4_merged_2421820,1,24.3,6.6,BUCKNER STATION,32.717607,-96.683832,GREEN,DART Rail GREEN LINE
12269,31084,4_merged_2421820,0,23.9,8.4,UNIVERSITY OF DALLAS STATION,32.849532,-96.915867,ORANGE,DART Rail ORANGE LINE
12269,31084,4_merged_2421820,1,24.0,7.6,UNIVERSITY OF DALLAS STATION,32.849532,-96.915867,ORANGE,DART Rail ORANGE LINE
12268,32040,4_merged_2421820,0,24.4,6.7,MLK STATION,32.773793,-96.764651,GREEN,DART Rail GREEN LINE
12268,32040,4_merged_2421820,1,24.3,6.6,MLK STATION,32.773793,-96.764651,GREEN,DART Rail GREEN LINE
12268,32041,4_merged_2421820,0,24.1,5.7,FAIR PARK STATION,32.782049,-96.766046,GREEN,DART Rail GREEN LINE
12268,32041,4_merged_2421820,1,23.9,5.6,FAIR PARK STATION,32.782049,-96.766046,GREEN,DART Rail GREEN LINE
12268,32042,4_merged_2421820,0,24.1,5.7,BAYLOR STATION,32.786495,-96.782132,GREEN,DART Rail GREEN LINE
12268,32042,4_merged_2421820,1,23.9,5.6,BAYLOR STATION,32.786495,-96.782132,GREEN,DART Rail GREEN LINE
12268,32043,4_merged_2421820,0,24.1,5.7,DEEP ELLUM STATION,32.786144,-96.788897,GREEN,DART Rail GREEN LINE
12268,32043,4_merged_2421820,1,23.9,5.6,DEEP ELLUM STATION,32.786144,-96.788897,GREEN,DART Rail GREEN LINE
12267,32049_merged_2421801,4_merged_2421820,0,24.3,6.5,LAKE HIGHLANDS STATION,32.879729,-96.730376,BLUE,DART Rail BLUE LINE
12267,32049_merged_2421801,4_merged_2421820,1,24.3,6.7,LAKE HIGHLANDS STATION,32.879729,-96.730376,BLUE,DART Rail BLUE LINE
12268,32133,4_merged_2421820,1,29.0,14.8,NWROF RELIEF POINT,32.870437,-96.880193,GREEN,DART Rail GREEN LINE
12269,32337,4_merged_2421820,0,23.9,8.4,LAS COLINAS URBAN CENTER STATION,32.869576,-96.933469,ORANGE,DART Rail ORANGE LINE
12269,32337,4_merged_2421820,1,24.0,7.6,LAS COLINAS URBAN CENTER STATION,32.869576,-96.933469,ORANGE,DART Rail ORANGE LINE
12269,32338,4_merged_2421820,0,23.9,8.4,IRVING CONVENTION CENTER STATION,32.876956,-96.938574,ORANGE,DART Rail ORANGE LINE
12269,32338,4_merged_2421820,1,24.0,7.6,IRVING CONVENTION CENTER STATION,32.876956,-96.938574,ORANGE,DART Rail ORANGE LINE
