route_id,stop_id,service_id,direction_id,avghdwy,stdev_hdwy,stop_name,stop_lat,stop_lon,route_short_name,route_long_name
97,4184,Fr,0,15.4,2.6,Tyler St @ Ashley Dr,27.951505,-82.462171,97,In-Town Trolley Green Line
97,5798,Fr,0,15.0,0.0,Tampa St @ Kennedy Blvd,27.947149,-82.458768,97,In-Town Trolley Green Line
97,5872,Fr,0,15.0,0.0,Tampa St @ Jackson St,27.94647,-82.458454,97,In-Town Trolley Green Line
97,5876,Fr,0,15.0,0.0,Tampa Convention Center,27.941109,-82.455153,97,In-Town Trolley Green Line
97,5877,Fr,0,15.0,0.0,S Harbour Island Bl @ Westin  Hotel,27.938401,-82.453998,97,In-Town Trolley Green Line
97,5881,Fr,0,15.0,0.0,S Harbor Island Bl @ Westin Hotel,27.938989,-82.454029,97,In-Town Trolley Green Line
97,6981,Fr,0,7.8,2.9,Dick Greco Plaza,27.94119,-82.454991,97,In-Town Trolley Green Line
97,6988,Fr,0,15.4,2.6,Macinnes Place @ Fortune St,27.952393,-82.463113,97,In-Town Trolley Green Line
97,7132,Fr,0,15.0,0.0,Channelside,27.943881,-82.447075,97,In-Town Trolley Green Line
97,7368,Fr,0,15.0,0.0,Ashley Dr @ Tyler St,27.951288,-82.461735,97,In-Town Trolley Green Line
97,7369,Fr,0,15.0,0.0,Ashley Dr @ Zack St,27.949604,-82.460996,97,In-Town Trolley Green Line
97,7372,Fr,0,15.4,2.6,Ashley Dr @ Polk St,27.949812,-82.460662,97,In-Town Trolley Green Line
97,7602,Fr,0,15.0,0.0,Times Forum Dr @ Channelside Dr,27.943374,-82.450284,97,In-Town Trolley Green Line
97,7603,Fr,0,15.0,0.0,Channelside Dr @ Times Forum Dr,27.943564,-82.450274,97,In-Town Trolley Green Line
97,7604,Fr,0,15.0,0.0,Madison St @ Tampa St,27.947983,-82.459123,97,In-Town Trolley Green Line
97,7605,Fr,0,15.4,2.6,Ashley Dr @ Twiggs St,27.948526,-82.460014,97,In-Town Trolley Green Line
97,7606,Fr,0,15.0,0.0,Cumberland St @ 11th St,27.944923,-82.447571,97,In-Town Trolley Green Line
97,7719,Fr,0,15.4,2.6,Whiting St @ Franklin St,27.945465,-82.457158,97,In-Town Trolley Green Line
97,7728,Fr,0,15.4,2.6,Ashley Dr @ Jackson St,27.946615,-82.459173,97,In-Town Trolley Green Line
97,7736,Fr,0,15.0,0.0,Whiting St @ Tampa St,27.945166,-82.457492,97,In-Town Trolley Green Line
97,4184,Fr2,0,15.4,2.6,Tyler St @ Ashley Dr,27.951505,-82.462171,97,In-Town Trolley Green Line
97,5798,Fr2,0,15.0,0.0,Tampa St @ Kennedy Blvd,27.947149,-82.458768,97,In-Town Trolley Green Line
97,5872,Fr2,0,15.0,0.0,Tampa St @ Jackson St,27.94647,-82.458454,97,In-Town Trolley Green Line
97,5873,Fr2,0,15.0,0.0,Franklin St @ Whiting St,27.944786,-82.456763,97,In-Town Trolley Green Line
97,5876,Fr2,0,15.0,0.0,Tampa Convention Center,27.941109,-82.455153,97,In-Town Trolley Green Line
97,5877,Fr2,0,15.0,0.0,S Harbour Island Bl @ Westin  Hotel,27.938401,-82.453998,97,In-Town Trolley Green Line
97,5881,Fr2,0,15.0,0.0,S Harbor Island Bl @ Westin Hotel,27.938989,-82.454029,97,In-Town Trolley Green Line
97,6981,Fr2,0,7.8,2.9,Dick Greco Plaza,27.94119,-82.454991,97,In-Town Trolley Green Line
97,6988,Fr2,0,15.4,2.6,Macinnes Place @ Fortune St,27.952393,-82.463113,97,In-Town Trolley Green Line
97,7132,Fr2,0,15.0,0.0,Channelside,27.943881,-82.447075,97,In-Town Trolley Green Line
97,7368,Fr2,0,15.0,0.0,Ashley Dr @ Tyler St,27.951288,-82.461735,97,In-Town Trolley Green Line
97,7369,Fr2,0,15.0,0.0,Ashley Dr @ Zack St,27.949604,-82.460996,97,In-Town Trolley Green Line
97,7372,Fr2,0,15.4,2.6,Ashley Dr @ Polk St,27.949812,-82.460662,97,In-Town Trolley Green Line
97,7602,Fr2,0,15.0,0.0,Times Forum Dr @ Channelside Dr,27.943374,-82.450284,97,In-Town Trolley Green Line
97,7603,Fr2,0,15.0,0.0,Channelside Dr @ Times Forum Dr,27.943564,-82.450274,97,In-Town Trolley Green Line
97,7604,Fr2,0,15.0,0.0,Madison St @ Tampa St,27.947983,-82.459123,97,In-Town Trolley Green Line
97,7605,Fr2,0,15.4,2.6,Ashley Dr @ Twiggs St,27.948526,-82.460014,97,In-Town Trolley Green Line
97,7606,Fr2,0,15.0,0.0,Cumberland St @ 11th St,27.944923,-82.447571,97,In-Town Trolley Green Line
97,7719,Fr2,0,15.4,2.6,Whiting St @ Franklin St,27.945465,-82.457158,97,In-Town Trolley Green Line
97,7728,Fr2,0,15.4,2.6,Ashley Dr @ Jackson St,27.946615,-82.459173,97,In-Town Trolley Green Line
45,1003,Sa,0,60.0,0.0,N Boulevard @ Cliff Circle,28.045318,-82.467791,45,UATC - Rome - Westshore Plaza
45,1004,Sa,0,60.0,0.0,N Boulevard @ Newport Circle,28.042221,-82.467811,45,UATC - Rome - Westshore Plaza
45,1006,Sa,0,60.0,0.0,N Boulevard @ Linebaugh Av,28.040455,-82.467783,45,UATC - Rome - Westshore Plaza
45,1008,Sa,0,60.0,0.0,N Boulevard @ Perdiz St,28.038547,-82.467761,45,UATC - Rome - Westshore Plaza
45,1010,Sa,0,60.0,0.0,N Boulevard @ Forest Hills Dr,28.034613,-82.467833,45,UATC - Rome - Westshore Plaza
45,1011,Sa,0,60.0,0.0,N Boulevard @ El Portal Dr,28.031997,-82.467804,45,UATC - Rome - Westshore Plaza
45,1012,Sa,0,60.0,0.0,N Boulevard @ Humphrey St,28.031034,-82.46778,45,UATC - Rome - Westshore Plaza
45,1013,Sa,0,60.0,0.0,N Boulevard @ Yukon St,28.029072,-82.467836,45,UATC - Rome - Westshore Plaza
45,1014,Sa,0,60.0,0.0,N Boulevard @ Waters Av,28.025972,-82.467774,45,UATC - Rome - Westshore Plaza
45,1015,Sa,0,60.0,0.0,N Boulevard @ Sitka St,28.021873,-82.467854,45,UATC - Rome - Westshore Plaza
45,1017,Sa,0,60.0,0.0,N Boulevard @ Kirby St,28.018187,-82.467834,45,UATC - Rome - Westshore Plaza
45,1021,Sa,0,60.0,0.0,N Boulevard @ Lowry Park,28.01366,-82.467912,45,UATC - Rome - Westshore Plaza
7,1029,Sa,0,60.0,0.0,N Boulevard @ Cypress St,27.952612,-82.468536,7,West Tampa - Citrus Park
45,1032,Sa,0,60.0,0.0,Himes Av @ Beach St,27.962982,-82.501307,45,UATC - Rome - Westshore Plaza
45,1033,Sa,0,60.0,0.0,Himes Av @ St John St,27.964612,-82.501322,45,UATC - Rome - Westshore Plaza
45,1034,Sa,0,60.0,0.0,Himes Av @ Columbus Dr,27.966463,-82.501394,45,UATC - Rome - Westshore Plaza
36,1035,Sa,0,60.0,0.0,Himes Av @ Columbus Dr,27.967159,-82.501354,36,Dale Mabry - Himes Avenue
45,1035,Sa,0,60.0,0.0,Himes Av @ Columbus Dr,27.967159,-82.501354,45,UATC - Rome - Westshore Plaza
36,1036,Sa,0,60.0,0.0,Himes Av @ IVy St,27.969758,-82.501356,36,Dale Mabry - Himes Avenue
45,1036,Sa,0,60.0,0.0,Himes Av @ IVy St,27.969758,-82.501356,45,UATC - Rome - Westshore Plaza
36,1037,Sa,0,60.0,0.0,Himes Av @ Leroy St,27.971757,-82.501397,36,Dale Mabry - Himes Avenue
45,1037,Sa,0,60.0,0.0,Himes Av @ Leroy St,27.971757,-82.501397,45,UATC - Rome - Westshore Plaza
36,1038,Sa,0,60.0,0.0,Himes Av @ Tampa Bay Blvd,27.973689,-82.501372,36,Dale Mabry - Himes Avenue
45,1038,Sa,0,60.0,0.0,Himes Av @ Tampa Bay Blvd,27.973689,-82.501372,45,UATC - Rome - Westshore Plaza
36,1040,Sa,0,60.0,0.0,Himes Av @ Woodlawn Av,27.976126,-82.501372,36,Dale Mabry - Himes Avenue
45,1040,Sa,0,60.0,0.0,Himes Av @ Woodlawn Av,27.976126,-82.501372,45,UATC - Rome - Westshore Plaza
7,1040,Sa,0,60.0,0.0,Himes Av @ Woodlawn Av,27.976126,-82.501372,7,West Tampa - Citrus Park
36,1048,Sa,0,60.0,0.0,Himes Av @ Sunrise Villas Ct,28.005061,-82.500764,36,Dale Mabry - Himes Avenue
36,1049,Sa,0,60.0,0.0,Himes Av @ Lambright St,28.006863,-82.500755,36,Dale Mabry - Himes Avenue
36,1050,Sa,0,60.0,0.0,Himes Av @ Minnehaha St,28.008683,-82.500726,36,Dale Mabry - Himes Avenue
36,1051,Sa,0,60.0,0.0,Himes Av @ Sligh Av,28.010712,-82.500717,36,Dale Mabry - Himes Avenue
36,1052,Sa,0,60.0,0.0,Himes Av @ Carlton Arms Dr,28.013428,-82.500699,36,Dale Mabry - Himes Avenue
36,1053,Sa,0,60.0,0.0,Himes Av @ Hamilton St,28.014325,-82.500679,36,Dale Mabry - Himes Avenue
36,1055,Sa,0,60.0,0.0,Himes Av @ Townhouse Ct,28.018708,-82.500652,36,Dale Mabry - Himes Avenue
36,1056,Sa,0,60.0,0.0,Himes Av @ Sitka St,28.021343,-82.500623,36,Dale Mabry - Himes Avenue
36,1058,Sa,0,60.0,0.0,Himes Av @ Waters Av,28.025264,-82.500657,36,Dale Mabry - Himes Avenue
36,1061,Sa,0,60.0,0.0,Himes Av @ Kenyon Av,28.032472,-82.500642,36,Dale Mabry - Himes Avenue
36,1064,Sa,0,60.0,0.0,Himes Av @ Humphrey St,28.028475,-82.500805,36,Dale Mabry - Himes Avenue
36,1065,Sa,0,60.0,0.0,Himes Av @ Kenyon Av,28.032529,-82.500801,36,Dale Mabry - Himes Avenue
36,1068,Sa,0,60.0,0.0,Himes Av @ Waters Av,28.025735,-82.500801,36,Dale Mabry - Himes Avenue
36,1071,Sa,0,60.0,0.0,Himes Av @ Townhouse Ct,28.01888,-82.500824,36,Dale Mabry - Himes Avenue
36,1075,Sa,0,60.0,0.0,Himes Av @ Sligh Av,28.010865,-82.500889,36,Dale Mabry - Himes Avenue
36,1076,Sa,0,60.0,0.0,Himes Av @ Minnehaha Av,28.008719,-82.500908,36,Dale Mabry - Himes Avenue
36,1077,Sa,0,60.0,0.0,Himes Av @ Lambright St,28.007515,-82.500928,36,Dale Mabry - Himes Avenue
36,1081,Sa,0,60.0,0.0,Himes Av @ Hillsborough Av,27.996249,-82.501021,36,Dale Mabry - Himes Avenue
36,1082,Sa,0,60.0,0.0,Himes Av @ Hillsborough Av,27.995751,-82.501051,36,Dale Mabry - Himes Avenue
36,1085,Sa,0,60.0,0.0,Himes Av @ M L King Blvd,27.982586,-82.501429,36,Dale Mabry - Himes Avenue
45,1095,Sa,0,60.0,0.0,Himes Av @ Palmetto St,27.962502,-82.501494,45,UATC - Rome - Westshore Plaza
45,1096,Sa,0,60.0,0.0,Himes Av @ Pine St,27.961358,-82.501497,45,UATC - Rome - Westshore Plaza
45,1097,Sa,0,60.0,0.0,Himes Av @ Spruce St,27.959659,-82.501514,45,UATC - Rome - Westshore Plaza
32,1104,Sa,0,60.0,0.0,M L King Jr Blvd @ Lake Av,27.981499,-82.403075,32,Dr Martin Luther King Jr Blvd
32,1107,Sa,0,60.0,0.0,M L King Jr Blvd @ 39th St,27.981529,-82.416124,32,Dr Martin Luther King Jr Blvd
32,1108,Sa,0,60.0,0.0,M L King Jr Blvd @ 37th St,27.981524,-82.418155,32,Dr Martin Luther King Jr Blvd
32,1109,Sa,0,60.0,0.0,M L King Jr Blvd @ 36th St,27.981524,-82.419785,32,Dr Martin Luther King Jr Blvd
32,1110,Sa,0,60.0,0.0,M L King Jr Blvd @ 34th St,27.981553,-82.422126,32,Dr Martin Luther King Jr Blvd
32,1111,Sa,0,60.0,0.0,M L King Jr Blvd @ 31St St,27.981552,-82.42531,32,Dr Martin Luther King Jr Blvd
32,1113,Sa,0,60.0,0.0,M L King Jr Blvd @ 26th St,27.981531,-82.430488,32,Dr Martin Luther King Jr Blvd
32,1114,Sa,0,60.0,0.0,M L King Jr Blvd @ 24th St,27.981544,-82.432597,32,Dr Martin Luther King Jr Blvd
32,1116,Sa,0,60.0,0.0,M L King Jr Blvd @ 20th St,27.981553,-82.43741,32,Dr Martin Luther King Jr Blvd
32,1119,Sa,0,60.0,0.0,M L King Jr Blvd @ 15th St,27.98156,-82.44273,32,Dr Martin Luther King Jr Blvd
32,1120,Sa,0,60.0,0.0,M L King Jr Blvd @ 13th St,27.981563,-82.444863,32,Dr Martin Luther King Jr Blvd
32,1121,Sa,0,60.0,0.0,M L King Jr Blvd @ 12th St,27.981572,-82.446932,32,Dr Martin Luther King Jr Blvd
32,1122,Sa,0,60.0,0.0,M L King Jr Blvd @ 10th St,27.981553,-82.449062,32,Dr Martin Luther King Jr Blvd
32,1124,Sa,0,60.0,0.0,M L King Jr Blvd @ Central Av,27.98159,-82.455079,32,Dr Martin Luther King Jr Blvd
32,1125,Sa,0,60.0,0.0,M L King Jr Blvd @ Branch Av,27.981588,-82.45719,32,Dr Martin Luther King Jr Blvd
32,1129,Sa,0,60.0,0.0,M L King Jr Blvd @ Highland Av,27.981588,-82.462436,32,Dr Martin Luther King Jr Blvd
32,1130,Sa,0,60.0,0.0,M L King Jr Blvd @ Lynn Av,27.981593,-82.46529,32,Dr Martin Luther King Jr Blvd
32,1131,Sa,0,60.0,0.0,M L King Jr Blvd @ N Boulevard,27.981639,-82.467422,32,Dr Martin Luther King Jr Blvd
32,1133,Sa,0,60.0,0.0,M L King Jr Blvd @ Myrtle Av,27.981619,-82.469571,32,Dr Martin Luther King Jr Blvd
32,1134,Sa,0,60.0,0.0,M L King Jr Blvd @ Poplar Av,27.981627,-82.471543,32,Dr Martin Luther King Jr Blvd
32,1135,Sa,0,60.0,0.0,M L King Jr Blvd @ Riverside Dr,27.981632,-82.473047,32,Dr Martin Luther King Jr Blvd
32,1136,Sa,0,60.0,0.0,M L King Jr Blvd @ 1931,27.981342,-82.479417,32,Dr Martin Luther King Jr Blvd
32,1140,Sa,0,60.0,0.0,M L King Jr Blvd @ Tampania Av,27.981384,-82.48629,32,Dr Martin Luther King Jr Blvd
45,1140,Sa,0,60.0,0.0,M L King Jr Blvd @ Tampania Av,27.981384,-82.48629,45,UATC - Rome - Westshore Plaza
7,1140,Sa,0,60.0,0.0,M L King Jr Blvd @ Tampania Av,27.981384,-82.48629,7,West Tampa - Citrus Park
32,1149,Sa,0,60.0,0.0,M L King Jr Blvd @ Gomez Av,27.981175,-82.491601,32,Dr Martin Luther King Jr Blvd
45,1149,Sa,0,60.0,0.0,M L King Jr Blvd @ Gomez Av,27.981175,-82.491601,45,UATC - Rome - Westshore Plaza
7,1149,Sa,0,60.0,0.0,M L King Jr Blvd @ Gomez Av,27.981175,-82.491601,7,West Tampa - Citrus Park
32,1150,Sa,0,60.0,0.0,M L King Jr Blvd @ Habana Av Es,27.981158,-82.488107,32,Dr Martin Luther King Jr Blvd
45,1150,Sa,0,60.0,0.0,M L King Jr Blvd @ Habana Av Es,27.981158,-82.488107,45,UATC - Rome - Westshore Plaza
7,1150,Sa,0,60.0,0.0,M L King Jr Blvd @ Habana Av Es,27.981158,-82.488107,7,West Tampa - Citrus Park
32,1151,Sa,0,60.0,0.0,M L King Jr Blvd @ Tampania Av,27.981132,-82.486344,32,Dr Martin Luther King Jr Blvd
45,1151,Sa,0,60.0,0.0,M L King Jr Blvd @ Tampania Av,27.981132,-82.486344,45,UATC - Rome - Westshore Plaza
7,1151,Sa,0,60.0,0.0,M L King Jr Blvd @ Tampania Av,27.981132,-82.486344,7,West Tampa - Citrus Park
32,1153,Sa,0,60.0,0.0,M L King Blvd @ Armenia Av Es,27.981151,-82.484177,32,Dr Martin Luther King Jr Blvd
45,1153,Sa,0,60.0,0.0,M L King Blvd @ Armenia Av Es,27.981151,-82.484177,45,UATC - Rome - Westshore Plaza
32,1154,Sa,0,60.0,0.0,M L King Jr Blvd @ Howard Av,27.981197,-82.483336,32,Dr Martin Luther King Jr Blvd
45,1154,Sa,0,60.0,0.0,M L King Jr Blvd @ Howard Av,27.981197,-82.483336,45,UATC - Rome - Westshore Plaza
32,1156,Sa,0,60.0,0.0,M L King Jr Blvd @ St Isabel St,27.98118,-82.479012,32,Dr Martin Luther King Jr Blvd
45,1156,Sa,0,60.0,0.0,M L King Jr Blvd @ St Isabel St,27.98118,-82.479012,45,UATC - Rome - Westshore Plaza
32,1157,Sa,0,60.0,0.0,M L King Jr Blvd @ Poplar Av,27.981482,-82.471791,32,Dr Martin Luther King Jr Blvd
32,1158,Sa,0,60.0,0.0,M L King Jr Blvd @ Myrtle Av,27.981464,-82.469714,32,Dr Martin Luther King Jr Blvd
32,1160,Sa,0,60.0,0.0,M L King Jr Blvd @ Lynn Av,27.981515,-82.465738,32,Dr Martin Luther King Jr Blvd
32,1161,Sa,0,60.0,0.0,M L King Jr Blvd @ Highland Av,27.981505,-82.462247,32,Dr Martin Luther King Jr Blvd
32,1163,Sa,0,60.0,0.0,M L King Jr Blvd @ Suwanee Av,27.981376,-82.458108,32,Dr Martin Luther King Jr Blvd
32,1165,Sa,0,60.0,0.0,M L King Jr Blvd @ Central Av,27.98135,-82.455586,32,Dr Martin Luther King Jr Blvd
32,1166,Sa,0,60.0,0.0,M L King Jr Blvd @ Nebraska Av,27.981332,-82.451393,32,Dr Martin Luther King Jr Blvd
32,1167,Sa,0,60.0,0.0,M L King Jr Blvd @ 10th St,27.981341,-82.449458,32,Dr Martin Luther King Jr Blvd
32,1168,Sa,0,60.0,0.0,M L King Jr Blvd @ 12th St,27.981369,-82.44722,32,Dr Martin Luther King Jr Blvd
32,1169,Sa,0,60.0,0.0,M L King Jr  Blvd @ 13th St,27.981378,-82.445063,32,Dr Martin Luther King Jr Blvd
32,1170,Sa,0,60.0,0.0,M L King Jr Blvd @ 15th St,27.981314,-82.443148,32,Dr Martin Luther King Jr Blvd
32,1171,Sa,0,60.0,0.0,M L King Jr Blvd @ 17th St,27.981278,-82.440211,32,Dr Martin Luther King Jr Blvd
32,1178,Sa,0,60.0,0.0,M L King Jr Blvd @ 31St St,27.98135,-82.425394,32,Dr Martin Luther King Jr Blvd
32,1179,Sa,0,60.0,0.0,M L King Jr Blvd @ 34th St,27.98134,-82.42269,32,Dr Martin Luther King Jr Blvd
32,1180,Sa,0,60.0,0.0,M L King Jr Blvd @ 35th St,27.981322,-82.42033,32,Dr Martin Luther King Jr Blvd
32,1181,Sa,0,60.0,0.0,M L King Jr Blvd @ 37th St,27.981331,-82.418365,32,Dr Martin Luther King Jr Blvd
32,1184,Sa,0,60.0,0.0,M L King Jr Blvd @ 42nd St,27.981375,-82.412754,32,Dr Martin Luther King Jr Blvd
32,1185,Sa,0,60.0,0.0,M L King Jr Blvd @ 50th St,27.98139,-82.402525,32,Dr Martin Luther King Jr Blvd
37,1186,Sa,0,60.0,0.0,M L King Jr Blvd @ Phillips St,27.981389,-82.399639,37,Brandon - Netpark
37,1187,Sa,0,60.0,0.0,M L King Jr Blvd @ 52nd St,27.981388,-82.397866,37,Brandon - Netpark
37,1188,Sa,0,60.0,0.0,M L King Jr Blvd @ 54th St,27.981396,-82.395456,37,Brandon - Netpark
37,1190,Sa,0,60.0,0.0,M L King Jr Blvd @ Carroway St,27.981403,-82.391323,37,Brandon - Netpark
15,1196,Sa,0,60.0,0.0,Hillsborough Av @ Harney Rd,27.99633,-82.382835,15,Columbus Drive
32,1196,Sa,0,60.0,0.0,Hillsborough Av @ Harney Rd,27.99633,-82.382835,32,Dr Martin Luther King Jr Blvd
34,1198,Sa,0,29.9,0.1,Hillsborough Av @ 50th St,27.996192,-82.402004,34,Hillsborough Avenue
34,1199,Sa,0,29.9,0.1,Hillsborough Av @ 48th St,27.996188,-82.403625,34,Hillsborough Avenue
34,1200,Sa,0,29.9,0.1,Hillsborough Av @ 46th St,27.996189,-82.406637,34,Hillsborough Avenue
34,1202,Sa,0,29.9,0.1,Hillsborough Av @ 43Rd St,27.996192,-82.409904,34,Hillsborough Avenue
34,1203,Sa,0,29.9,0.1,Hillsborough Av @ 40th St,27.996146,-82.413591,34,Hillsborough Avenue
34,1204,Sa,0,29.9,0.2,Hillsborough Av @ 37th St,27.996147,-82.4182,34,Hillsborough Avenue
34,1206,Sa,0,29.9,0.1,Hillsborough Av @ 36th St,27.996156,-82.420114,34,Hillsborough Avenue
34,1207,Sa,0,29.9,0.1,Hillsborough Av @ 34th St,27.996157,-82.42215,34,Hillsborough Avenue
34,1208,Sa,0,29.9,0.2,Hillsborough Av @ 32nd St,27.996166,-82.424136,34,Hillsborough Avenue
34,1209,Sa,0,29.9,0.1,Hillsborough Av @ 30th St,27.996157,-82.426263,34,Hillsborough Avenue
34,1212,Sa,0,29.9,0.2,Hillsborough Av @ 22nd St,27.996131,-82.4346,34,Hillsborough Avenue
34,1213,Sa,0,29.9,0.2,Hillsborough Av @ 20th St,27.996131,-82.436484,34,Hillsborough Avenue
34,1214,Sa,0,29.8,0.4,Hillsborough Av @ 19th St,27.996122,-82.438388,34,Hillsborough Avenue
34,1215,Sa,0,29.8,0.4,Hillsborough Av @ 15th St,27.996122,-82.442724,34,Hillsborough Avenue
34,1216,Sa,0,29.9,0.2,Hillsborough Av @ 13th St,27.996131,-82.445246,34,Hillsborough Avenue
34,1217,Sa,0,29.8,0.4,Hillsborough Av @ 11th St,27.996131,-82.447434,34,Hillsborough Avenue
34,1219,Sa,0,29.8,0.4,Hillsborough Av @ Central Av,27.996243,-82.45561,34,Hillsborough Avenue
34,1220,Sa,0,29.8,0.4,Hillsborough Av @ Florida Av,27.996299,-82.460303,34,Hillsborough Avenue
34,1225,Sa,0,29.8,0.5,Hillsborough Av @ Habana Av,27.99621,-82.488429,34,Hillsborough Avenue
34,1227,Sa,0,29.8,0.4,Hillsborough Av @ MacDill Av,27.996199,-82.49242,34,Hillsborough Avenue
34,1228,Sa,0,29.8,0.4,Hillsborough Av @ Lincoln Av,27.996195,-82.497458,34,Hillsborough Avenue
34,1232,Sa,0,29.8,0.7,Hillsborough Av @ Lois Av N/S,27.996261,-82.513961,34,Hillsborough Avenue
7,1232,Sa,0,60.0,0.0,Hillsborough Av @ Lois Av N/S,27.996261,-82.513961,7,West Tampa - Citrus Park
34,1233,Sa,0,29.8,0.5,Hillsborough Av @ Lois Av (Hooters),27.996267,-82.514812,34,Hillsborough Avenue
7,1233,Sa,0,60.0,0.0,Hillsborough Av @ Lois Av (Hooters),27.996267,-82.514812,7,West Tampa - Citrus Park
34,1234,Sa,0,29.8,0.7,Hillsborough Av @4427 Hesperides St,27.996309,-82.519859,34,Hillsborough Avenue
34,1236,Sa,0,29.8,0.7,Hillsborough Av @ Anderson Rd,27.996322,-82.5223,34,Hillsborough Avenue
34,1238,Sa,0,29.8,0.7,Hillsborough Av @ Hoover Blvd,27.99642,-82.534204,34,Hillsborough Avenue
34,1240,Sa,0,29.8,0.7,Hillsborough @ 5555 Crown Bowling,27.996432,-82.537866,34,Hillsborough Avenue
34,1241,Sa,0,29.7,0.9,Hillsborough Av @ Benjamin Dr,27.996469,-82.540496,34,Hillsborough Avenue
34,1242,Sa,0,29.7,0.9,Hillsborough Av @ Beaumont Ctr Blvd,27.996524,-82.548751,34,Hillsborough Avenue
34,1244,Sa,0,29.7,0.9,Hillsborough Av @ Golden Dr,27.99662,-82.553584,34,Hillsborough Avenue
34,1245,Sa,0,29.7,0.9,Hillsborough Av @ Sawyer Rd,27.996639,-82.556358,34,Hillsborough Avenue
34,1246,Sa,0,29.7,0.9,Hillsborough Av @ Hanley Rd,27.996691,-82.563689,34,Hillsborough Avenue
34,1248,Sa,0,29.7,0.9,Hillsborough Av @ Ambassador Dr,27.996705,-82.565084,34,Hillsborough Avenue
34,1249,Sa,0,29.7,0.9,Hillsborough Av @ Town 'N Country,27.996726,-82.568107,34,Hillsborough Avenue
34,1250,Sa,0,29.7,1.1,Hillsborough Av @ Halifax Dr,27.996755,-82.572013,34,Hillsborough Avenue
34,1251,Sa,0,29.7,0.9,Hillsborough Av @ Webb Rd,27.996777,-82.574756,34,Hillsborough Avenue
34,1254,Sa,0,29.7,0.9,Hillsborough Av @ Memorial Hwy,27.996887,-82.581503,34,Hillsborough Avenue
34,1257,Sa,0,30.0,0.2,Hillsborough Av @ Webb Rd,27.996566,-82.575417,34,Hillsborough Avenue
34,1258,Sa,0,30.0,0.2,Hillsborough Av @ Halifax Dr,27.996538,-82.572097,34,Hillsborough Avenue
34,1259,Sa,0,30.0,0.2,Hillsborough Av @ Town N Country,27.996518,-82.569248,34,Hillsborough Avenue
34,1261,Sa,0,30.0,0.2,Hillsborough Av @ Kelly Rd,27.996483,-82.564521,34,Hillsborough Avenue
34,1269,Sa,0,30.0,0.2,Hillsborough Av @ Hoover Blvd,27.996147,-82.533345,34,Hillsborough Avenue
7,1272,Sa,0,60.0,0.0,Hillsborough Av @ Lois Av,27.995962,-82.513803,7,West Tampa - Citrus Park
34,1274,Sa,0,30.0,0.2,Hillsborough Av @ Lois Av,27.995979,-82.512933,34,Hillsborough Avenue
34,1277,Sa,0,30.0,0.2,Hillsborough Av @ Himes Av,27.995939,-82.500511,34,Hillsborough Avenue
34,1278,Sa,0,30.0,0.2,Hillsborough Av @ Lincoln Av,27.995952,-82.49709,34,Hillsborough Avenue
34,1280,Sa,0,30.0,0.2,Hillsborough Av @ MacDill Av,27.996036,-82.492177,34,Hillsborough Avenue
34,1281,Sa,0,30.0,0.2,Hillsborough Av @ Gomez Av,27.996083,-82.490201,34,Hillsborough Avenue
34,1282,Sa,0,30.0,0.2,Hillsborough Av @ Habana Av,27.996081,-82.488218,34,Hillsborough Avenue
34,1283,Sa,0,30.0,0.2,Hillsborough Av @ Armenia Av,27.996022,-82.484752,34,Hillsborough Avenue
34,1284,Sa,0,30.0,0.2,Hillsborough Av @ Howard Av,27.99595,-82.481581,34,Hillsborough Avenue
34,1285,Sa,0,30.0,0.2,Hillsborough Av @ Mendenhall Dr,27.995924,-82.478877,34,Hillsborough Avenue
34,1287,Sa,0,30.0,0.2,Hillsborough Av @ Rome Av,27.995916,-82.476496,34,Hillsborough Avenue
34,1289,Sa,0,30.0,0.2,Hillsborough Av @ Florida Av,27.995975,-82.459752,34,Hillsborough Avenue
34,1290,Sa,0,30.0,0.2,Hillsborough Av @ Central Av,27.99593,-82.455558,34,Hillsborough Avenue
34,1291,Sa,0,30.0,0.2,Hillsborough Av @ Nebraska Av,27.996031,-82.451324,34,Hillsborough Avenue
34,1293,Sa,0,30.0,0.2,Hillsborough Av @ 12th St,27.995993,-82.445942,34,Hillsborough Avenue
34,1294,Sa,0,30.0,0.2,Hillsborough Av @ 15th St,27.995991,-82.443133,34,Hillsborough Avenue
34,1295,Sa,0,30.0,0.2,Hillsborough Av @ 19th St,27.995994,-82.43905,34,Hillsborough Avenue
34,1297,Sa,0,30.0,0.2,Hillsborough Av @ 22nd St,27.99599,-82.434999,34,Hillsborough Avenue
34,1298,Sa,0,30.0,0.2,Hillsborough Av @ 30th St,27.995999,-82.426632,34,Hillsborough Avenue
34,1301,Sa,0,30.0,0.2,Hillsborough Av @ 32nd St,27.995997,-82.424601,34,Hillsborough Avenue
34,1302,Sa,0,30.0,0.2,Hillsborough Av @ 34th St,27.996,-82.422638,34,Hillsborough Avenue
34,1303,Sa,0,30.0,0.2,Hillsborough Av @ 36th St,27.996002,-82.42049,34,Hillsborough Avenue
34,1304,Sa,0,30.0,0.2,Hillsborough Av @ 37th St,27.996004,-82.418513,34,Hillsborough Avenue
34,1305,Sa,0,30.0,0.2,Hillsborough Av @ 40th St Ws,27.996002,-82.41553,34,Hillsborough Avenue
34,1306,Sa,0,30.0,0.2,Hillsborough Av @ 40th St Es,27.996001,-82.413184,34,Hillsborough Avenue
34,1307,Sa,0,30.0,0.2,Hillsborough Av @ 43Rd St,27.995998,-82.410105,34,Hillsborough Avenue
34,1308,Sa,0,30.0,0.2,Hillsborough Av @ 44th St,27.996,-82.408603,34,Hillsborough Avenue
34,1310,Sa,0,30.0,0.2,Hillsborough Av @ 46th St,27.996002,-82.406746,34,Hillsborough Avenue
34,1311,Sa,0,30.0,0.2,Hillsborough Av @ 50th St,27.995925,-82.401982,34,Hillsborough Avenue
15,1313,Sa,0,60.0,0.0,Hillsborough Av @ Harney Rd,27.996026,-82.382938,15,Columbus Drive
32,1313,Sa,0,60.0,0.0,Hillsborough Av @ Harney Rd,27.996026,-82.382938,32,Dr Martin Luther King Jr Blvd
15,1314,Sa,0,60.0,0.0,Hillsborough Av @ Walton Way,27.996024,-82.380689,15,Columbus Drive
32,1314,Sa,0,60.0,0.0,Hillsborough Av @ Walton Way,27.996024,-82.380689,32,Dr Martin Luther King Jr Blvd
15,1316,Sa,0,60.0,0.0,Hillsborough Av @ 6813,27.996031,-82.375938,15,Columbus Drive
32,1316,Sa,0,60.0,0.0,Hillsborough Av @ 6813,27.996031,-82.375938,32,Dr Martin Luther King Jr Blvd
15,1317,Sa,0,60.0,0.0,Hillsborough Av @ Orient Rd,27.996029,-82.373507,15,Columbus Drive
32,1317,Sa,0,60.0,0.0,Hillsborough Av @ Orient Rd,27.996029,-82.373507,32,Dr Martin Luther King Jr Blvd
19,1320,Sa,0,,,Westshore Blvd @ McCoy St,27.869635,-82.526904,19,Port Tampa
19,1321,Sa,0,,,Westshore Blvd @ Everett St,27.871767,-82.526804,19,Port Tampa
19,1322,Sa,0,,,Westshore Blvd @ Westshore Circle,27.87337,-82.526816,19,Port Tampa
19,1324,Sa,0,,,Westshore Blvd @ Fairview Heights,27.878469,-82.52688,19,Port Tampa
19,1326,Sa,0,,,Westshore Blvd @ Wisconsin Av,27.881665,-82.526852,19,Port Tampa
19,1327,Sa,0,,,Westshore Blvd @ Trilby Av,27.883218,-82.526765,19,Port Tampa
19,1328,Sa,0,,,Westshore Blvd @ Wallace Av,27.885216,-82.526847,19,Port Tampa
19,1329,Sa,0,,,Westshore Blvd @ Pearl Av,27.887602,-82.526739,19,Port Tampa
19,1334,Sa,0,,,Westshore Blvd @ Gandy Blvd,27.894205,-82.526793,19,Port Tampa
19,1335,Sa,0,,,Westshore Blvd @ Oakellar St,27.895774,-82.526677,19,Port Tampa
19,1336,Sa,0,,,Westshore Blvd @ Coachman Av,27.897377,-82.526669,19,Port Tampa
19,1337,Sa,0,,,Westshore Blvd @ Alline St,27.898854,-82.52666,19,Port Tampa
19,1338,Sa,0,,,Westshore Blvd @ Fair Oaks Av,27.900221,-82.526651,19,Port Tampa
19,1339,Sa,0,,,Westshore Blvd @ Wallcraft Av,27.902903,-82.526624,19,Port Tampa
19,1341,Sa,0,,,Westshore Blvd @ Bay Vista Av,27.906399,-82.526627,19,Port Tampa
19,1342,Sa,0,,,Westshore Blvd @ Euclid Av,27.908628,-82.526599,19,Port Tampa
30,1360,Sa,0,29.9,0.3,Westshore Blvd @ Gray St,27.948711,-82.524018,30,Town 'N Country
30,1370,Sa,0,29.9,0.4,Westshore Blvd @ Gray St,27.948421,-82.524362,30,Town 'N Country
19,1388,Sa,0,,,Westshore Blvd @ Bay Court Av,27.907502,-82.526762,19,Port Tampa
19,1390,Sa,0,,,Westshore Blvd @ Flamingo Road,27.904717,-82.52676,19,Port Tampa
19,1391,Sa,0,,,Westshore Blvd @ Fair Oaks Av,27.900684,-82.526787,19,Port Tampa
19,1394,Sa,0,,,Westshore Blvd @ Oakellar St,27.894732,-82.526878,19,Port Tampa
19,1396,Sa,0,,,Westshore Blvd @ Gandy Blvd,27.894187,-82.526876,19,Port Tampa
19,1402,Sa,0,,,Westshore Blvd @ Everett St,27.87193,-82.52697,19,Port Tampa
19,1410,Sa,0,,,Westshore Blvd @ Lancaster St,27.868613,-82.52698,19,Port Tampa
19,1412,Sa,0,60.0,1.0,Westshore Blvd @ Loughman St,27.863489,-82.52699,19,Port Tampa
19,1413,Sa,0,60.0,0.0,Westshore Blvd @ Ingraham St,27.862265,-82.526988,19,Port Tampa
19,1414,Sa,0,60.0,1.0,Westshore Blvd @ Bradley St,27.860998,-82.527004,19,Port Tampa
19,1415,Sa,0,60.0,1.0,Westshore Blvd @ Idaho St,27.859764,-82.527003,19,Port Tampa
9,1418,Sa,0,60.0,0.0,Waters Av @ Semmes St,28.025382,-82.441955,9,15th Street
9,1419,Sa,0,60.0,0.0,Waters Av @ Mulberry St,28.025345,-82.443944,9,15th Street
9,1421,Sa,0,60.0,0.0,Waters Av @ 12th St,28.025329,-82.44718,9,15th Street
16,1422,Sa,0,45.0,0.0,Waters Av @ Edison Av,28.025395,-82.468523,16,Waters Avenue
16,1423,Sa,0,45.0,0.0,Waters Av @ El Portal Dr,28.025388,-82.469545,16,Waters Avenue
16,1424,Sa,0,45.0,0.0,Waters Av @ Willow Av,28.025386,-82.471543,16,Waters Avenue
16,1425,Sa,0,45.0,0.0,Waters Av @ Orleans Av,28.025386,-82.473176,16,Waters Avenue
16,1426,Sa,0,45.0,0.0,Waters Av @ Rome Av,28.025367,-82.475728,16,Waters Avenue
16,1427,Sa,0,45.0,0.0,Waters Av @ Jones Av,28.025383,-82.478018,16,Waters Avenue
16,1429,Sa,0,45.0,0.0,Waters Av @ Armenia Av,28.025439,-82.484001,16,Waters Avenue
16,1430,Sa,0,45.0,0.0,Waters Av @ Habana Av,28.025409,-82.488115,16,Waters Avenue
16,1431,Sa,0,45.0,0.0,Waters Av @ Twin Lakes Blvd,28.025501,-82.492348,16,Waters Avenue
16,1433,Sa,0,45.0,0.0,Waters Av @ Sevilla Dr,28.025522,-82.498195,16,Waters Avenue
16,1435,Sa,0,45.0,0.0,Waters Av @ Dale Mabry Hwy Es,28.025579,-82.503707,16,Waters Avenue
16,1437,Sa,0,45.0,0.0,Waters Av @ Grady Av,28.025575,-82.5088,16,Waters Avenue
16,1438,Sa,0,45.0,0.0,Waters Av @ Lake Melena Way,28.025566,-82.510896,16,Waters Avenue
16,1439,Sa,0,45.0,0.0,Waters Av @ Lois Av,28.025568,-82.512898,16,Waters Avenue
16,1440,Sa,0,45.0,0.0,Waters Av @ Camden St,28.025573,-82.514478,16,Waters Avenue
16,1441,Sa,0,45.0,0.0,Waters Av @ Manhattan Av,28.025578,-82.516945,16,Waters Avenue
16,1442,Sa,0,45.0,0.0,Waters Av @ Cypress Lake Apts,28.025632,-82.519708,16,Waters Avenue
16,1443,Sa,0,45.0,0.0,Waters Av @ Sunstate St,28.025645,-82.528673,16,Waters Avenue
16,1447,Sa,0,45.0,0.0,Waters Av @ Florida Mining Blvd N/S,28.025701,-82.53325,16,Waters Avenue
16,1448,Sa,0,45.0,0.0,Waters Av @ Anderson Rd,28.025761,-82.537978,16,Waters Avenue
16,1450,Sa,0,45.0,0.0,Waters Av @ Benjamin Rd,28.025738,-82.541523,16,Waters Avenue
16,1451,Sa,0,45.0,0.0,Waters Av @ Henderson Rd,28.025822,-82.55026,16,Waters Avenue
16,1453,Sa,0,45.0,0.0,Waters Av @ Twelve Oaks Blvd,28.025839,-82.551385,16,Waters Avenue
16,1454,Sa,0,45.0,0.0,Waters Av @ J R Manor Dr,28.02585,-82.554502,16,Waters Avenue
16,1460,Sa,0,45.0,0.0,Waters Av @ Pinehurst Dr,28.026115,-82.571033,16,Waters Avenue
30,1460,Sa,0,29.8,1.0,Waters Av @ Pinehurst Dr,28.026115,-82.571033,30,Town 'N Country
16,1464,Sa,0,45.0,0.0,Waters Av @ Flowerfield Dr,28.025794,-82.574164,16,Waters Avenue
30,1464,Sa,0,30.0,0.0,Waters Av @ Flowerfield Dr,28.025794,-82.574164,30,Town 'N Country
16,1467,Sa,0,45.0,0.0,Waters Av @ Rustic Dr,28.025639,-82.559785,16,Waters Avenue
16,1468,Sa,0,45.0,0.0,Waters Av @ Twelve Oaks Blvd,28.025512,-82.551678,16,Waters Avenue
16,1472,Sa,0,45.0,0.0,Waters Av @ Oak Trace Way,28.025496,-82.550077,16,Waters Avenue
16,1473,Sa,0,45.0,0.0,Waters Av @ Patterson Rd,28.02549,-82.547006,16,Waters Avenue
16,1475,Sa,0,45.0,0.0,Waters Av @ Anderson Rd,28.025426,-82.538231,16,Waters Avenue
16,1476,Sa,0,45.0,0.0,Waters Av @ 5400 thompson Center,28.025428,-82.536458,16,Waters Avenue
16,1480,Sa,0,45.0,0.0,Waters Av @ Savarese Blvd,28.025361,-82.53028,16,Waters Avenue
16,1481,Sa,0,45.0,0.0,Waters Av @ Woodland Center Blvd,28.02531,-82.525351,16,Waters Avenue
16,1482,Sa,0,45.0,0.0,Waters Av @ Woodland Corporate Blvd,28.025295,-82.522504,16,Waters Avenue
16,1484,Sa,0,45.0,0.0,Waters Av @ Manhattan Av,28.02528,-82.517417,16,Waters Avenue
16,1485,Sa,0,45.0,0.0,Waters Av @ thatcher Av,28.025273,-82.514904,16,Waters Avenue
16,1486,Sa,0,45.0,0.0,Waters Av @ Lois Av,28.025265,-82.513262,16,Waters Avenue
16,1487,Sa,0,45.0,0.0,Waters Av @ Grady Av,28.025259,-82.509209,16,Waters Avenue
16,1489,Sa,0,45.0,0.0,Waters Av @ Dale Mabry Hwy,28.025262,-82.503899,16,Waters Avenue
16,1490,Sa,0,45.0,0.0,Waters Av @ Himes Av,28.0253,-82.501042,16,Waters Avenue
16,1491,Sa,0,45.0,0.0,Waters Av @ Sevilla Dr,28.025302,-82.498407,16,Waters Avenue
16,1492,Sa,0,45.0,0.0,Waters Av @ Lago Vista Dr,28.025258,-82.495235,16,Waters Avenue
16,1493,Sa,0,45.0,0.0,Waters Av @ Palma Vista Lane,28.02525,-82.492682,16,Waters Avenue
16,1494,Sa,0,45.0,0.0,Waters Av @ Habana Av,28.025171,-82.488598,16,Waters Avenue
16,1495,Sa,0,45.0,0.0,Waters Av @ Armenia Av,28.025209,-82.484545,16,Waters Avenue
16,1496,Sa,0,45.0,0.0,Waters Av @ Saulray St,28.025219,-82.481474,16,Waters Avenue
16,1497,Sa,0,45.0,0.0,Waters Av @ Fremont Av,28.02522,-82.478799,16,Waters Avenue
16,1498,Sa,0,45.0,0.0,Waters Av @ Packwood Av,28.025221,-82.476955,16,Waters Avenue
16,1499,Sa,0,45.0,0.0,Waters Av @ Rome Av,28.025221,-82.476094,16,Waters Avenue
16,1500,Sa,0,45.0,0.0,Waters Av @ Orleans Av,28.025222,-82.473378,16,Waters Avenue
16,1502,Sa,0,45.0,0.0,Waters Av @ El Portal Dr,28.025295,-82.469658,16,Waters Avenue
9,1503,Sa,0,60.0,0.0,Waters Av @ Klondyke St,28.0252,-82.445856,9,15th Street
9,1504,Sa,0,60.0,0.0,Waters Av @ 14th St,28.02521,-82.444336,9,15th Street
9,1505,Sa,0,60.0,0.0,Waters Av @ Marks St,28.025228,-82.442624,9,15th Street
6,1513,Sa,0,30.9,5.7,Sligh Av @ 53Rd St,28.010776,-82.39767,6,56th Street
18,1520,Sa,0,60.0,0.0,Sligh Av @ Rowlett Park Dr,28.01072,-82.429928,18,30th Street
9,1522,Sa,0,60.0,0.0,Sligh Av @ 22nd St,28.010666,-82.43468,9,15th Street
9,1523,Sa,0,60.0,0.0,Sligh Av @ 21St St,28.01063,-82.436088,9,15th Street
9,1524,Sa,0,60.0,0.0,Sligh Av @ 19th St,28.010648,-82.438601,9,15th Street
9,1525,Sa,0,60.0,0.0,Sligh Av @ 17th St,28.010675,-82.441124,9,15th Street
9,1526,Sa,0,60.0,0.0,Sligh Av @ 15th St,28.010684,-82.442826,9,15th Street
45,1537,Sa,0,60.0,0.0,Sligh Av @ Willow Av,28.010815,-82.472319,45,UATC - Rome - Westshore Plaza
45,1538,Sa,0,60.0,0.0,Sligh Av @ Oregon Av,28.010805,-82.474306,45,UATC - Rome - Westshore Plaza
7,1547,Sa,0,60.0,0.0,Sligh Av @ Anderson Rd,28.010943,-82.531608,7,West Tampa - Citrus Park
7,1548,Sa,0,60.0,0.0,Sligh Av @ Anderson Rd,28.01078,-82.531517,7,West Tampa - Citrus Park
45,1557,Sa,0,60.0,0.0,Sligh Av @ Oregon Av,28.01066,-82.474314,45,UATC - Rome - Westshore Plaza
9,1570,Sa,0,60.0,0.0,Sligh Av @ 17th St,28.010512,-82.441377,9,15th Street
9,1573,Sa,0,60.0,0.0,Sligh Av @ 22nd St,28.010467,-82.434984,9,15th Street
12,1574,Sa,0,32.1,7.8,Sligh Av @ 24th St,28.010566,-82.432775,12,22nd Street
9,1574,Sa,0,60.0,0.0,Sligh Av @ 24th St,28.010566,-82.432775,9,15th Street
18,1577,Sa,0,60.0,0.0,Sligh Av @ 30th St,28.010548,-82.426717,18,30th Street
6,1583,Sa,0,30.8,5.3,Sligh Av @ 53Rd St,28.010613,-82.397953,6,56th Street
6,1585,Sa,0,30.8,5.1,Sligh Av @ 56th St Ws,28.010629,-82.39388,6,56th Street
5,1591,Sa,0,60.0,0.0,40th St @ Osborne Av,27.989177,-82.413983,5,40th Street
5,1592,Sa,0,60.0,0.0,40th St @ Ellicott St,27.990364,-82.413977,5,40th Street
5,1594,Sa,0,60.0,0.0,40th St @ Hillsborough Av,27.994742,-82.413905,5,40th Street
5,1597,Sa,0,60.0,0.0,40th St @ Idlewild Av,28.000937,-82.414096,5,40th Street
5,1598,Sa,0,60.0,0.0,40th St @ Paris St,28.002558,-82.414105,5,40th Street
5,1601,Sa,0,60.0,0.0,40th St @ Diana St,28.006823,-82.413962,5,40th Street
5,1607,Sa,0,60.0,0.0,40th St @ River Hills Dr,28.021213,-82.41487,5,40th Street
5,1610,Sa,0,60.0,0.0,40th St @ Bird St,28.023278,-82.415487,5,40th Street
5,1611,Sa,0,60.0,0.0,40th St @ Regnas Av,28.025135,-82.416257,5,40th Street
5,1612,Sa,0,60.0,0.0,40th St @ Seward St,28.027163,-82.416236,5,40th Street
5,1616,Sa,0,60.0,0.0,Mckinley Dr @ Busch Blvd,28.034706,-82.416406,5,40th Street
5,1617,Sa,0,60.0,0.0,Mckinley Dr @ Linebaugh Av,28.039471,-82.416137,5,40th Street
5,1618,Sa,0,60.0,0.0,Mckinley Dr @ Bougainvillea Av,28.044336,-82.416145,5,40th Street
5,1619,Sa,0,60.0,0.0,Mckinley Dr @ Fowler Av,28.053616,-82.416055,5,40th Street
5,1622,Sa,0,60.0,0.0,Mckinley Dr @ Bougainvillea Av,28.044154,-82.416414,5,40th Street
5,1630,Sa,0,60.0,0.0,40th St @ Seward St,28.027444,-82.41653,5,40th Street
5,1631,Sa,0,60.0,0.0,40th St @ Regnas Av,28.02499,-82.4165,5,40th Street
5,1634,Sa,0,60.0,0.0,40th St @ Hanlon St,28.018433,-82.414394,5,40th Street
5,1638,Sa,0,60.0,0.0,40th St @ Norfolk St,28.011669,-82.415329,5,40th Street
5,1639,Sa,0,60.0,0.0,40th St @ River Grove Dr,28.00714,-82.414296,5,40th Street
5,1640,Sa,0,60.0,0.0,40th St @ Fern St,28.005565,-82.414256,5,40th Street
5,1644,Sa,0,60.0,0.0,40th St @ Powhattan Av,27.999108,-82.414258,5,40th Street
5,1645,Sa,0,60.0,0.0,40th St @ Hillsborough Av,27.995358,-82.414249,5,40th Street
5,1648,Sa,0,60.0,0.0,40th St @ Ellicott St,27.990768,-82.41421,5,40th Street
5,1649,Sa,0,60.0,0.0,40th St @ Osborne Av,27.988999,-82.414214,5,40th Street
18,1652,Sa,0,60.0,0.0,30th St @ Osborne Av,27.988695,-82.426345,18,30th Street
18,1653,Sa,0,60.0,0.0,30th St @ Ellicott St,27.990434,-82.426365,18,30th Street
18,1654,Sa,0,60.0,0.0,30th St @ Wilder Av,27.992254,-82.426365,18,30th Street
18,1655,Sa,0,60.0,0.0,30th St @ Shadowlawn St,27.993712,-82.426365,18,30th Street
18,1656,Sa,0,60.0,0.0,30th St @ Hillsborough Av,27.995677,-82.426374,18,30th Street
18,1657,Sa,0,60.0,0.0,30th St @ Comanche Av,27.997217,-82.426374,18,30th Street
18,1658,Sa,0,60.0,0.0,30th St @ Powhatan Av,27.999155,-82.426374,18,30th Street
18,1659,Sa,0,60.0,0.0,30th St @ Idlewild Av,28.00112,-82.426394,18,30th Street
18,1660,Sa,0,60.0,0.0,30th St @ Paris St,28.002307,-82.426414,18,30th Street
18,1661,Sa,0,60.0,0.0,30th St @ Hanna Av,28.003203,-82.426414,18,30th Street
18,1663,Sa,0,60.0,0.0,30th St @ Fern St,28.004625,-82.426424,18,30th Street
18,1664,Sa,0,60.0,0.0,30th St @ Diana St,28.006817,-82.426413,18,30th Street
18,1665,Sa,0,60.0,0.0,30th St @ Pocahontas Av,28.008628,-82.426393,18,30th Street
18,1666,Sa,0,60.0,0.0,30th St @ Sligh Av,28.01052,-82.426372,18,30th Street
18,1667,Sa,0,60.0,0.0,30th St @ River Forest Cr,28.030318,-82.426361,18,30th Street
18,1668,Sa,0,60.0,0.0,30th St @ Busch Blvd,28.031954,-82.426321,18,30th Street
18,1669,Sa,0,60.0,0.0,30th St @ Annie St,28.036023,-82.426126,18,30th Street
18,1670,Sa,0,60.0,0.0,30th St @ Bougainvillea  Av,28.043362,-82.426114,18,30th Street
18,1680,Sa,0,60.0,0.0,30th St @ 113th Av,28.051045,-82.426262,18,30th Street
18,1681,Sa,0,60.0,0.0,30th St @ 109th Av,28.04653,-82.426272,18,30th Street
18,1682,Sa,0,60.0,0.0,30th St @ Bougainvillea Av,28.043801,-82.426278,18,30th Street
18,1685,Sa,0,60.0,0.0,30th St @ Poinsettia Av,28.041227,-82.426273,18,30th Street
18,1686,Sa,0,60.0,0.0,30th St @ 99th Av,28.03917,-82.42629,18,30th Street
18,1687,Sa,0,60.0,0.0,30th St @ 97th Av,28.03784,-82.42629,18,30th Street
18,1688,Sa,0,60.0,0.0,30th St @ Annie St,28.036449,-82.426286,18,30th Street
18,1689,Sa,0,60.0,0.0,30th St @ Busch Blvd,28.032145,-82.426491,18,30th Street
18,1691,Sa,0,60.0,0.0,30th St @ Yukon St,28.029157,-82.426407,18,30th Street
18,1692,Sa,0,60.0,0.0,30th St @ Diana Ct,28.007161,-82.426531,18,30th Street
18,1695,Sa,0,60.0,0.0,30th St @ Hanna Av,28.003593,-82.426606,18,30th Street
18,1697,Sa,0,60.0,0.0,30th St @ Henry Av,27.999502,-82.426527,18,30th Street
18,1700,Sa,0,60.0,0.0,30th St @ Hillsborough Av Ns,27.996329,-82.426557,18,30th Street
18,1701,Sa,0,60.0,0.0,30th St @ Hillsborough Av Ss,27.995623,-82.426557,18,30th Street
18,1703,Sa,0,60.0,0.0,30th St @ Wilder Av,27.992426,-82.426547,18,30th Street
18,1704,Sa,0,60.0,0.0,30th St @ Ellicott St,27.990615,-82.426547,18,30th Street
18,1705,Sa,0,60.0,0.0,30th St @ Osborne Av,27.98913,-82.426537,18,30th Street
18,1706,Sa,0,60.0,0.0,30th St @ Cayuga St,27.98663,-82.426528,18,30th Street
18,1707,Sa,0,60.0,0.0,30th St @ Chelsea Av,27.985208,-82.426548,18,30th Street
36,1708,Sa,0,60.0,0.0,Dale Mabry Hwy @ Interbay Blvd,27.872389,-82.50618,36,Dale Mabry - Himes Avenue
36,1713,Sa,0,60.0,0.0,Dale Mabry Hwy @ Bay Av,27.878975,-82.506327,36,Dale Mabry - Himes Avenue
36,1714,Sa,0,60.0,0.0,Dale Mabry Hwy @ Iowa Av,27.880895,-82.506308,36,Dale Mabry - Himes Avenue
36,1715,Sa,0,60.0,0.0,Dale Mabry Hwy @ Wisconsin Av,27.881865,-82.506309,36,Dale Mabry - Himes Avenue
36,1716,Sa,0,60.0,0.0,Dale Mabry Hwy @ Oklahoma Av,27.883767,-82.50627,36,Dale Mabry - Himes Avenue
36,1717,Sa,0,60.0,0.0,Dale Mabry Hwy @ Wallace Av,27.88518,-82.506251,36,Dale Mabry - Himes Avenue
36,1718,Sa,0,60.0,0.0,Dale Mabry Hwy @ Rogers Av,27.886675,-82.506232,36,Dale Mabry - Himes Avenue
36,1719,Sa,0,60.0,0.0,Dale Mabry Hwy @ Paxton Av,27.888279,-82.506193,36,Dale Mabry - Himes Avenue
36,1720,Sa,0,60.0,0.0,Dale Mabry Hwy @ Ballast Point Blvd,27.889882,-82.506174,36,Dale Mabry - Himes Avenue
36,1721,Sa,0,60.0,0.0,Dale Mabry Hwy @ Marlin Av,27.891187,-82.506165,36,Dale Mabry - Himes Avenue
36,1722,Sa,0,60.0,0.0,Dale Mabry Hwy @ Gandy Blvd,27.894448,-82.506127,36,Dale Mabry - Himes Avenue
19,1726,Sa,0,60.0,2.0,Dale Mabry Hwy @ El Prado Blvd,27.911114,-82.506015,19,Port Tampa
36,1726,Sa,0,60.0,0.0,Dale Mabry Hwy @ El Prado Blvd,27.911114,-82.506015,36,Dale Mabry - Himes Avenue
19,1727,Sa,0,60.0,2.0,Dale Mabry Hwy @ Sevilla St,27.912764,-82.505969,19,Port Tampa
36,1727,Sa,0,60.0,0.0,Dale Mabry Hwy @ Sevilla St,27.912764,-82.505969,36,Dale Mabry - Himes Avenue
19,1728,Sa,0,60.0,2.0,Dale Mabry Hwy @ Corona St,27.913978,-82.50595,19,Port Tampa
36,1728,Sa,0,60.0,0.0,Dale Mabry Hwy @ Corona St,27.913978,-82.50595,36,Dale Mabry - Himes Avenue
19,1729,Sa,0,60.0,2.0,Dale Mabry Hwy @ San Luis St,27.9155,-82.505931,19,Port Tampa
36,1729,Sa,0,60.0,0.0,Dale Mabry Hwy @ San Luis St,27.9155,-82.505931,36,Dale Mabry - Himes Avenue
19,1730,Sa,0,60.0,2.0,Dale Mabry Hwy @ Obispo St,27.916895,-82.505902,19,Port Tampa
36,1730,Sa,0,60.0,0.0,Dale Mabry Hwy @ Obispo St,27.916895,-82.505902,36,Dale Mabry - Himes Avenue
19,1731,Sa,0,60.0,2.0,Dale Mabry Hwy @ San Juan St,27.91829,-82.505882,19,Port Tampa
36,1731,Sa,0,60.0,0.0,Dale Mabry Hwy @ San Juan St,27.91829,-82.505882,36,Dale Mabry - Himes Avenue
19,1732,Sa,0,60.0,2.0,Dale Mabry Hwy @ Bay To Bay Blvd,27.91944,-82.505863,19,Port Tampa
36,1732,Sa,0,60.0,0.0,Dale Mabry Hwy @ Bay To Bay Blvd,27.91944,-82.505863,36,Dale Mabry - Himes Avenue
19,1733,Sa,0,60.0,2.0,Dale Mabry Hwy @ Barcelona St,27.921741,-82.505845,19,Port Tampa
36,1733,Sa,0,60.0,0.0,Dale Mabry Hwy @ Barcelona St,27.921741,-82.505845,36,Dale Mabry - Himes Avenue
19,1734,Sa,0,60.0,2.0,Dale Mabry Hwy @ San Carlos St,27.923625,-82.505795,19,Port Tampa
19,1736,Sa,0,60.0,2.0,Dale Mabry Hwy @ Neptune St,27.930718,-82.50572,19,Port Tampa
36,1736,Sa,0,60.0,0.0,Dale Mabry Hwy @ Neptune St,27.930718,-82.50572,36,Dale Mabry - Himes Avenue
19,1738,Sa,0,60.0,2.0,Dale Mabry Hwy @ Jetton Av,27.932665,-82.505681,19,Port Tampa
36,1738,Sa,0,60.0,0.0,Dale Mabry Hwy @ Jetton Av,27.932665,-82.505681,36,Dale Mabry - Himes Avenue
36,1739,Sa,0,60.0,0.0,Dale Mabry Hwy @ Inman Av,27.935283,-82.505663,36,Dale Mabry - Himes Avenue
36,1740,Sa,0,60.0,0.0,Dale Mabry Hwy @ Swann Av,27.937421,-82.505654,36,Dale Mabry - Himes Avenue
36,1741,Sa,0,60.0,0.0,Dale Mabry Hwy @ Dale Av,27.939277,-82.505626,36,Dale Mabry - Himes Avenue
36,1742,Sa,0,60.0,0.0,Dale Mabry Hwy @ Azeele St,27.941026,-82.505627,36,Dale Mabry - Himes Avenue
36,1743,Sa,0,60.0,0.0,Dale Mabry Hwy @ Cleveland St,27.942837,-82.505598,36,Dale Mabry - Himes Avenue
36,1744,Sa,0,60.0,0.0,Dale Mabry Hwy @ Kennedy Blvd,27.944521,-82.505604,36,Dale Mabry - Himes Avenue
36,1745,Sa,0,60.0,0.0,Dale Mabry Hwy @ North B St,27.947172,-82.505545,36,Dale Mabry - Himes Avenue
36,1746,Sa,0,60.0,0.0,Dale Mabry Hwy @ Gray St,27.948867,-82.505536,36,Dale Mabry - Himes Avenue
36,1747,Sa,0,60.0,0.0,Dale Mabry Hwy @ Cass St,27.950095,-82.505521,36,Dale Mabry - Himes Avenue
36,1748,Sa,0,60.0,0.0,Dale Mabry Hwy @ Cypress St,27.951912,-82.5055,36,Dale Mabry - Himes Avenue
36,1749,Sa,0,60.0,0.0,Dale Mabry Hwy @ Chestnut St,27.958316,-82.505468,36,Dale Mabry - Himes Avenue
36,1750,Sa,0,60.0,0.0,Dale Mabry Hwy @ Walnut St,27.960182,-82.50545,36,Dale Mabry - Himes Avenue
36,1751,Sa,0,60.0,0.0,Dale Mabry Hwy @ Cherry St,27.961525,-82.505435,36,Dale Mabry - Himes Avenue
36,1754,Sa,0,60.0,0.0,Dale Mabry Hwy @ Lake Carroll Way,28.043554,-82.504562,36,Dale Mabry - Himes Avenue
36,1755,Sa,0,60.0,0.0,Dale Mabry Hwy @ Floyd  Rd,28.04781,-82.504271,36,Dale Mabry - Himes Avenue
36,1756,Sa,0,60.0,0.0,Dale Mabry Hwy @ 11007,28.049276,-82.504196,36,Dale Mabry - Himes Avenue
36,1757,Sa,0,60.0,0.0,Dale Mabry @ Hudson Ln @ Taco Bell,28.051043,-82.504041,36,Dale Mabry - Himes Avenue
572,1762,Sa,0,60.0,0.0,Dale Mabry Hwy @ Fletcher Av,28.06639,-82.504905,572,Northdale Flex
572,1763,Sa,0,60.0,0.0,Dale Mabry Hwy @ Moran Rd,28.068173,-82.505463,572,Northdale Flex
572,1766,Sa,0,60.0,0.0,Dale Mabry Hwy @ Medical Dr,28.076506,-82.506694,572,Northdale Flex
572,1767,Sa,0,60.0,0.0,Dale Mabry Hwy @ Bearss Av,28.086872,-82.503997,572,Northdale Flex
572,1771,Sa,0,60.0,0.0,Dale Mabry Hwy @ North Lakeview Dr,28.103287,-82.502123,572,Northdale Flex
572,1774,Sa,0,60.0,0.0,Dale Mabry Hwy @ Mapledale Blvd,28.098692,-82.502451,572,Northdale Flex
572,1775,Sa,0,60.0,0.0,Dale Mabry Hwy @ Mapledale Blvd,28.098761,-82.502049,572,Northdale Flex
572,1777,Sa,0,60.0,0.0,Dale Mabry @ Carrollwood Springs Bl,28.088733,-82.503636,572,Northdale Flex
572,1778,Sa,0,60.0,0.0,Dale Mabry Hwy @  Ehrlich Rd(15042),28.086791,-82.504429,572,Northdale Flex
572,1779,Sa,0,60.0,0.0,Dale Mabry @ Ehrlich @ Bank United,28.083176,-82.505972,572,Northdale Flex
36,1796,Sa,0,60.0,0.0,Dale Mabry Hwy @ Palmetto St,27.964285,-82.505643,36,Dale Mabry - Himes Avenue
36,1797,Sa,0,60.0,0.0,Dale Mabry Hwy @ Cherry St,27.961223,-82.505675,36,Dale Mabry - Himes Avenue
36,1798,Sa,0,60.0,0.0,Dale Mabry Hwy @ Spruce St,27.958866,-82.505709,36,Dale Mabry - Himes Avenue
36,1799,Sa,0,60.0,0.0,Dale Mabry Hwy @ Laurel St,27.955577,-82.505709,36,Dale Mabry - Himes Avenue
36,1800,Sa,0,60.0,0.0,Dale Mabry Hwy @ Grace St,27.952841,-82.50577,36,Dale Mabry - Himes Avenue
36,1801,Sa,0,60.0,0.0,Dale Mabry Hwy @ State St,27.951621,-82.505761,36,Dale Mabry - Himes Avenue
36,1802,Sa,0,60.0,0.0,Dale Mabry Hwy @ Cass St,27.950178,-82.505769,36,Dale Mabry - Himes Avenue
36,1803,Sa,0,60.0,0.0,Dale Mabry Hwy @ Gray St,27.948947,-82.505781,36,Dale Mabry - Himes Avenue
36,1804,Sa,0,60.0,0.0,Dale Mabry Hwy @ North B St,27.946791,-82.505793,36,Dale Mabry - Himes Avenue
36,1805,Sa,0,60.0,0.0,Dale Mabry Hwy @ Roland St,27.944025,-82.505782,36,Dale Mabry - Himes Avenue
36,1806,Sa,0,60.0,0.0,Dale Mabry Hwy @ Cleveland St,27.943063,-82.50578,36,Dale Mabry - Himes Avenue
36,1807,Sa,0,60.0,0.0,Dale Mabry Hwy @ Azeele St,27.94127,-82.505799,36,Dale Mabry - Himes Avenue
36,1808,Sa,0,60.0,0.0,Dale Mabry Hwy @ Dale Av,27.939531,-82.505808,36,Dale Mabry - Himes Avenue
36,1809,Sa,0,60.0,0.0,Dale Mabry Hwy @ Swann Av,27.93775,-82.505824,36,Dale Mabry - Himes Avenue
36,1810,Sa,0,60.0,0.0,Dale Mabry Hwy @ Inman Av,27.935853,-82.505835,36,Dale Mabry - Himes Avenue
19,1813,Sa,0,60.0,0.0,Dale Mabry Hwy @ Angeles St,27.927606,-82.505919,19,Port Tampa
36,1813,Sa,0,60.0,0.0,Dale Mabry Hwy @ Angeles St,27.927606,-82.505919,36,Dale Mabry - Himes Avenue
19,1814,Sa,0,60.0,0.0,Dale Mabry Hwy @ San Nicholas St,27.925758,-82.505943,19,Port Tampa
36,1814,Sa,0,60.0,0.0,Dale Mabry Hwy @ San Nicholas St,27.925758,-82.505943,36,Dale Mabry - Himes Avenue
19,1815,Sa,0,60.0,0.0,Dale Mabry Hwy @ San Carlos St,27.924018,-82.505965,19,Port Tampa
36,1815,Sa,0,60.0,0.0,Dale Mabry Hwy @ San Carlos St,27.924018,-82.505965,36,Dale Mabry - Himes Avenue
19,1816,Sa,0,60.0,0.0,Dale Mabry Hwy @ Barcelona St,27.921928,-82.506002,19,Port Tampa
36,1816,Sa,0,60.0,0.0,Dale Mabry Hwy @ Barcelona St,27.921928,-82.506002,36,Dale Mabry - Himes Avenue
19,1817,Sa,0,60.0,0.0,Dale Mabry Hwy @ Bay To Bay Blvd,27.920009,-82.506022,19,Port Tampa
36,1817,Sa,0,60.0,0.0,Dale Mabry Hwy @ Bay To Bay Blvd,27.920009,-82.506022,36,Dale Mabry - Himes Avenue
19,1818,Sa,0,60.0,0.0,Dale Mabry Hwy @ San Juan St,27.918512,-82.506036,19,Port Tampa
36,1818,Sa,0,60.0,0.0,Dale Mabry Hwy @ San Juan St,27.918512,-82.506036,36,Dale Mabry - Himes Avenue
19,1819,Sa,0,60.0,0.0,Dale Mabry Hwy @ Obispo St,27.917004,-82.50607,19,Port Tampa
36,1819,Sa,0,60.0,0.0,Dale Mabry Hwy @ Obispo St,27.917004,-82.50607,36,Dale Mabry - Himes Avenue
19,1820,Sa,0,60.0,0.0,Dale Mabry Hwy @ San Luis St,27.915722,-82.50608,19,Port Tampa
36,1820,Sa,0,60.0,0.0,Dale Mabry Hwy @ San Luis St,27.915722,-82.50608,36,Dale Mabry - Himes Avenue
19,1821,Sa,0,60.0,0.0,Dale Mabry Hwy @ Corona St,27.914038,-82.506107,19,Port Tampa
36,1821,Sa,0,60.0,0.0,Dale Mabry Hwy @ Corona St,27.914038,-82.506107,36,Dale Mabry - Himes Avenue
19,1822,Sa,0,60.0,0.0,Dale Mabry Hwy @ El Prado Blvd,27.911767,-82.506163,19,Port Tampa
36,1822,Sa,0,60.0,0.0,Dale Mabry Hwy @ El Prado Blvd,27.911767,-82.506163,36,Dale Mabry - Himes Avenue
36,1823,Sa,0,60.0,0.0,Dale Mabry Hwy @ Cam St,27.903996,-82.506337,36,Dale Mabry - Himes Avenue
36,1824,Sa,0,60.0,0.0,Dale Mabry Hwy @ Fair Oaks Av,27.901873,-82.50632,36,Dale Mabry - Himes Avenue
36,1825,Sa,0,60.0,0.0,Dale Mabry Hwy @ Gandy Blvd,27.895119,-82.506401,36,Dale Mabry - Himes Avenue
36,1826,Sa,0,60.0,0.0,Dale Mabry Hwy @ Paxton Av,27.888117,-82.506511,36,Dale Mabry - Himes Avenue
36,1828,Sa,0,60.0,0.0,Dale Mabry Hwy @ Rogers Av,27.886963,-82.50653,36,Dale Mabry - Himes Avenue
36,1829,Sa,0,60.0,0.0,Dale Mabry Hwy @ Wallace Av,27.885502,-82.506551,36,Dale Mabry - Himes Avenue
36,1830,Sa,0,60.0,0.0,Dale Mabry Hwy @ Oklahoma Av,27.884108,-82.506566,36,Dale Mabry - Himes Avenue
36,1831,Sa,0,60.0,0.0,Dale Mabry Hwy @ Wisconsin Av,27.881738,-82.506663,36,Dale Mabry - Himes Avenue
36,1832,Sa,0,60.0,0.0,Dale Mabry Hwy @ Iowa Av,27.881122,-82.506662,36,Dale Mabry - Himes Avenue
36,1833,Sa,0,60.0,0.0,Dale Mabry Hwy @ Bay Av,27.879188,-82.506608,36,Dale Mabry - Himes Avenue
36,1835,Sa,0,60.0,0.0,Dale Mabry Hwy @ Mango Av,27.875198,-82.50653,36,Dale Mabry - Himes Avenue
36,1836,Sa,0,60.0,0.0,Dale Mabry Hwy @ Interbay Blvd,27.872833,-82.506514,36,Dale Mabry - Himes Avenue
30,1839,Sa,0,29.9,0.1,Kennedy Blvd @ Hyde Park Av,27.945778,-82.46349,30,Town 'N Country
30,1841,Sa,0,29.9,0.1,Kennedy Blvd @ Brevard Av,27.94473,-82.466349,30,Town 'N Country
30,1842,Sa,0,29.9,0.1,Kennedy Blvd @ N Boulevard,27.944707,-82.468349,30,Town 'N Country
30,1843,Sa,0,29.9,0.1,Kennedy Blvd @ Delaware Av,27.944704,-82.470041,30,Town 'N Country
30,1844,Sa,0,29.9,0.1,Kennedy Blvd @ Willow Av,27.944727,-82.472379,30,Town 'N Country
30,1845,Sa,0,29.9,0.1,Kennedy Blvd @ Oregon Av,27.94474,-82.474568,30,Town 'N Country
30,1846,Sa,0,29.9,0.1,Kennedy Blvd @ Rome Av,27.94476,-82.476655,30,Town 'N Country
30,1847,Sa,0,29.9,0.1,Kennedy Blvd @ Fremont Av,27.944775,-82.478777,30,Town 'N Country
30,1848,Sa,0,29.9,0.1,Kennedy Blvd @ Albany Av,27.944796,-82.480859,30,Town 'N Country
30,1849,Sa,0,29.9,0.1,Kennedy Blvd @ Howard Av,27.944812,-82.482788,30,Town 'N Country
30,1850,Sa,0,29.9,0.1,Kennedy Blvd @ Armenia Av,27.944838,-82.484879,30,Town 'N Country
30,1851,Sa,0,29.9,0.1,Kennedy Blvd @ Arrawana Av,27.944854,-82.487634,30,Town 'N Country
30,1852,Sa,0,29.9,0.1,Kennedy Blvd @ Habana Av,27.944854,-82.489015,30,Town 'N Country
30,1853,Sa,0,29.9,0.1,Kennedy Blvd @ Gomez Av,27.944859,-82.491029,30,Town 'N Country
30,1855,Sa,0,29.9,0.1,Kennedy Blvd @ MacDill Av,27.944872,-82.493906,30,Town 'N Country
30,1856,Sa,0,29.9,0.1,Kennedy Blvd @ Matanzas Av,27.944917,-82.495243,30,Town 'N Country
30,1857,Sa,0,29.9,0.1,Kennedy Blvd @ Lincoln Av,27.944883,-82.497304,30,Town 'N Country
30,1858,Sa,0,29.9,0.3,Kennedy Blvd @ Glen Av,27.944893,-82.499556,30,Town 'N Country
30,1859,Sa,0,29.9,0.1,Kennedy Blvd @ Himes Av,27.944896,-82.501384,30,Town 'N Country
30,1860,Sa,0,29.9,0.1,Kennedy Blvd @ Sterling Av,27.944898,-82.503265,30,Town 'N Country
30,1861,Sa,0,29.9,0.1,Kennedy Blvd @ Church Av,27.944964,-82.507614,30,Town 'N Country
30,1863,Sa,0,29.9,0.1,Kennedy Blvd @ Clark Av,27.944971,-82.511785,30,Town 'N Country
30,1864,Sa,0,29.9,0.1,Kennedy Blvd @ Lois Av,27.944978,-82.513749,30,Town 'N Country
30,1865,Sa,0,29.9,0.3,Kennedy Blvd @ Hubert Av,27.944986,-82.515885,30,Town 'N Country
30,1866,Sa,0,29.9,0.1,Kennedy Blvd @ Manhattan Av,27.944993,-82.51791,30,Town 'N Country
30,1867,Sa,0,29.9,0.3,Kennedy Blvd @ Hesperides St,27.944992,-82.519965,30,Town 'N Country
30,1868,Sa,0,29.9,0.3,Kennedy Blvd @ Trask St,27.945,-82.521818,30,Town 'N Country
30,1869,Sa,0,29.9,0.1,Kennedy Blvd @ Westshore Blvd,27.944987,-82.523947,30,Town 'N Country
30,1870,Sa,0,29.8,0.5,Kennedy Blvd @ Renellie Dr,27.944681,-82.523508,30,Town 'N Country
30,1871,Sa,0,29.9,0.4,Kennedy Blvd @ Trask St,27.944673,-82.522,30,Town 'N Country
30,1872,Sa,0,29.9,0.5,Kennedy Blvd @ Hesperides St,27.944675,-82.520299,30,Town 'N Country
30,1873,Sa,0,29.9,0.4,Kennedy Blvd @ Manhattan Av,27.944676,-82.518264,30,Town 'N Country
30,1874,Sa,0,29.9,0.5,Kennedy Blvd @ Hubert Av,27.944669,-82.516199,30,Town 'N Country
30,1875,Sa,0,29.8,0.5,Kennedy Blvd @ Lois Av,27.94467,-82.514306,30,Town 'N Country
30,1876,Sa,0,29.9,0.5,Kennedy Blvd @ Clark Av,27.944681,-82.512068,30,Town 'N Country
30,1878,Sa,0,29.9,0.5,Kennedy Blvd @ Church Av,27.944675,-82.507543,30,Town 'N Country
30,1879,Sa,0,29.8,0.6,Kennedy Blvd @ Sterling Av,27.944659,-82.503797,30,Town 'N Country
30,1880,Sa,0,29.9,0.5,Kennedy Blvd @ Himes Av,27.944651,-82.501763,30,Town 'N Country
30,1883,Sa,0,29.8,0.6,Kennedy Blvd @ Henderson Blvd,27.944645,-82.495678,30,Town 'N Country
30,1884,Sa,0,29.8,0.6,Kennedy Blvd @ MacDill Av,27.944674,-82.493441,30,Town 'N Country
30,1885,Sa,0,29.8,0.6,Kennedy Blvd @ Gomez Av,27.944675,-82.491396,30,Town 'N Country
30,1887,Sa,0,29.8,0.6,Kennedy Blvd @ Habana Av,27.944676,-82.489321,30,Town 'N Country
30,1888,Sa,0,29.8,0.6,Kennedy Blvd @ Arrawana Av,27.944668,-82.487387,30,Town 'N Country
30,1890,Sa,0,29.8,0.8,Kennedy Blvd @ Howard Av,27.944651,-82.483267,30,Town 'N Country
30,1891,Sa,0,29.8,0.6,Kennedy Blvd @ Albany Av,27.944625,-82.481029,30,Town 'N Country
30,1892,Sa,0,29.8,0.8,Kennedy Blvd @ Fremont Av,27.944608,-82.478934,30,Town 'N Country
30,1893,Sa,0,29.8,0.6,Kennedy Blvd @ Rome Av,27.944581,-82.476919,30,Town 'N Country
30,1894,Sa,0,29.8,0.6,Kennedy Blvd @ Oregon Av,27.944582,-82.474884,30,Town 'N Country
30,1895,Sa,0,29.8,0.8,Kennedy Blvd @ Willow Av,27.944555,-82.4729,30,Town 'N Country
30,1896,Sa,0,29.8,0.6,Kennedy Blvd @ Delaware Av,27.944529,-82.47043,30,Town 'N Country
30,1897,Sa,0,29.8,0.8,Kennedy Blvd @ S Boulevard,27.944512,-82.468031,30,Town 'N Country
30,1898,Sa,0,29.8,0.6,Kennedy Blvd @ Brevard Av,27.944494,-82.466785,30,Town 'N Country
30,1899,Sa,0,29.8,0.8,Kennedy Blvd @ Hyde Park Av,27.94531,-82.464164,30,Town 'N Country
30,1900,Sa,0,29.8,0.8,Kennedy Blvd @ Parker St,27.945989,-82.462281,30,Town 'N Country
19,1908,Sa,0,60.0,0.0,Swann Av @ Audubon Av,27.937446,-82.486989,19,Port Tampa
19,1909,Sa,0,60.0,0.0,Swann Av @ Habana Av,27.937453,-82.489067,19,Port Tampa
19,1910,Sa,0,60.0,0.0,Swann Av @ Gomez Av,27.93747,-82.491065,19,Port Tampa
19,1911,Sa,0,60.0,0.0,Swann Av @ MacDill Av,27.937516,-82.493089,19,Port Tampa
19,1912,Sa,0,60.0,0.0,Swann Av @ Matanzas Av,27.937502,-82.495237,19,Port Tampa
19,1913,Sa,0,60.0,0.0,Swann Av @ Lincoln Av,27.937509,-82.497385,19,Port Tampa
19,1914,Sa,0,60.0,0.0,Swann Av @ Glen Av,27.93756,-82.500435,19,Port Tampa
19,1915,Sa,0,60.0,0.0,Swann Av @ Henderson Blvd,27.937178,-82.502142,19,Port Tampa
19,1916,Sa,0,60.0,2.0,Swann Av @ Glen Av,27.937433,-82.499692,19,Port Tampa
19,1917,Sa,0,60.0,2.0,Swann Av @ Lincoln Av,27.937407,-82.497627,19,Port Tampa
19,1918,Sa,0,60.0,2.0,Swann Av @ Matanzas Av,27.93739,-82.49541,19,Port Tampa
19,1919,Sa,0,60.0,2.0,Swann Av @ MacDill Av,27.937382,-82.493629,19,Port Tampa
19,1922,Sa,0,60.0,2.0,Swann Av @ Audubon Av,27.937322,-82.48715,19,Port Tampa
19,1923,Sa,0,60.0,2.0,Swann Av @ Parkland Blvd,27.937323,-82.485561,19,Port Tampa
19,1924,Sa,0,60.0,2.0,Swann Av @ Moody Av,27.937287,-82.484174,19,Port Tampa
19,1954,Sa,0,60.0,0.4,Euclid Av @ Church Av,27.908739,-82.507898,19,Port Tampa
19,1955,Sa,0,60.0,1.3,Euclid Av @ Grady Av,27.90875,-82.510125,19,Port Tampa
19,1956,Sa,0,60.0,0.4,Euclid Av @ Clark Av,27.908768,-82.511587,19,Port Tampa
19,1957,Sa,0,60.0,1.3,Euclid Av @ Lois Av,27.908784,-82.514264,19,Port Tampa
19,1958,Sa,0,60.0,1.3,Euclid Av @ thatcher Av,27.908794,-82.515251,19,Port Tampa
19,1959,Sa,0,60.0,0.4,Euclid Av @ Coolidge Av,27.908834,-82.517472,19,Port Tampa
19,1960,Sa,0,,,Euclid Av @ Royal Palm Circle Es,27.908874,-82.51938,19,Port Tampa
19,1961,Sa,0,,,Euclid Av @ Royal Palm Cirle Ws,27.908838,-82.520982,19,Port Tampa
19,1962,Sa,0,,,Euclid Av @ Renellie Circle Es,27.908871,-82.523203,19,Port Tampa
19,1963,Sa,0,,,Euclid Av @ Renellie Circle Ws,27.908865,-82.52563,19,Port Tampa
19,1964,Sa,0,,,Euclid Av @ Westshore Blvd,27.908909,-82.526549,19,Port Tampa
19,1969,Sa,0,,,Euclid Av @ Manhattan Av,27.90867,-82.518342,19,Port Tampa
19,1972,Sa,0,60.0,2.0,Euclid Av @ Lois Av,27.908646,-82.514466,19,Port Tampa
19,1973,Sa,0,60.0,3.1,Euclid Av @ Clark Av,27.90862,-82.512412,19,Port Tampa
19,1974,Sa,0,60.0,2.0,Euclid Av @ Grady Av,27.908613,-82.510317,19,Port Tampa
19,1975,Sa,0,60.0,3.1,Euclid Av @ Church Av,27.908614,-82.508233,19,Port Tampa
19,1976,Sa,0,60.0,3.1,Euclid Av @ Dale Mabry Hwy,27.908588,-82.506785,19,Port Tampa
39,1987,Sa,0,30.0,0.0,56th St @ Hanna Av,28.003837,-82.393327,39,Busch Boulevard
6,1987,Sa,0,30.9,5.7,56th St @ Hanna Av,28.003837,-82.393327,6,56th Street
39,1991,Sa,0,30.0,0.0,56th St @ Sligh Av,28.011564,-82.393391,39,Busch Boulevard
39,1992,Sa,0,30.0,0.0,56th St @ Kenny Dr,28.01599,-82.39333,39,Busch Boulevard
39,1993,Sa,0,30.0,0.0,56th St @ Neal Dr,28.017885,-82.393286,39,Busch Boulevard
39,1994,Sa,0,30.0,0.0,56th St @ Puritan Rd,28.020663,-82.393196,39,Busch Boulevard
6,1994,Sa,0,30.9,5.7,56th St @ Puritan Rd,28.020663,-82.393196,6,56th Street
6,2000,Sa,0,30.9,5.7,56th St @ Temple Heights Rd,28.036392,-82.393319,6,56th Street
6,2001,Sa,0,30.9,5.7,56th St @ Mission Hills Av,28.039661,-82.393358,6,56th Street
6,2003,Sa,0,30.9,5.7,56th St @ Deer Park Av,28.042622,-82.393377,6,56th Street
6,2005,Sa,0,30.9,5.7,56th St @ Whiteway Dr,28.04753,-82.393466,6,56th Street
6,2006,Sa,0,30.9,5.7,56th St @ 113th Av @ City Hall,28.049894,-82.393464,6,56th Street
6,2012,Sa,0,30.9,5.7,56th St @ Whiteway Dr,28.04782,-82.393851,6,56th Street
6,2019,Sa,0,30.9,5.5,56th St @ Temple Heights Rd,28.03603,-82.393634,6,56th Street
39,2021,Sa,0,30.0,0.0,56th St @ Busch Blvd,28.032734,-82.393636,39,Busch Boulevard
6,2021,Sa,0,30.9,5.5,56th St @ Busch Blvd,28.032734,-82.393636,6,56th Street
39,2022,Sa,0,30.0,0.0,56th St @ Grove Hill Rd,28.029628,-82.393637,39,Busch Boulevard
6,2022,Sa,0,30.9,5.5,56th St @ Grove Hill Rd,28.029628,-82.393637,6,56th Street
39,2025,Sa,0,30.0,0.0,56th St @ Puritan Rd Ss,28.019833,-82.393493,39,Busch Boulevard
39,2026,Sa,0,30.0,0.0,56th St @ Kirby St,28.018169,-82.393526,39,Busch Boulevard
39,2028,Sa,0,30.0,0.0,56th St @ Sligh Av,28.011694,-82.393634,39,Busch Boulevard
39,2029,Sa,0,30.0,0.0,56th St @ Diana St,28.007159,-82.393636,39,Busch Boulevard
6,2029,Sa,0,30.8,5.4,56th St @ Diana St,28.007159,-82.393636,6,56th Street
39,2031,Sa,0,30.0,0.0,56th St @ Hanna Av,28.003771,-82.393629,39,Busch Boulevard
6,2031,Sa,0,30.8,5.4,56th St @ Hanna Av,28.003771,-82.393629,6,56th Street
39,2032,Sa,0,30.0,0.0,56th St @ Henry Av,28.000241,-82.393621,39,Busch Boulevard
6,2032,Sa,0,30.7,5.2,56th St @ Henry Av,28.000241,-82.393621,6,56th Street
45,2056,Sa,0,60.0,0.0,Cypress St @ Hubert Av,27.952322,-82.516226,45,UATC - Rome - Westshore Plaza
45,2057,Sa,0,60.0,0.0,Cypress St @ Manhattan Av,27.952339,-82.517856,45,UATC - Rome - Westshore Plaza
45,2058,Sa,0,60.0,0.0,Cypress St @ Trask St,27.952399,-82.521886,45,UATC - Rome - Westshore Plaza
45,2071,Sa,0,60.0,0.0,Cypress St @ Trask St,27.952145,-82.522351,45,UATC - Rome - Westshore Plaza
45,2073,Sa,0,60.0,0.0,Cypress St @ Manhattan Av,27.952103,-82.51817,45,UATC - Rome - Westshore Plaza
45,2074,Sa,0,60.0,0.0,Cypress St @ Hubert Av,27.952078,-82.516084,45,UATC - Rome - Westshore Plaza
19,2097,Sa,0,,,Manhattan Av @ Interbay Blvd,27.86632,-82.518515,19,Port Tampa
19,2100,Sa,0,,,Manhattan Av @ Rembrandt Dr,27.872598,-82.518561,19,Port Tampa
19,2101,Sa,0,,,Manhattan Av @ Mango Av,27.875669,-82.518554,19,Port Tampa
19,2102,Sa,0,,,Manhattan Av @ Bay Av,27.87913,-82.518527,19,Port Tampa
19,2103,Sa,0,,,Manhattan Av @ Iowa Av,27.880783,-82.518454,19,Port Tampa
19,2104,Sa,0,,,Manhattan Av @ Coolidge Av,27.88272,-82.518432,19,Port Tampa
19,2105,Sa,0,,,Manhattan Av @ Oklahoma Av,27.883735,-82.51843,19,Port Tampa
19,2106,Sa,0,,,Manhattan Av @ Wallace Circle,27.885136,-82.51832,19,Port Tampa
19,2107,Sa,0,,,Manhattan Av @ Pearl Av,27.88746,-82.51839,19,Port Tampa
19,2112,Sa,0,,,Manhattan Av @ Gandy Blvd,27.89451,-82.518384,19,Port Tampa
19,2113,Sa,0,,,Manhattan Av @ Aegean Dr,27.89694,-82.518311,19,Port Tampa
19,2115,Sa,0,,,Manhattan Av @ La Villa Lane,27.898443,-82.518332,19,Port Tampa
19,2118,Sa,0,,,Manhattan Av @ Bay View Av,27.904929,-82.518348,19,Port Tampa
19,2119,Sa,0,,,Manhattan Av @ Bay  Vista Av,27.907022,-82.517986,19,Port Tampa
7,2135,Sa,0,60.0,0.0,Manhattan Av @ Lambright St,28.007277,-82.517451,7,West Tampa - Citrus Park
7,2137,Sa,0,60.0,0.0,Manhattan Av @ Hanna Av,28.003918,-82.517468,7,West Tampa - Citrus Park
19,2147,Sa,0,,,Manhattan Av @ Wallcraft Av,27.903394,-82.51847,19,Port Tampa
19,2149,Sa,0,,,Manhattan Av @ Fair Oaks Av,27.900047,-82.518516,19,Port Tampa
19,2156,Sa,0,,,Manhattan Av @ Paul Av,27.891507,-82.518423,19,Port Tampa
19,2157,Sa,0,,,Manhattan Av @ Ballast Point Blvd,27.889726,-82.518437,19,Port Tampa
19,2158,Sa,0,,,Manhattan Av @ Pearl Av,27.887763,-82.518515,19,Port Tampa
19,2159,Sa,0,,,Manhattan Av @ Wallace Av,27.885335,-82.518502,19,Port Tampa
19,2160,Sa,0,,,Manhattan Av @ Oklahoma Av,27.883985,-82.518531,19,Port Tampa
19,2161,Sa,0,,,Manhattan Av @ Wyoming Av,27.882563,-82.51853,19,Port Tampa
19,2162,Sa,0,,,Manhattan Av @ Iowa Av,27.881123,-82.518569,19,Port Tampa
19,2165,Sa,0,,,Manhattan Av @ Varn Av,27.872557,-82.518707,19,Port Tampa
19,2166,Sa,0,,,Manhattan Av @ McCoy St,27.869828,-82.518635,19,Port Tampa
19,2167,Sa,0,,,Manhattan Av @ Lancaster St,27.868572,-82.518643,19,Port Tampa
19,2168,Sa,0,,,Manhattan Av @ Interbay Blvd,27.866125,-82.518669,19,Port Tampa
19,2264,Sa,0,,,Interbay Blvd @ 8015,27.86595,-82.52012,19,Port Tampa
19,2265,Sa,0,,,Interbay Blvd @ Trask St,27.865974,-82.522439,19,Port Tampa
19,2266,Sa,0,,,Interbay Blvd @ Sparkman Av,27.865975,-82.524449,19,Port Tampa
19,2267,Sa,0,,,Interbay Blvd @ Westshore Blvd,27.86601,-82.526837,19,Port Tampa
19,2268,Sa,0,,,Interbay Blvd @ Fitzgerald St,27.865861,-82.526333,19,Port Tampa
19,2269,Sa,0,,,Interbay Blvd @ Sparkman St,27.865853,-82.524654,19,Port Tampa
19,2270,Sa,0,,,Interbay Blvd @ Trask St,27.865836,-82.522732,19,Port Tampa
19,2272,Sa,0,60.0,0.9,Idaho St @ Kissimmee St,27.859648,-82.528483,19,Port Tampa
19,2274,Sa,0,60.0,1.0,Idaho St @ Sherrill St,27.859661,-82.53095,19,Port Tampa
19,2276,Sa,0,59.0,1.0,Idaho St @ O'Brien St,27.859676,-82.532537,19,Port Tampa
19,2279,Sa,0,60.0,2.0,Henderson Blvd @ Sterling Av,27.935511,-82.50377,19,Port Tampa
19,2281,Sa,0,60.0,0.0,Henderson Blvd @ Sterling Av,27.936,-82.503477,19,Port Tampa
12,2283,Sa,0,31.0,5.7,Henderson Av @ Nebraska Av,27.959653,-82.450978,12,22nd Street
18,2289,Sa,0,60.0,0.0,Henderson Av @ Florida Av,27.95944,-82.459611,18,30th Street
5,2289,Sa,0,60.0,0.0,Henderson Av @ Florida Av,27.95944,-82.459611,5,40th Street
19,2297,Sa,0,60.0,2.0,Platt St @ Westland Av,27.941808,-82.48205,19,Port Tampa
19,2300,Sa,0,60.0,2.0,Platt St @ Packwood Av,27.941755,-82.477697,19,Port Tampa
19,2301,Sa,0,60.0,2.0,Platt St @ Dakota Av,27.941719,-82.475905,19,Port Tampa
19,2302,Sa,0,60.0,2.0,Platt St @ Willow Av,27.941748,-82.472233,19,Port Tampa
19,2303,Sa,0,60.0,2.0,Platt St @ Delaware Av,27.94173,-82.470785,19,Port Tampa
19,2304,Sa,0,60.0,2.0,Platt St @ S Boulevard,27.941631,-82.468718,19,Port Tampa
19,2305,Sa,0,60.0,2.0,Platt St @ Magnolia Av,27.941596,-82.465995,19,Port Tampa
19,2306,Sa,0,60.0,2.0,Platt St @ Hyde Park Av,27.941596,-82.464162,19,Port Tampa
19,2307,Sa,0,60.0,2.0,Platt St @ Plant Av,27.941551,-82.462695,19,Port Tampa
19,2308,Sa,0,60.0,2.0,Platt St @ Parker St,27.94156,-82.461308,19,Port Tampa
8,2316,Sa,0,60.0,0.0,7th Av @ 47th St,27.960947,-82.405752,8,Progress Village- Brandon
8,2318,Sa,0,60.0,0.0,7th Av @ 43Rd St,27.960264,-82.409884,8,Progress Village- Brandon
8,2321,Sa,0,60.0,0.0,7th Av @ 39th St,27.960251,-82.415403,8,Progress Village- Brandon
8,2326,Sa,0,60.0,0.0,7th Av @ 31St St,27.960282,-82.425179,8,Progress Village- Brandon
8,2327,Sa,0,60.0,0.0,7th Av @ 27th St,27.960275,-82.429212,8,Progress Village- Brandon
8,2330,Sa,0,60.0,0.0,7th Av @ 24th St,27.960293,-82.43209,8,Progress Village- Brandon
12,2332,Sa,0,31.0,5.7,7th Av @ 10th St,27.960338,-82.448414,12,22nd Street
12,2333,Sa,0,32.1,7.8,7th Av @ Scott St,27.960184,-82.448372,12,22nd Street
8,2336,Sa,0,60.0,0.0,7th Av @ 24th St,27.96013,-82.432101,8,Progress Village- Brandon
8,2338,Sa,0,60.0,0.0,7th Av @ 31St St,27.96013,-82.425408,8,Progress Village- Brandon
8,2341,Sa,0,60.0,0.0,7th Av @ 34th St,27.96012,-82.422623,8,Progress Village- Brandon
8,2343,Sa,0,60.0,0.0,7th Av @ 36th St,27.960111,-82.419646,8,Progress Village- Brandon
8,2345,Sa,0,60.0,0.0,7th Av @ 39th St,27.960101,-82.415849,8,Progress Village- Brandon
8,2347,Sa,0,60.0,0.0,7th Av @ 43Rd St,27.960108,-82.41025,8,Progress Village- Brandon
8,2349,Sa,0,60.0,0.0,7th Av @ 50th St,27.961519,-82.402766,8,Progress Village- Brandon
15,2367,Sa,0,60.0,0.0,18th Av @ 32nd St,27.96829,-82.424151,15,Columbus Drive
5,2367,Sa,0,60.0,0.0,18th Av @ 32nd St,27.96829,-82.424151,5,40th Street
15,2368,Sa,0,60.0,0.0,18th Av @ 31St St,27.968273,-82.425936,15,Columbus Drive
5,2368,Sa,0,60.0,0.0,18th Av @ 31St St,27.968273,-82.425936,5,40th Street
12,2369,Sa,0,31.0,5.7,21St St @ Mallory Av,27.970226,-82.435548,12,22nd Street
12,2370,Sa,0,31.0,5.7,21St St @ 19th Av,27.96886,-82.435544,12,22nd Street
12,2371,Sa,0,31.0,5.7,21St St @ 17th Av,27.967633,-82.435541,12,22nd Street
12,2372,Sa,0,31.0,5.7,21St St @ Columbus Dr,27.966851,-82.435604,12,22nd Street
5,2372,Sa,0,60.0,0.0,21St St @ Columbus Dr,27.966851,-82.435604,5,40th Street
6,2382,Sa,0,30.6,5.3,21St Av @ 43Rd St,27.970455,-82.410341,6,56th Street
6,2384,Sa,0,29.6,2.2,21St Av @ 40th St,27.970489,-82.41375,6,56th Street
6,2386,Sa,0,29.6,2.2,21St Av @ 38th St,27.970452,-82.417206,6,56th Street
6,2387,Sa,0,29.6,2.2,21St Av @ 35th St,27.970485,-82.420439,6,56th Street
6,2388,Sa,0,29.6,1.9,21St Av @ 34th St,27.970499,-82.422134,6,56th Street
6,2391,Sa,0,29.6,2.2,21St Av @ 29th St,27.970481,-82.42798,6,56th Street
18,2392,Sa,0,60.0,0.0,21St Av @ 26th St,27.970491,-82.43052,18,30th Street
6,2392,Sa,0,29.6,2.2,21St Av @ 26th St,27.970491,-82.43052,6,56th Street
18,2394,Sa,0,60.0,0.0,21St Av @ 22nd St,27.970506,-82.434633,18,30th Street
6,2394,Sa,0,29.6,2.2,21St Av @ 22nd St,27.970506,-82.434633,6,56th Street
18,2397,Sa,0,60.0,0.0,21St Av @ 19th St,27.970524,-82.437769,18,30th Street
6,2397,Sa,0,29.6,2.2,21St Av @ 19th St,27.970524,-82.437769,6,56th Street
18,2398,Sa,0,60.0,0.0,21St Av @ 17th St,27.970533,-82.439923,18,30th Street
6,2398,Sa,0,29.6,2.2,21St Av @ 17th St,27.970533,-82.439923,6,56th Street
18,2400,Sa,0,60.0,0.0,21St Av @ 15th St,27.970546,-82.442753,18,30th Street
6,2400,Sa,0,29.6,2.2,21St Av @ 15th St,27.970546,-82.442753,6,56th Street
6,2406,Sa,0,31.0,5.6,21St Av @ 11th St,27.970446,-82.448009,6,56th Street
6,2407,Sa,0,31.0,5.6,21St Av @ 13th St,27.970437,-82.44569,6,56th Street
6,2409,Sa,0,31.0,5.6,21St Av @ 15th St,27.970374,-82.443178,6,56th Street
18,2411,Sa,0,60.0,0.0,21St Av @ 17th St,27.970383,-82.44008,18,30th Street
6,2411,Sa,0,31.0,5.6,21St Av @ 17th St,27.970383,-82.44008,6,56th Street
18,2412,Sa,0,60.0,0.0,21St Av @ 19th St,27.970383,-82.437639,18,30th Street
6,2412,Sa,0,31.0,5.6,21St Av @ 19th St,27.970383,-82.437639,6,56th Street
18,2414,Sa,0,60.0,0.0,21St Av @ 22nd St,27.970383,-82.435158,18,30th Street
6,2414,Sa,0,31.0,5.6,21St Av @ 22nd St,27.970383,-82.435158,6,56th Street
18,2417,Sa,0,60.0,0.0,21St Av @ 29th St,27.970346,-82.428231,18,30th Street
6,2417,Sa,0,31.0,5.6,21St Av @ 29th St,27.970346,-82.428231,6,56th Street
6,2418,Sa,0,31.0,5.6,21St Av @ 32nd St,27.970337,-82.42412,6,56th Street
6,2420,Sa,0,31.0,5.6,21St Av @ 34th St,27.970345,-82.42255,6,56th Street
6,2422,Sa,0,31.0,5.6,21St Av @ 40th St,27.970317,-82.414793,6,56th Street
15,2465,Sa,0,60.0,0.0,Broadway Av @ Locicero Dr,27.966824,-82.378119,15,Columbus Drive
15,2466,Sa,0,60.0,0.0,Broadway Av @ 68th St,27.966839,-82.379589,15,Columbus Drive
15,2468,Sa,0,60.0,0.0,Broadway Av @ 62nd St,27.966254,-82.384122,15,Columbus Drive
15,2471,Sa,0,60.0,0.0,Broadway Av @ 59th St,27.965256,-82.388161,15,Columbus Drive
15,2472,Sa,0,60.0,0.0,Broadway Av @ 58th St,27.964858,-82.389772,15,Columbus Drive
15,2478,Sa,0,60.0,0.0,Broadway Av @ 51St St,27.962414,-82.399161,15,Columbus Drive
15,2479,Sa,0,60.0,0.0,Broadway Av @ 52nd St,27.962668,-82.398108,15,Columbus Drive
15,2481,Sa,0,60.0,0.0,Broadway Av @ 53Rd St,27.963228,-82.39586,15,Columbus Drive
15,2484,Sa,0,60.0,0.0,Broadway Av @ 59th St,27.965073,-82.388396,15,Columbus Drive
15,2486,Sa,0,60.0,0.0,Broadway Av @ 61St St,27.965516,-82.386583,15,Columbus Drive
15,2487,Sa,0,60.0,0.0,Broadway Av @ 64th St,27.966392,-82.382998,15,Columbus Drive
15,2492,Sa,0,60.0,0.0,Broadway Av @ 73Rd St,27.966704,-82.374056,15,Columbus Drive
45,2502,Sa,0,60.0,0.0,Lois Av @ Grace St,27.952739,-82.513808,45,UATC - Rome - Westshore Plaza
45,2503,Sa,0,60.0,0.0,Lois Av @ Arch St,27.95425,-82.513806,45,UATC - Rome - Westshore Plaza
45,2504,Sa,0,60.0,0.0,Lois Av @ Laurel St,27.955639,-82.513802,45,UATC - Rome - Westshore Plaza
45,2506,Sa,0,60.0,0.0,Lois Av @ Spruce St,27.95924,-82.513738,45,UATC - Rome - Westshore Plaza
7,2508,Sa,0,60.0,0.0,Lois Av @ Cayuga St,27.986342,-82.513461,7,West Tampa - Citrus Park
7,2509,Sa,0,60.0,0.0,Lois Av @ Osborne Av,27.988791,-82.513509,7,West Tampa - Citrus Park
7,2510,Sa,0,60.0,0.0,Lois Av @ South St,27.991378,-82.513425,7,West Tampa - Citrus Park
7,2511,Sa,0,60.0,0.0,Lois Av @ Crest Av,27.993723,-82.513387,7,West Tampa - Citrus Park
7,2512,Sa,0,60.0,0.0,Lois Av @ Crest Av,27.994176,-82.51358,7,West Tampa - Citrus Park
7,2513,Sa,0,60.0,0.0,Lois Av @ South St,27.991649,-82.513598,7,West Tampa - Citrus Park
7,2514,Sa,0,60.0,0.0,Lois Av @ Osborne Av,27.989213,-82.513616,7,West Tampa - Citrus Park
7,2515,Sa,0,60.0,0.0,Lois Av @ Cayuga St,27.986614,-82.513634,7,West Tampa - Citrus Park
7,2516,Sa,0,60.0,0.0,Lois Av @ Alva St,27.984594,-82.513662,7,West Tampa - Citrus Park
7,2517,Sa,0,60.0,0.0,Lois Av @ M L King Jr Blvd,27.981871,-82.513661,7,West Tampa - Citrus Park
7,2519,Sa,0,60.0,0.0,Lois Av @ Kentucky Av,27.97858,-82.513738,7,West Tampa - Citrus Park
7,2520,Sa,0,60.0,0.0,Lois Av @ Woodlawn Av,27.975927,-82.513776,7,West Tampa - Citrus Park
45,2522,Sa,0,60.0,0.0,Lois Av @ Spruce St,27.959034,-82.513899,45,UATC - Rome - Westshore Plaza
45,2523,Sa,0,60.0,0.0,Lois Av @ Union St,27.958422,-82.513914,45,UATC - Rome - Westshore Plaza
45,2524,Sa,0,60.0,0.0,Lois Av @ Laurel St,27.956033,-82.513907,45,UATC - Rome - Westshore Plaza
45,2525,Sa,0,60.0,0.0,Lois Av @ Arch St,27.954511,-82.513916,45,UATC - Rome - Westshore Plaza
45,2526,Sa,0,60.0,0.0,Lois Av @ Cypress St,27.952441,-82.513964,45,UATC - Rome - Westshore Plaza
8,2546,Sa,0,60.0,0.0,79th St @ 78th St,27.902299,-82.368227,8,Progress Village- Brandon
8,2547,Sa,0,29.7,8.1,82nd St @ Dahlia Av,27.896328,-82.365247,8,Progress Village- Brandon
8,2553,Sa,0,60.0,0.0,83Rd St @ Ash St,27.899579,-82.364586,8,Progress Village- Brandon
8,2559,Sa,0,60.0,0.0,83Rd St @ Progress Blvd,27.899407,-82.364789,8,Progress Village- Brandon
18,2600,Sa,0,60.0,0.0,Chelsea St @ 29th St,27.985154,-82.427875,18,30th Street
18,2601,Sa,0,60.0,0.0,Chelsea St @ 30th St,27.984991,-82.426649,18,30th Street
8,2602,Sa,0,60.0,0.0,Fir Dr @ 79th St,27.902481,-82.368297,8,Progress Village- Brandon
8,2604,Sa,0,60.0,0.0,Fir Dr @ 81St St,27.90257,-82.366709,8,Progress Village- Brandon
8,2605,Sa,0,60.0,0.0,Fir Dr @ 83Rd St,27.903529,-82.364876,8,Progress Village- Brandon
8,2619,Sa,0,60.0,0.0,50th St @ Acline St,27.954328,-82.401663,8,Progress Village- Brandon
8,2621,Sa,0,60.0,0.0,50th St @ Uceta Rd,27.958217,-82.401665,8,Progress Village- Brandon
6,2625,Sa,0,30.9,5.7,50th St @ Sligh Av,28.011004,-82.401844,6,56th Street
39,2629,Sa,0,30.0,0.0,50th St @ Busch Blvd,28.033552,-82.40157,39,Busch Boulevard
39,2630,Sa,0,30.0,0.0,50th St @ Temple Heights Rd,28.036079,-82.401549,39,Busch Boulevard
6,2634,Sa,0,30.8,5.5,50th St @ Puritan Rd,28.020023,-82.401961,6,56th Street
6,2635,Sa,0,30.8,5.3,50th St @ Porpoise Dr,28.017533,-82.402033,6,56th Street
6,2636,Sa,0,30.8,5.4,50th St @ Dolphin Dr,28.013766,-82.402025,6,56th Street
6,2637,Sa,0,30.8,5.4,50th St @ Sligh Av,28.010823,-82.402026,6,56th Street
8,2640,Sa,0,60.0,0.0,50th St @ Acline St,27.954626,-82.401959,8,Progress Village- Brandon
8,2642,Sa,0,60.0,0.0,50th St @ Adamo Dr,27.952511,-82.401861,8,Progress Village- Brandon
37,2668,Sa,0,60.0,0.0,Oakfield Dr @ Noland Dr,27.932954,-82.290695,37,Brandon - Netpark
15,2677,Sa,0,60.0,0.0,Orient Rd @ 21St Av,27.970362,-82.372929,15,Columbus Drive
15,2678,Sa,0,60.0,0.0,Orient Rd @ Rhode Island Dr,27.97279,-82.372948,15,Columbus Drive
15,2679,Sa,0,60.0,0.0,Orient Rd @ M L King Jr Blvd,27.981103,-82.372949,15,Columbus Drive
15,2682,Sa,0,60.0,0.0,Orient Rd @ King Alfred Dr,27.98316,-82.372899,15,Columbus Drive
32,2682,Sa,0,60.0,0.0,Orient Rd @ King Alfred Dr,27.98316,-82.372899,32,Dr Martin Luther King Jr Blvd
15,2683,Sa,0,60.0,0.0,Orient Rd @ Chelsea St,27.985062,-82.372979,15,Columbus Drive
32,2683,Sa,0,60.0,0.0,Orient Rd @ Chelsea St,27.985062,-82.372979,32,Dr Martin Luther King Jr Blvd
15,2688,Sa,0,60.0,0.0,Orient @ Draper  @ Seminole Complex,27.992359,-82.373193,15,Columbus Drive
32,2688,Sa,0,60.0,0.0,Orient @ Draper  @ Seminole Complex,27.992359,-82.373193,32,Dr Martin Luther King Jr Blvd
15,2689,Sa,0,60.0,0.0,Orient Rd @ Cayuga St @ Fairgrounds,27.987561,-82.3732,15,Columbus Drive
32,2689,Sa,0,60.0,0.0,Orient Rd @ Cayuga St @ Fairgrounds,27.987561,-82.3732,32,Dr Martin Luther King Jr Blvd
15,2690,Sa,0,60.0,0.0,Orient Rd @ Chelsea St,27.985342,-82.373161,15,Columbus Drive
32,2690,Sa,0,60.0,0.0,Orient Rd @ Chelsea St,27.985342,-82.373161,32,Dr Martin Luther King Jr Blvd
15,2691,Sa,0,60.0,0.0,Orient Rd @ M L King Jr Blvd,27.98172,-82.373235,15,Columbus Drive
15,2692,Sa,0,60.0,0.0,Orient Rd @ Delano Av,27.977853,-82.373157,15,Columbus Drive
15,2693,Sa,0,60.0,0.0,Orient Rd @ Waycross Av,27.975978,-82.373148,15,Columbus Drive
15,2694,Sa,0,60.0,0.0,Orient Rd @ Westinghouse Av,27.974366,-82.373129,15,Columbus Drive
15,2695,Sa,0,60.0,0.0,Orient Rd @ Rhode Island Dr,27.972826,-82.37313,15,Columbus Drive
15,2696,Sa,0,60.0,0.0,Orient Rd @ 21St Av,27.970535,-82.373122,15,Columbus Drive
15,2698,Sa,0,30.2,7.1,Orient Rd @ Broadway Av Ss,27.966405,-82.373105,15,Columbus Drive
15,2700,Sa,0,30.2,7.1,Orient Rd @ 9th Av,27.962537,-82.373087,15,Columbus Drive
5,2705,Sa,0,60.0,0.0,Osborne Av @ 39th St,27.988831,-82.416109,5,40th Street
5,2706,Sa,0,60.0,0.0,Osborne Av @ 37th St,27.988875,-82.418181,5,40th Street
5,2709,Sa,0,60.0,0.0,Osborne Av @ Webster St,27.988694,-82.421149,5,40th Street
5,2710,Sa,0,60.0,0.0,Osborne Av @ Troy St,27.988694,-82.419741,5,40th Street
5,2711,Sa,0,60.0,0.0,Osborne Av @ 37th St,27.988712,-82.41813,5,40th Street
5,2712,Sa,0,60.0,0.0,Osborne Av @ 39th St,27.988711,-82.416439,5,40th Street
8,2713,Sa,0,60.0,0.0,Palm River Rd @ 78th St,27.941135,-82.369504,8,Progress Village- Brandon
8,2718,Sa,0,60.0,0.0,Palm River Rd @ 68th St,27.94115,-82.379072,8,Progress Village- Brandon
8,2724,Sa,0,60.0,0.0,Palm River Rd @ 56th St,27.942921,-82.395303,8,Progress Village- Brandon
8,2730,Sa,0,60.0,0.0,Palm River Rd @ Coconut Dr,27.941028,-82.375777,8,Progress Village- Brandon
8,2732,Sa,0,60.0,0.0,Palm River Rd @ 76th St,27.941035,-82.372962,8,Progress Village- Brandon
8,2733,Sa,0,60.0,0.0,Palm River Rd @ 78th St,27.940933,-82.369014,8,Progress Village- Brandon
12,2734,Sa,0,31.0,5.7,Palm Av @ 20th St,27.962525,-82.436498,12,22nd Street
5,2734,Sa,0,60.0,0.0,Palm Av @ 20th St,27.962525,-82.436498,5,40th Street
12,2736,Sa,0,31.0,5.7,Palm Av @ 17th St,27.962463,-82.440297,12,22nd Street
5,2736,Sa,0,60.0,0.0,Palm Av @ 17th St,27.962463,-82.440297,5,40th Street
12,2737,Sa,0,31.0,5.7,Palm Av @ 15th St,27.962541,-82.442215,12,22nd Street
5,2737,Sa,0,60.0,0.0,Palm Av @ 15th St,27.962541,-82.442215,5,40th Street
12,2738,Sa,0,31.0,5.7,Palm Av @  Republica De Cuba,27.962549,-82.443994,12,22nd Street
5,2738,Sa,0,60.0,0.0,Palm Av @  Republica De Cuba,27.962549,-82.443994,5,40th Street
18,2740,Sa,0,60.0,0.0,Palm Av @ Central Av,27.962311,-82.455231,18,30th Street
5,2740,Sa,0,60.0,0.0,Palm Av @ Central Av,27.962311,-82.455231,5,40th Street
18,2741,Sa,0,60.0,0.0,Palm Av @ Morgan St,27.962313,-82.457902,18,30th Street
5,2741,Sa,0,60.0,0.0,Palm Av @ Morgan St,27.962313,-82.457902,5,40th Street
18,2742,Sa,0,60.0,0.0,Palm Av @ Florida Av,27.96232,-82.459282,18,30th Street
5,2742,Sa,0,60.0,0.0,Palm Av @ Florida Av,27.96232,-82.459282,5,40th Street
18,2743,Sa,0,60.0,0.0,Palm Av @ Morgan St,27.962167,-82.458184,18,30th Street
5,2743,Sa,0,60.0,0.0,Palm Av @ Morgan St,27.962167,-82.458184,5,40th Street
18,2744,Sa,0,60.0,0.0,Palm Av @ Central Av,27.962149,-82.45543,18,30th Street
5,2744,Sa,0,60.0,0.0,Palm Av @ Central Av,27.962149,-82.45543,5,40th Street
18,2745,Sa,0,60.0,0.0,Palm Av @ Mitchell Av,27.962177,-82.452099,18,30th Street
5,2745,Sa,0,60.0,0.0,Palm Av @ Mitchell Av,27.962177,-82.452099,5,40th Street
12,2747,Sa,0,32.1,7.8,Palm Av @ 15th St,27.962304,-82.44336,12,22nd Street
5,2747,Sa,0,60.0,0.0,Palm Av @ 15th St,27.962304,-82.44336,5,40th Street
12,2748,Sa,0,32.1,7.8,Palm Av @ 17th St,27.96225,-82.440636,12,22nd Street
5,2748,Sa,0,60.0,0.0,Palm Av @ 17th St,27.96225,-82.440636,5,40th Street
12,2750,Sa,0,32.1,7.8,Palm Av @ 20th St,27.962277,-82.436404,12,22nd Street
5,2750,Sa,0,60.0,0.0,Palm Av @ 20th St,27.962277,-82.436404,5,40th Street
8,2757,Sa,0,60.0,0.0,Progress Blvd @ Us Hwy  301 F/S,27.893901,-82.340398,8,Progress Village- Brandon
8,2759,Sa,0,60.0,0.0,Progress Blvd @ 85th St,27.899257,-82.362922,8,Progress Village- Brandon
8,2775,Sa,0,60.0,0.0,Providence Rd @ Providence Park,27.895777,-82.318422,8,Progress Village- Brandon
8,2778,Sa,0,60.0,0.0,Providence Rd @ Providence Ridge Bl,27.907934,-82.318425,8,Progress Village- Brandon
8,2779,Sa,0,60.0,0.0,Providence Rd @ Providence Lakes Bl,27.910597,-82.318441,8,Progress Village- Brandon
8,2785,Sa,0,60.0,0.0,Providence Rd @ Providence Ridge Bl,27.907135,-82.318831,8,Progress Village- Brandon
37,2811,Sa,0,60.0,0.2,Sr 60 @ Lakeside Dr,27.937513,-82.299524,37,Brandon - Netpark
37,2813,Sa,0,60.0,0.2,Brandon Blvd @ Hilltop Rd,27.937902,-82.305977,37,Brandon - Netpark
37,2817,Sa,0,60.0,0.2,Sr 60 @ Grand Regency Blvd,27.939044,-82.322309,37,Brandon - Netpark
37,2832,Sa,0,60.0,0.2,Sr 60 @ Providence Rd,27.937498,-82.313835,37,Brandon - Netpark
37,2833,Sa,0,60.0,0.2,Sr 60 @ Lakewood Dr,27.937482,-82.311226,37,Brandon - Netpark
37,2836,Sa,0,60.0,0.2,Sr 60 @ Limona Rd,27.937519,-82.30409,37,Brandon - Netpark
37,2837,Sa,0,60.0,0.0,Sr 60 @ Pauls Dr,27.937516,-82.302308,37,Brandon - Netpark
37,2839,Sa,0,60.0,0.2,Sr 60 @ Buckingham Place,27.937491,-82.296487,37,Brandon - Netpark
8,2857,Sa,0,29.7,8.1,Flowers Av @ 79th St,27.894898,-82.367595,8,Progress Village- Brandon
12,2940,Sa,0,32.1,7.8,Nuccio Pkwy @ 7th Av,27.960565,-82.446509,12,22nd Street
9,2940,Sa,0,60.0,0.0,Nuccio Pkwy @ 7th Av,27.960565,-82.446509,9,15th Street
12,2941,Sa,0,32.1,7.8,Nuccio Pkwy @ Palm Av,27.96224,-82.44654,12,22nd Street
9,2941,Sa,0,60.0,0.0,Nuccio Pkwy @ Palm Av,27.96224,-82.44654,9,15th Street
8,2943,Sa,0,60.0,0.0,Nuccio Pkwy @ 7th Av Ss,27.959723,-82.446934,8,Progress Village- Brandon
9,2943,Sa,0,60.0,0.0,Nuccio Pkwy @ 7th Av Ss,27.959723,-82.446934,9,15th Street
12,2944,Sa,0,31.0,5.7,Nuccio Pkwy @ 7th Av Ns,27.960438,-82.446843,12,22nd Street
9,2944,Sa,0,60.0,0.0,Nuccio Pkwy @ 7th Av Ns,27.960438,-82.446843,9,15th Street
9,2946,Sa,0,60.0,0.0,Nuccio Pkwy @ Scott Dr,27.956888,-82.447845,9,15th Street
9,2947,Sa,0,60.0,0.0,Nuccio Pkwy @ Nebraska Av,27.95399,-82.450651,9,15th Street
9,2950,Sa,0,60.0,0.0,Nuccio Pkwy @ Nebraska Av,27.953391,-82.450862,9,15th Street
8,2954,Sa,0,60.0,0.0,Nuccio Pkwy @ 7th Av,27.959949,-82.446539,8,Progress Village- Brandon
12,2955,Sa,0,32.0,7.9,20th St @ Waters Av,28.02569,-82.436615,12,22nd Street
12,2956,Sa,0,32.0,7.9,20th St @ Fairbanks St,28.026758,-82.436615,12,22nd Street
12,2957,Sa,0,32.0,7.9,20th St @ Seward St,28.02818,-82.436625,12,22nd Street
12,2958,Sa,0,32.0,7.9,20th St @ Eskimo Av,28.029538,-82.436625,12,22nd Street
12,2959,Sa,0,32.0,7.5,20th St @ Eskimo Av,28.029719,-82.436807,12,22nd Street
12,2960,Sa,0,31.9,7.3,20th St @ Seward St,28.028379,-82.436807,12,22nd Street
12,2961,Sa,0,32.0,7.5,20th St @ Fairbanks St,28.027012,-82.436807,12,22nd Street
12,2962,Sa,0,32.0,7.5,20th St @ Waters Av,28.025527,-82.436807,12,22nd Street
5,2972,Sa,0,60.0,0.0,34th St @ 18th Av,27.968113,-82.422307,5,40th Street
5,2973,Sa,0,60.0,0.0,34th St @ 21St Av,27.969521,-82.422267,5,40th Street
5,2974,Sa,0,60.0,0.0,34th St @ 22nd Av,27.971559,-82.422266,5,40th Street
5,2975,Sa,0,60.0,0.0,34th St @ 24th Av,27.972505,-82.422339,5,40th Street
5,2976,Sa,0,60.0,0.0,34th St @ 26th Av,27.973992,-82.422354,5,40th Street
5,2977,Sa,0,60.0,0.0,34th St @ 28th Av,27.975834,-82.422296,5,40th Street
5,2978,Sa,0,60.0,0.0,34th St @ Lake Av,27.977617,-82.422363,5,40th Street
5,2979,Sa,0,60.0,0.0,34th St @ 32nd Av,27.979163,-82.422381,5,40th Street
5,2980,Sa,0,60.0,0.0,34th St @ Lindell Av,27.979982,-82.422315,5,40th Street
5,2981,Sa,0,60.0,0.0,34th St @ North Bay St,27.982898,-82.422315,5,40th Street
5,2982,Sa,0,60.0,0.0,34th St @ Genessee St,27.984519,-82.422325,5,40th Street
5,2983,Sa,0,60.0,0.0,34th St @ Emma St,27.985925,-82.422405,5,40th Street
5,2984,Sa,0,60.0,0.0,34th St @ Osborne Av,27.988629,-82.422381,5,40th Street
5,2985,Sa,0,60.0,0.0,34th St @ Lila St,27.988223,-82.422537,5,40th Street
5,2986,Sa,0,60.0,0.0,34th St @ Emma St,27.985869,-82.422517,5,40th Street
5,2987,Sa,0,60.0,0.0,34th St @ Genessee St,27.984519,-82.422507,5,40th Street
5,2988,Sa,0,60.0,0.0,34th St @ North Bay St,27.983143,-82.422497,5,40th Street
5,2989,Sa,0,60.0,0.0,34th St @  M L King Jr Blvd,27.98125,-82.422487,5,40th Street
5,2990,Sa,0,60.0,0.0,34th St @ Lindell Av,27.980217,-82.422459,5,40th Street
5,2991,Sa,0,60.0,0.0,34th St @ Lake Av,27.978096,-82.422525,5,40th Street
5,2992,Sa,0,60.0,0.0,34th St @ Chipco St,27.975637,-82.4224,5,40th Street
5,2993,Sa,0,60.0,0.0,34th St @ 26th Av,27.974235,-82.422398,5,40th Street
5,2994,Sa,0,60.0,0.0,34th St @ 24th Av,27.972755,-82.422395,5,40th Street
5,2995,Sa,0,60.0,0.0,34th St @ 22nd Av,27.97138,-82.422387,5,40th Street
5,2996,Sa,0,60.0,0.0,34th St @ 18th Av,27.968447,-82.422426,5,40th Street
15,2997,Sa,0,60.0,0.0,Columbus Dr @ 13th St,27.966889,-82.445396,15,Columbus Drive
15,2998,Sa,0,60.0,0.0,Columbus Dr @ 12th St,27.966899,-82.447026,15,Columbus Drive
15,2999,Sa,0,60.0,0.0,Columbus Dr @ 10th St,27.966914,-82.449082,15,Columbus Drive
15,3000,Sa,0,60.0,0.0,Columbus Dr @ Nebraska Av,27.966914,-82.450935,15,Columbus Drive
15,3001,Sa,0,60.0,0.0,Columbus Dr @ Mitchell Av,27.966906,-82.451929,15,Columbus Drive
15,3002,Sa,0,60.0,0.0,Columbus Dr @ Taliaferro Av,27.966897,-82.452891,15,Columbus Drive
15,3003,Sa,0,60.0,0.0,Columbus Dr @ Central Av,27.966897,-82.45521,15,Columbus Drive
15,3005,Sa,0,60.0,0.0,Columbus Dr @ Florida Av,27.966906,-82.459014,15,Columbus Drive
15,3006,Sa,0,60.0,0.0,Columbus Dr @ Tampa St,27.966928,-82.460741,15,Columbus Drive
15,3007,Sa,0,60.0,0.0,Columbus Dr @ Highland Av,27.966928,-82.462236,15,Columbus Drive
15,3008,Sa,0,60.0,0.0,Columbus Dr @ Ola Av,27.966925,-82.463496,15,Columbus Drive
15,3009,Sa,0,60.0,0.0,Columbus Dr @ Massachusetts Av,27.966956,-82.465456,15,Columbus Drive
15,3010,Sa,0,60.0,0.0,Columbus Dr @ N Boulevard,27.966968,-82.467466,15,Columbus Drive
15,3011,Sa,0,60.0,0.0,Columbus Dr @ Myrtle Av,27.966945,-82.46936,15,Columbus Drive
15,3012,Sa,0,60.0,0.0,Columbus Dr @ Poplar Av,27.966956,-82.471521,15,Columbus Drive
15,3013,Sa,0,60.0,0.0,Columbus Dr @ Ridgewood Av,27.966957,-82.472925,15,Columbus Drive
15,3014,Sa,0,60.0,0.0,Columbus Dr @ Rome Av,27.966664,-82.476875,15,Columbus Drive
15,3015,Sa,0,60.0,0.0,Columbus Dr @ Fremont Av,27.966684,-82.478962,15,Columbus Drive
15,3016,Sa,0,60.0,0.0,Columbus Dr @ Albany Av,27.966687,-82.480409,15,Columbus Drive
15,3017,Sa,0,60.0,0.0,Columbus Dr @ Howard Av,27.966725,-82.482584,15,Columbus Drive
15,3018,Sa,0,60.0,0.0,Columbus Dr @ Armenia Av,27.966748,-82.484727,15,Columbus Drive
15,3019,Sa,0,60.0,0.0,Columbus Dr @ Tampania Av,27.966759,-82.486843,15,Columbus Drive
15,3020,Sa,0,60.0,0.0,Columbus Dr @ Habana Av,27.966777,-82.488907,15,Columbus Drive
15,3022,Sa,0,60.0,0.0,Columbus Dr @ MacDill Av,27.966812,-82.492872,15,Columbus Drive
15,3023,Sa,0,60.0,0.0,Columbus Dr @ Matanzas Av,27.966812,-82.495101,15,Columbus Drive
15,3024,Sa,0,60.0,0.0,Columbus Dr @ Lincoln Av,27.966797,-82.497176,15,Columbus Drive
15,3025,Sa,0,60.0,0.0,Columbus Dr @ Glen Av,27.966804,-82.499233,15,Columbus Drive
15,3026,Sa,0,60.0,0.0,Columbus Dr @ Himes Av,27.966579,-82.500817,15,Columbus Drive
15,3027,Sa,0,60.0,0.0,Columbus Dr @ Glen Av,27.96658,-82.499531,15,Columbus Drive
15,3028,Sa,0,60.0,0.0,Columbus Dr @ Lincoln Av,27.966581,-82.497445,15,Columbus Drive
15,3029,Sa,0,60.0,0.0,Columbus Dr @ St Vincent St,27.966609,-82.495987,15,Columbus Drive
15,3030,Sa,0,60.0,0.0,Columbus Dr @ MacDill Av,27.966574,-82.493425,15,Columbus Drive
15,3032,Sa,0,60.0,0.0,Columbus Dr @ Habana Av,27.966662,-82.48916,15,Columbus Drive
15,3033,Sa,0,60.0,0.0,Columbus Dr @ Tampania Av,27.966614,-82.487055,15,Columbus Drive
15,3034,Sa,0,60.0,0.0,Columbus Dr @ Armenia Av,27.966596,-82.485131,15,Columbus Drive
15,3035,Sa,0,60.0,0.0,Columbus Dr @ Howard Av,27.966561,-82.482984,15,Columbus Drive
15,3036,Sa,0,60.0,0.0,Columbus Dr @ Albany Av,27.966535,-82.480402,15,Columbus Drive
15,3037,Sa,0,60.0,0.0,Columbus Dr @ Fremont Av,27.966535,-82.478802,15,Columbus Drive
15,3038,Sa,0,60.0,0.0,Columbus Dr @ Rome Av,27.966509,-82.476757,15,Columbus Drive
15,3039,Sa,0,60.0,0.0,Columbus Dr @ Ridgewood Av,27.966827,-82.473243,15,Columbus Drive
15,3040,Sa,0,60.0,0.0,Columbus Dr @ Poplar Av,27.966801,-82.471177,15,Columbus Drive
15,3041,Sa,0,60.0,0.0,Columbus Dr @ Glenwood Dr,27.966801,-82.469213,15,Columbus Drive
15,3042,Sa,0,60.0,0.0,Columbus Dr @ Ola Av,27.966766,-82.463714,15,Columbus Drive
15,3043,Sa,0,60.0,0.0,Columbus Dr @ Highland Av,27.966776,-82.462448,15,Columbus Drive
15,3045,Sa,0,60.0,0.0,Columbus Dr @ Tampa St,27.966776,-82.461051,15,Columbus Drive
15,3046,Sa,0,60.0,0.0,Columbus Dr @ Florida Av,27.966776,-82.459583,15,Columbus Drive
15,3047,Sa,0,60.0,0.0,Columbus Dr @ Central Av,27.966759,-82.455603,15,Columbus Drive
15,3048,Sa,0,60.0,0.0,Columbus Dr @ Nebraska Av,27.96675,-82.451036,15,Columbus Drive
15,3050,Sa,0,60.0,0.0,Columbus Dr @ 10th St,27.966751,-82.449163,15,Columbus Drive
15,3051,Sa,0,60.0,0.0,Columbus Dr @ 12th St,27.966751,-82.447026,15,Columbus Drive
15,3052,Sa,0,60.0,0.0,Columbus Dr @ 13th St,27.966733,-82.445558,15,Columbus Drive
15,3053,Sa,0,60.0,0.0,Columbus Dr @ Republica De Cuba,27.966724,-82.444393,15,Columbus Drive
15,3054,Sa,0,60.0,0.0,Columbus Dr @ 15th St,27.966715,-82.44332,15,Columbus Drive
15,3055,Sa,0,60.0,0.0,Columbus Dr @ 16th St,27.966715,-82.441781,15,Columbus Drive
15,3056,Sa,0,60.0,0.0,Columbus Dr @ 17th St,27.966715,-82.440545,15,Columbus Drive
15,3057,Sa,0,60.0,0.0,Columbus Dr @ 19th St,27.966715,-82.438075,15,Columbus Drive
15,3058,Sa,0,60.0,0.0,Columbus Dr @ 21St St,27.966715,-82.435725,15,Columbus Drive
15,3059,Sa,0,60.0,0.0,Columbus Dr @ 23Rd St,27.966697,-82.433882,15,Columbus Drive
5,3059,Sa,0,60.0,0.0,Columbus Dr @ 23Rd St,27.966697,-82.433882,5,40th Street
15,3060,Sa,0,60.0,0.0,Columbus Dr @ 25th St,27.966688,-82.431776,15,Columbus Drive
5,3060,Sa,0,60.0,0.0,Columbus Dr @ 25th St,27.966688,-82.431776,5,40th Street
15,3061,Sa,0,60.0,0.0,Columbus Dr @ 26th St,27.966678,-82.430763,15,Columbus Drive
5,3061,Sa,0,60.0,0.0,Columbus Dr @ 26th St,27.966678,-82.430763,5,40th Street
15,3062,Sa,0,60.0,0.0,Columbus Dr @ 27th St,27.966678,-82.429791,15,Columbus Drive
5,3062,Sa,0,60.0,0.0,Columbus Dr @ 27th St,27.966678,-82.429791,5,40th Street
15,3063,Sa,0,60.0,0.0,Columbus Dr @ 29th St,27.966687,-82.428374,15,Columbus Drive
5,3063,Sa,0,60.0,0.0,Columbus Dr @ 29th St,27.966687,-82.428374,5,40th Street
15,3064,Sa,0,60.0,0.0,Columbus Dr @ 31St St,27.96666,-82.425862,15,Columbus Drive
5,3064,Sa,0,60.0,0.0,Columbus Dr @ 31St St,27.96666,-82.425862,5,40th Street
15,3065,Sa,0,60.0,0.0,Columbus Dr @ 34th St,27.966632,-82.421731,15,Columbus Drive
15,3067,Sa,0,60.0,0.0,Columbus Dr @ 37th St,27.96664,-82.41847,15,Columbus Drive
15,3068,Sa,0,60.0,0.0,Columbus Dr @ 40th St,27.966631,-82.414349,15,Columbus Drive
18,3075,Sa,0,30.0,1.0,131St Av @ Bruce B Downs @ Va Hosp,28.065622,-82.427307,18,30th Street
5,3075,Sa,0,60.0,0.0,131St Av @ Bruce B Downs @ Va Hosp,28.065622,-82.427307,5,40th Street
1,3077,Sa,0,33.0,9.1,131St Av @ 23Rd St,28.065554,-82.432328,1,Florida Avenue
12,3077,Sa,0,32.1,7.8,131St Av @ 23Rd St,28.065554,-82.432328,12,22nd Street
45,3077,Sa,0,60.0,0.0,131St Av @ 23Rd St,28.065554,-82.432328,45,UATC - Rome - Westshore Plaza
9,3077,Sa,0,60.0,0.0,131St Av @ 23Rd St,28.065554,-82.432328,9,15th Street
9,3079,Sa,0,60.0,0.0,131St Av @ 20th St,28.065605,-82.436522,9,15th Street
9,3080,Sa,0,60.0,0.0,131St Av @ 19th St,28.065605,-82.438509,9,15th Street
9,3081,Sa,0,60.0,0.0,131St Av @ 15th St,28.065614,-82.441987,9,15th Street
9,3084,Sa,0,60.0,0.0,131St Av @ 17th St,28.06546,-82.44077,9,15th Street
9,3085,Sa,0,60.0,0.0,131St Av @ 19th St,28.065451,-82.438915,9,15th Street
18,3086,Sa,0,30.0,5.0,131St Av @ Bruce B Downs  @ Va Hosp,28.065459,-82.427307,18,30th Street
5,3086,Sa,0,60.0,0.0,131St Av @ Bruce B Downs  @ Va Hosp,28.065459,-82.427307,5,40th Street
5,3104,Sa,0,60.0,0.0,Alumni Dr @ Leroy Collins @Eng Bldg,28.057316,-82.413653,5,40th Street
5,3105,Sa,0,60.0,0.0,Alumni Dr @ Laurel Dr,28.058141,-82.416735,5,40th Street
5,3109,Sa,0,60.0,0.0,Alumni Dr @ Leroy Collins@ Eng Bldg,28.0578,-82.415793,5,40th Street
18,3110,Sa,0,60.0,0.0,Holly Dr @ Magnolia Dr,28.066119,-82.420828,18,30th Street
5,3110,Sa,0,60.0,0.0,Holly Dr @ Magnolia Dr,28.066119,-82.420828,5,40th Street
18,3111,Sa,0,60.0,0.0,Holly Dr @ Cypress Dr,28.066147,-82.423515,18,30th Street
5,3111,Sa,0,60.0,0.0,Holly Dr @ Cypress Dr,28.066147,-82.423515,5,40th Street
18,3113,Sa,0,60.0,0.0,Holly Dr @ Pine Dr @ Crosswalk,28.065757,-82.424618,18,30th Street
5,3113,Sa,0,60.0,0.0,Holly Dr @ Pine Dr @ Crosswalk,28.065757,-82.424618,5,40th Street
5,3114,Sa,0,60.0,0.0,Holly Dr @ Magnolia Dr,28.065891,-82.420902,5,40th Street
39,3126,Sa,0,30.0,0.0,Temple Heights Rd @ 56th St,28.036207,-82.394311,39,Busch Boulevard
39,3128,Sa,0,30.0,0.0,Temple Heights Rd @ Overlook Dr,28.036285,-82.396461,39,Busch Boulevard
39,3130,Sa,0,30.0,0.0,Temple Heights Rd @ Terrace Village,28.036313,-82.399806,39,Busch Boulevard
39,3134,Sa,0,30.0,0.0,Temple Heights Rd @ Overlook Dr,28.036131,-82.396664,39,Busch Boulevard
39,3135,Sa,0,30.0,0.0,Temple Heights Rd @ 56th St,28.036085,-82.393664,39,Busch Boulevard
30,3169,Sa,0,29.8,0.9,Hanley Rd @ Hillsborough Av,27.997273,-82.562748,30,Town 'N Country
30,3170,Sa,0,29.8,0.9,Hanley Rd @ Comanche Av,27.998948,-82.562701,30,Town 'N Country
30,3172,Sa,0,29.8,0.9,Hanley Rd @ Hanna Av,28.003857,-82.562575,30,Town 'N Country
30,3173,Sa,0,29.8,0.9,Hanley Rd @ Jackson Springs Rd,28.00724,-82.562506,30,Town 'N Country
30,3174,Sa,0,29.8,0.9,Hanley Rd @ Fountain Av,28.01043,-82.562451,30,Town 'N Country
30,3175,Sa,0,29.8,0.9,Hanley Rd @ Woodbridge Blvd,28.0128,-82.5624,30,Town 'N Country
30,3176,Sa,0,29.8,0.9,Hanley Rd @ Barry Rd,28.017332,-82.562326,30,Town 'N Country
30,3177,Sa,0,29.8,1.0,Hanley Rd @ Twelve Oaks Blvd,28.021507,-82.562251,30,Town 'N Country
30,3179,Sa,0,29.8,1.0,Hanley Rd @ Waters Av,28.025501,-82.562186,30,Town 'N Country
30,3182,Sa,0,30.0,0.0,Hanley Rd @ Winging Way Dr,28.023508,-82.562548,30,Town 'N Country
30,3183,Sa,0,29.9,0.1,Hanley Rd @ Nesting Place Ct,28.022086,-82.562566,30,Town 'N Country
30,3185,Sa,0,29.9,0.1,Hanley Rd @ Barry Rd,28.017819,-82.562576,30,Town 'N Country
30,3186,Sa,0,30.0,0.0,Hanley Rd @ Woodbridge Blvd,28.013171,-82.562548,30,Town 'N Country
30,3188,Sa,0,30.0,0.0,Hanley Rd @ Jackson Springs Rd,28.00764,-82.562641,30,Town 'N Country
30,3189,Sa,0,30.0,0.0,Hanley Rd @ Hanna Av,28.004228,-82.56272,30,Town 'N Country
30,3191,Sa,0,30.0,0.0,Hanley Rd @ Henry Av,28.00049,-82.56279,30,Town 'N Country
30,3192,Sa,0,29.9,0.1,Hanley Rd @ Hillsborough Av,27.996829,-82.562945,30,Town 'N Country
30,3195,Sa,0,29.8,0.9,Kelly Rd @ Winchester Dr,27.983781,-82.56495,30,Town 'N Country
30,3196,Sa,0,29.8,0.9,Kelly Rd @ Swindon Rd,27.986239,-82.564834,30,Town 'N Country
30,3197,Sa,0,29.8,0.9,Kelly Rd @ Brighten Dr,27.988426,-82.564914,30,Town 'N Country
30,3198,Sa,0,29.8,0.9,Kelly Rd @ New Orleans St,27.991085,-82.56479,30,Town 'N Country
30,3199,Sa,0,29.8,0.9,Kelly Rd @ Caracas St,27.992579,-82.564782,30,Town 'N Country
30,3200,Sa,0,29.8,0.9,Kelly Rd @ Hillsborough Av,27.996305,-82.564795,30,Town 'N Country
30,3201,Sa,0,29.9,0.1,Kelly Rd @ Hillsborough Av,27.996131,-82.564897,30,Town 'N Country
30,3202,Sa,0,29.9,0.1,Kelly Rd @ Caracas St,27.992806,-82.564895,30,Town 'N Country
30,3203,Sa,0,29.9,0.1,Kelly Rd @ New Orleans St,27.991353,-82.564913,30,Town 'N Country
30,3204,Sa,0,29.9,0.1,Kelly Rd @ Brighten Dr,27.988829,-82.56501,30,Town 'N Country
30,3206,Sa,0,29.9,0.1,Kelly Rd @ Carnaby Square,27.984256,-82.565053,30,Town 'N Country
8,3215,Sa,0,60.0,0.0,78th St @ Causeway Blvd,27.923197,-82.368604,8,Progress Village- Brandon
8,3216,Sa,0,60.0,0.0,78th St @ 24th Av,27.926163,-82.368613,8,Progress Village- Brandon
8,3218,Sa,0,60.0,0.0,78th St @ Tidewater Trail,27.929725,-82.368606,8,Progress Village- Brandon
8,3220,Sa,0,60.0,0.0,78th St@ Clair Mel Circle,27.932411,-82.368598,8,Progress Village- Brandon
8,3222,Sa,0,60.0,0.0,78th St @ Parish Place,27.935963,-82.368589,8,Progress Village- Brandon
8,3224,Sa,0,60.0,0.0,78th St @ Destin Dr,27.939154,-82.368732,8,Progress Village- Brandon
8,3229,Sa,0,60.0,0.0,78th St @ Paradise Place,27.929737,-82.368762,8,Progress Village- Brandon
8,3231,Sa,0,60.0,0.0,78th St @ 24th Av,27.926469,-82.368762,8,Progress Village- Brandon
8,3232,Sa,0,60.0,0.0,78th St @ Causeway Blvd,27.92365,-82.368786,8,Progress Village- Brandon
8,3234,Sa,0,60.0,0.0,78th St @ 34th Av,27.917853,-82.368791,8,Progress Village- Brandon
8,3238,Sa,0,60.0,0.0,78th St @ 49th Av,27.903767,-82.368741,8,Progress Village- Brandon
8,3239,Sa,0,29.7,8.1,78th St @ Madison Av,27.898586,-82.368746,8,Progress Village- Brandon
1,3267,Sa,0,33.1,9.6,Bearss Av @ 22nd St,28.080264,-82.43491,1,Florida Avenue
19,3270,Sa,0,60.0,0.0,Cleveland St @ Magnolia Av,27.943181,-82.465631,19,Port Tampa
19,3272,Sa,0,60.0,0.0,Cleveland St @ Fielding Av,27.943204,-82.467561,19,Port Tampa
19,3273,Sa,0,60.0,0.0,Cleveland St @ Edison Av,27.943213,-82.469463,19,Port Tampa
19,3274,Sa,0,60.0,0.0,Cleveland St @ Delaware Av,27.94322,-82.470489,19,Port Tampa
19,3275,Sa,0,60.0,0.0,Cleveland St @ Willow Av,27.943245,-82.472519,19,Port Tampa
19,3276,Sa,0,60.0,0.0,Cleveland St @ Dakota Av,27.943286,-82.475554,19,Port Tampa
19,3278,Sa,0,60.0,0.0,Cleveland St @ Packwood Av,27.943324,-82.477704,19,Port Tampa
19,3281,Sa,0,60.0,0.0,Cleveland St @ Westland Av,27.943369,-82.481818,19,Port Tampa
19,3282,Sa,0,60.0,0.0,Cleveland St @ Moody Av,27.943396,-82.483877,19,Port Tampa
45,3284,Sa,0,60.0,0.0,Ferris Av @ Farwell  Dr,27.98235,-82.47945,45,UATC - Rome - Westshore Plaza
45,3285,Sa,0,60.0,0.0,Ferris Av @ Wishart Blvd,27.982627,-82.483843,45,UATC - Rome - Westshore Plaza
19,3302,Sa,0,60.0,2.0,Howard Av @ Deleon St,27.938465,-82.482899,19,Port Tampa
19,3303,Sa,0,60.0,2.0,Howard Av @ Horatio St,27.939633,-82.48291,19,Port Tampa
19,3304,Sa,0,60.0,2.0,Howard Av @ Azeele St,27.94082,-82.48292,19,Port Tampa
19,3305,Sa,0,60.0,2.0,Howard Av @ Platt St,27.941671,-82.482891,19,Port Tampa
7,3307,Sa,0,60.0,0.0,Howard Av @ Walnut St,27.959921,-82.482848,7,West Tampa - Citrus Park
7,3309,Sa,0,60.0,0.0,Howard Av @ Beach St,27.962927,-82.482813,7,West Tampa - Citrus Park
19,3328,Sa,0,60.0,0.0,Hyde Park Av @ Platt St,27.941886,-82.464001,19,Port Tampa
19,3329,Sa,0,31.9,7.8,Hyde Park Av @ Azeele St,27.940618,-82.464031,19,Port Tampa
45,3331,Sa,0,60.0,0.0,Spruce St @ Sterling Av,27.959469,-82.503062,45,UATC - Rome - Westshore Plaza
45,3332,Sa,0,60.0,0.0,Spruce St @ Dale Mabry Hwy,27.959523,-82.506675,45,UATC - Rome - Westshore Plaza
45,3334,Sa,0,60.0,0.0,Spruce St @ Grady Av,27.959521,-82.509192,45,UATC - Rome - Westshore Plaza
45,3340,Sa,0,60.0,0.0,Spruce St @ Clark Av,27.959363,-82.511474,45,UATC - Rome - Westshore Plaza
45,3341,Sa,0,60.0,0.0,Spruce St @ Grady Av,27.959365,-82.508962,45,UATC - Rome - Westshore Plaza
45,3342,Sa,0,60.0,0.0,Spruce St @ Dale Mabry Hwy,27.959384,-82.506431,45,UATC - Rome - Westshore Plaza
45,3343,Sa,0,60.0,0.0,Spruce St @ Marie Av,27.959377,-82.504487,45,UATC - Rome - Westshore Plaza
45,3344,Sa,0,60.0,0.0,Spruce St @ Sterling Av,27.959341,-82.502695,45,UATC - Rome - Westshore Plaza
18,3348,Sa,0,60.0,0.0,Livingston Av @ Bearss Av,28.081024,-82.430772,18,30th Street
18,3349,Sa,0,60.0,0.0,Livingston Av @ Irene St,28.081729,-82.43076,18,30th Street
18,3350,Sa,0,60.0,0.0,Livingston Av @ 149th Av,28.086411,-82.430721,18,30th Street
5,3357,Sa,0,60.0,0.0,Magnolia Dr @ Alumni Dr,28.058278,-82.420029,5,40th Street
7,3359,Sa,0,60.0,0.0,Main St @ N Boulevard,27.957073,-82.468707,7,West Tampa - Citrus Park
7,3361,Sa,0,60.0,0.0,Main St @ Willow Av,27.957109,-82.472253,7,West Tampa - Citrus Park
7,3365,Sa,0,60.0,0.0,Main St @ Albany Av,27.957176,-82.480708,7,West Tampa - Citrus Park
7,3366,Sa,0,60.0,0.0,Main St @ Howard Av,27.957207,-82.48272,7,West Tampa - Citrus Park
7,3367,Sa,0,60.0,0.0,Main St @ Howard Av,27.95706,-82.483324,7,West Tampa - Citrus Park
7,3368,Sa,0,60.0,0.0,Main St @ Albany Av,27.957043,-82.480985,7,West Tampa - Citrus Park
7,3372,Sa,0,60.0,0.0,Main St @ Willow Av,27.956919,-82.473087,7,West Tampa - Citrus Park
7,3374,Sa,0,60.0,0.0,Main St @ N Boulevard,27.95692,-82.468784,7,West Tampa - Citrus Park
19,3376,Sa,0,31.9,7.8,Plant Av @ Beach Place,27.940304,-82.462761,19,Port Tampa
19,3377,Sa,0,60.0,0.0,Plant Av @ Platt St,27.941895,-82.462685,19,Port Tampa
6,3388,Sa,0,30.8,5.5,Puritan Rd @ Pine Hill Dr,28.020318,-82.39617,6,56th Street
6,3393,Sa,0,30.9,5.7,Puritan Rd @ Pine Hill Dr,28.02023,-82.39652,6,56th Street
18,3398,Sa,0,60.0,0.0,Republica De Cuba @ 14th Av,27.964333,-82.444322,18,30th Street
9,3398,Sa,0,60.0,0.0,Republica De Cuba @ 14th Av,27.964333,-82.444322,9,15th Street
45,3401,Sa,0,60.0,0.0,Rome Av @ Wishart Blvd,27.988861,-82.47627,45,UATC - Rome - Westshore Plaza
45,3404,Sa,0,60.0,0.0,Rome Av @ Barr Dr,27.993571,-82.476151,45,UATC - Rome - Westshore Plaza
45,3406,Sa,0,60.0,0.0,Rome Av @ Hillsborough Av,27.995029,-82.476101,45,UATC - Rome - Westshore Plaza
45,3407,Sa,0,60.0,0.0,Rome Av @ Comanche Av,27.997555,-82.476061,45,UATC - Rome - Westshore Plaza
45,3408,Sa,0,60.0,0.0,Rome Av @ Powhatan Av,27.999222,-82.476072,45,UATC - Rome - Westshore Plaza
45,3409,Sa,0,60.0,0.0,Rome Av @ Burke St,28.001776,-82.476053,45,UATC - Rome - Westshore Plaza
45,3411,Sa,0,60.0,0.0,Rome Av @ Hanna Av,28.003188,-82.476044,45,UATC - Rome - Westshore Plaza
45,3412,Sa,0,60.0,0.0,Rome Av @ Lambright St,28.005688,-82.476004,45,UATC - Rome - Westshore Plaza
45,3413,Sa,0,60.0,0.0,Rome Av @ Hiawatha St,28.009011,-82.476026,45,UATC - Rome - Westshore Plaza
45,3414,Sa,0,60.0,0.0,Rome Av @ Sligh Av,28.010571,-82.476019,45,UATC - Rome - Westshore Plaza
45,3418,Sa,0,60.0,0.0,Rome Av @ North St,28.00618,-82.476148,45,UATC - Rome - Westshore Plaza
45,3419,Sa,0,60.0,0.0,Rome Av @ Hanna Av,28.003519,-82.476159,45,UATC - Rome - Westshore Plaza
45,3420,Sa,0,60.0,0.0,Rome Av @ Burke St,28.001531,-82.476235,45,UATC - Rome - Westshore Plaza
45,3421,Sa,0,60.0,0.0,Rome Av @ Clifton St,28.00051,-82.47632,45,UATC - Rome - Westshore Plaza
45,3422,Sa,0,60.0,0.0,Rome Av @ Powhatan Av,27.99908,-82.47619,45,UATC - Rome - Westshore Plaza
45,3423,Sa,0,60.0,0.0,Rome Av @ Comanche Av,27.997768,-82.476182,45,UATC - Rome - Westshore Plaza
45,3424,Sa,0,60.0,0.0,Rome Av @ Hillsborough Av,27.99625,-82.476205,45,UATC - Rome - Westshore Plaza
45,3425,Sa,0,60.0,0.0,Rome Av @ Alexander Rd,27.994008,-82.476248,45,UATC - Rome - Westshore Plaza
45,3426,Sa,0,60.0,0.0,Rome Av @ Bedingfield Dr,27.99232,-82.476295,45,UATC - Rome - Westshore Plaza
45,3427,Sa,0,60.0,0.0,Rome Av @ Wishart Blvd,27.98973,-82.476375,45,UATC - Rome - Westshore Plaza
45,3429,Sa,0,60.0,0.0,Rome Av @ Johnston Av,27.985097,-82.476495,45,UATC - Rome - Westshore Plaza
45,3431,Sa,0,60.0,0.0,Rome Av @ Ferris Av,27.982675,-82.47656,45,UATC - Rome - Westshore Plaza
12,3432,Sa,0,32.0,7.8,Rowlett Park Dr @ Sligh Av,28.011227,-82.430111,12,22nd Street
18,3432,Sa,0,60.0,0.0,Rowlett Park Dr @ Sligh Av,28.011227,-82.430111,18,30th Street
9,3432,Sa,0,60.0,0.0,Rowlett Park Dr @ Sligh Av,28.011227,-82.430111,9,15th Street
12,3434,Sa,0,32.0,7.8,Rowlett Park Dr @ 22nd St,28.02234,-82.435156,12,22nd Street
18,3434,Sa,0,60.0,0.0,Rowlett Park Dr @ 22nd St,28.02234,-82.435156,18,30th Street
9,3434,Sa,0,60.0,0.0,Rowlett Park Dr @ 22nd St,28.02234,-82.435156,9,15th Street
12,3436,Sa,0,32.0,7.8,Rowlett Park Dr @ Waters Av,28.024875,-82.436817,12,22nd Street
12,3437,Sa,0,31.9,7.3,Rowlett Park Dr @ Waters Av,28.024592,-82.43678,12,22nd Street
12,3438,Sa,0,31.9,7.3,Rowlett Park Dr @ Mulberry Dr,28.022728,-82.435581,12,22nd Street
12,3439,Sa,0,31.9,7.3,Rowlett Park Dr @ Sligh Av,28.011371,-82.430315,12,22nd Street
9,3439,Sa,0,60.0,0.0,Rowlett Park Dr @ Sligh Av,28.011371,-82.430315,9,15th Street
1,3443,Sa,0,33.2,9.6,Seward St @ Branch Av,28.027979,-82.458067,1,Florida Avenue
16,3443,Sa,0,45.0,0.0,Seward St @ Branch Av,28.027979,-82.458067,16,Waters Avenue
9,3443,Sa,0,60.0,0.0,Seward St @ Branch Av,28.027979,-82.458067,9,15th Street
1,3444,Sa,0,33.2,9.6,Seward St @ Dixon Av,28.02797,-82.457328,1,Florida Avenue
16,3444,Sa,0,45.0,0.0,Seward St @ Dixon Av,28.02797,-82.457328,16,Waters Avenue
9,3444,Sa,0,60.0,0.0,Seward St @ Dixon Av,28.02797,-82.457328,9,15th Street
12,3445,Sa,0,32.0,7.5,Skagway Av @ 20th St,28.031893,-82.436594,12,22nd Street
12,3446,Sa,0,32.0,7.9,Skagway Av @ 22nd St,28.031702,-82.434811,12,22nd Street
1,3457,Sa,0,32.7,8.4,Violet St @ Florida Av,27.990673,-82.460145,1,Florida Avenue
18,3468,Sa,0,60.0,0.0,Yukon St @ Ruth Place,28.028978,-82.42706,18,30th Street
18,3469,Sa,0,60.0,0.0,Yukon St @ Linda Ct,28.028978,-82.42822,18,30th Street
