stop_id,service_id,direction_id,numroutes,TripsServingStop,stop_name,stop_lat,stop_lon
10,201204-AVLApSa1-Saturday-01,0,1,19,ON 23RD AT HOLMES  EASTBOUND,39.085083,-94.575859
100,201204-AVLApSa1-Saturday-01,0,4,112,ON 10TH AT MAIN EB,39.102215,-94.583298
1010001,201204-AVLApSa1-Saturday-01,0,9,135,ON MAIN AT 11TH/PETTICOAT LANE SB,39.101254,-94.58316
1010015,201204-AVLApSa1-Saturday-01,0,1,13,ON 6TH AT STATE SOUTHBOUND,39.116432,-94.624138
1010018,201204-AVLApSa1-Saturday-01,0,2,25,ON ANN AT 7TH WESTBOUND,39.113667,-94.626602
1010023,201204-AVLApSa1-Saturday-01,0,1,12,ON MINNESOTA AT 10TH WESTBOUND,39.11557,-94.634987
1010024,201204-AVLApSa1-Saturday-01,0,1,12,ON MINNESOTA AT 11TH WESTBOUND,39.115574,-94.638
1010040,201204-AVLApSa1-Saturday-01,0,2,25,ON STATE AT 38TH WESTBOUND,39.116791,-94.673622
1010042,201204-AVLApSa1-Saturday-01,0,2,25,ON 47TH AT MINNESOTA SOUTHBOUND,39.116009,-94.686592
1010116,201204-AVLApSa1-Saturday-01,0,1,12,ON STATE AT 11TH EASTBOUND,39.116394,-94.638214
1010120,201204-AVLApSa1-Saturday-01,0,2,24,ON MINNESOTA AT 8TH EASTBOUND,39.11549,-94.629738
1010122,201204-AVLApSa1-Saturday-01,0,2,24,ON ARMSTRONG AT 7TH EASTBOUND,39.114506,-94.626869
1010124,201204-AVLApSa1-Saturday-01,0,3,38,ON ANN AT 6TH EASTBOUND,39.113556,-94.624184
1010125,201204-AVLApSa1-Saturday-01,0,2,26,ON 6TH AT MINNESOTA NORTHBOUND,39.115444,-94.624001
1010130,201204-AVLApSa1-Saturday-01,0,1,14,ON 4TH AT WASHINGTON NORTHBOUND,39.118362,-94.618683
1010137,201204-AVLApSa1-Saturday-01,0,2,51,AT 47TH AND STATE AVE TRANSIT CENTER NORTHBOUND,39.114731,-94.684891
1010138,201204-AVLApSa1-Saturday-01,0,1,13,ON 4TH AT STATE AVE. SOUTHBOUND,39.116623,-94.618843
1010141,201204-AVLApSa1-Saturday-01,0,1,14,ON WOODSWETHER AT LIBERTY EASTBOUND,39.108688,-94.603859
1010211,201204-AVLApSa1-Saturday-01,0,1,12,ON PARALLEL AT VILLAGE WEST PKWY EASTBOUND,39.128407,-94.829659
1011,201204-AVLApSa1-Saturday-01,0,1,12,ON INDEPENDENCE AVE AT DELAWARE ST WB,39.107395,-94.584007
1012507,201204-AVLApSa1-Saturday-01,0,1,13,ON JAMES ST AT 345 JAMES ST NB,39.113194,-94.616844
1012510,201204-AVLApSa1-Saturday-01,0,1,12,ON STATE AVE AT 12TH EB,39.116463,-94.640793
1012700,201204-AVLApSa1-Saturday-01,0,1,12,ON PARALLEL PKWY AT 90TH EB,39.128494,-94.788712
1012803,201204-AVLApSa1-Saturday-01,0,1,12,ON STATE AVE AT HOEL PKWY EB,39.116497,-94.652443
1012804,201204-AVLApSa1-Saturday-01,0,1,12,ON STATE AVE AT 18TH ST EB,39.116241,-94.64949
1012805,201204-AVLApSa1-Saturday-01,0,1,12,ON STATE AVE AT 13TH ST EB,39.116447,-94.643211
1012807,201204-AVLApSa1-Saturday-01,0,1,12,ON STATE AVE AT 13TH WESTBOUND,39.116577,-94.642975
1012809,201204-AVLApSa1-Saturday-01,0,1,12,ON STATE AVE AT HOEL PKWY WESTBOUND,39.116573,-94.652206
1012815,201204-AVLApSa1-Saturday-01,0,1,12,ON STATE AVE AT 90TH WESTBOUND,39.116478,-94.788216
1012816,201204-AVLApSa1-Saturday-01,0,1,12,ON STATE AVE AT 94TH WESTBOUND,39.116493,-94.797646
1012820,201204-AVLApSa1-Saturday-01,0,1,12,ON 47TH ST AT MINNESOTA AVE NB,39.115849,-94.68647
101801,201204-AVLApSa1-Saturday-01,0,1,12,ON STATE AVE AT 78TH PLACE WB,39.116493,-94.761955
1020004,201204-AVLApSa1-Saturday-01,0,4,65,ON 10TH AT WALNUT EASTBOUND,39.102203,-94.582108
1020009,201204-AVLApSa1-Saturday-01,0,4,59,ON BALTIMORE AT 10TH NORTHBOUND,39.102089,-94.584175
1020081,201204-AVLApSa1-Saturday-01,0,1,12,ON STATE AT 29TH ST WESTBOUND,39.116856,-94.661682
1020091,201204-AVLApSa1-Saturday-01,0,1,12,ON STATE AVE AT 31ST EASTBOUND,39.116692,-94.664276
1020092,201204-AVLApSa1-Saturday-01,0,1,12,ON STATE AVE AT 29TH ST EASTBOUND,39.116695,-94.661621
1020103,201204-AVLApSa1-Saturday-01,0,1,12,ON STATE AVE AT 34TH WESTBOUND,39.116844,-94.667099
1020104,201204-AVLApSa1-Saturday-01,0,1,12,ON STATE AVE AT 37TH WESTBOUND,39.116821,-94.67041
1040002,201204-AVLApSa1-Saturday-01,0,9,170,ON 11TH AT BALTIMORE WESTBOUND,39.100849,-94.584038
1040016,201204-AVLApSa1-Saturday-01,0,2,24,ON MINNESOTA AT 8TH WESTBOUND,39.115604,-94.629799
1040017,201204-AVLApSa1-Saturday-01,0,2,24,ON MINNESOTA AT 9TH WESTBOUND,39.115601,-94.63224
1040018,201204-AVLApSa1-Saturday-01,0,1,12,ON 10TH AT MINNESOTA SOUTHBOUND,39.115433,-94.635178
1040019,201204-AVLApSa1-Saturday-01,0,1,12,ON 10TH AT ANN SOUTHBOUND,39.113682,-94.635162
1040020,201204-AVLApSa1-Saturday-01,0,1,12,ON 10TH AT GRANDVIEW BLVD SOUTHBOUND,39.111843,-94.6353
1040024,201204-AVLApSa1-Saturday-01,0,1,12,ON 10TH AT FORD SB,39.104919,-94.635536
1040025,201204-AVLApSa1-Saturday-01,0,1,12,ON 10TH AT CALVIN SOUTHBOUND,39.103188,-94.635506
1040027,201204-AVLApSa1-Saturday-01,0,1,12,ON 10TH AT CENTRAL SOUTHBOUND,39.100948,-94.63549
1040028,201204-AVLApSa1-Saturday-01,0,1,12,ON 10TH AT PACIFIC SOUTHBOUND,39.098846,-94.635475
1040029,201204-AVLApSa1-Saturday-01,0,1,12,ON 10TH AT GILMORE SOUTHBOUND,39.095978,-94.635452
1040031,201204-AVLApSa1-Saturday-01,0,1,12,ON 10TH AT RAY SOUTHBOUND,39.093914,-94.635445
1040032,201204-AVLApSa1-Saturday-01,0,1,12,ON 10TH AT MONTANA SOUTHBOUND,39.092537,-94.635406
1040035,201204-AVLApSa1-Saturday-01,0,1,12,ON 10TH AT SHAWNEE SOUTHBOUND,39.085896,-94.63533
1040036,201204-AVLApSa1-Saturday-01,0,1,12,ON 10TH AT ARGENTINE BLVD SOUTHBOUND,39.084911,-94.63533
1040038,201204-AVLApSa1-Saturday-01,0,1,12,ON 12TH ST AT METROPOLITAN SB,39.071789,-94.64032
1040040,201204-AVLApSa1-Saturday-01,0,1,12,ON OSAGE AT ARGENTINE EASTBOUND,39.084164,-94.635368
1040041,201204-AVLApSa1-Saturday-01,0,1,12,ON 12TH AT RUBY SOUTHBOUND,39.071533,-94.640343
1040043,201204-AVLApSa1-Saturday-01,0,1,12,ON RUBY AT 14TH WESTBOUND,39.071529,-94.644333
1040045,201204-AVLApSa1-Saturday-01,0,1,12,ON RUBY AT 17TH WESTBOUND,39.071552,-94.648254
1040046,201204-AVLApSa1-Saturday-01,0,1,12,ON RUBY AT 18TH WESTBOUND,39.071552,-94.649277
1040049,201204-AVLApSa1-Saturday-01,0,1,12,ON METROPOLITAN AT 24TH WESTBOUND,39.073021,-94.656883
1040050,201204-AVLApSa1-Saturday-01,0,1,12,ON STRONG AT 26TH WESTBOUND,39.075157,-94.659096
1040051,201204-AVLApSa1-Saturday-01,0,1,12,ON STRONG AT 28TH WESTBOUND,39.075161,-94.661293
1040052,201204-AVLApSa1-Saturday-01,0,1,12,ON STRONG AT 30TH WESTBOUND,39.075157,-94.663544
1040054,201204-AVLApSa1-Saturday-01,0,1,12,ON STRONG AT 35TH WESTBOUND,39.07515,-94.669098
1040055,201204-AVLApSa1-Saturday-01,0,1,12,ON STRONG AT 37TH WESTBOUND,39.075127,-94.671303
1040057,201204-AVLApSa1-Saturday-01,0,1,12,ON STRONG AT 39TH WESTBOUND,39.07513,-94.673523
1040058,201204-AVLApSa1-Saturday-01,0,1,12,ON STRONG AT 41ST WESTBOUND,39.075127,-94.675728
1040059,201204-AVLApSa1-Saturday-01,0,1,12,ON METROPOLITAN AT 42ND EASTBOUND,39.073071,-94.67701
1040060,201204-AVLApSa1-Saturday-01,0,1,12,ON METROPOLITAN AT 40TH EASTBOUND,39.073109,-94.674927
1040066,201204-AVLApSa1-Saturday-01,0,1,12,ON 40TH AT RUBY NORTHBOUND,39.071281,-94.674759
1040067,201204-AVLApSa1-Saturday-01,0,1,12,ON 40TH AT METROPOLITAN NORTHBOUND,39.073078,-94.674744
1040068,201204-AVLApSa1-Saturday-01,0,1,12,ON METROPOLITAN AT 42ND WESTBOUND,39.073181,-94.677078
1040070,201204-AVLApSa1-Saturday-01,0,1,12,ON STRONG AT 41ST EASTBOUND,39.075012,-94.675964
1040071,201204-AVLApSa1-Saturday-01,0,1,12,ON STRONG AT 39TH EASTBOUND,39.075027,-94.673859
1040075,201204-AVLApSa1-Saturday-01,0,1,12,ON STRONG AT 32ND EASTBOUND,39.075043,-94.666008
1040076,201204-AVLApSa1-Saturday-01,0,1,12,ON STRONG AT 30TH EASTBOUND,39.07505,-94.66378
1040078,201204-AVLApSa1-Saturday-01,0,1,12,ON STRONG AT 28TH EASTBOUND,39.075047,-94.661522
1040081,201204-AVLApSa1-Saturday-01,0,1,12,ON METROPOLITAN AT 24TH EASTBOUND,39.072884,-94.656845
1040083,201204-AVLApSa1-Saturday-01,0,1,12,ON 22ND AT RUBY TFWY SOUTHBOUND,39.071629,-94.653534
1040084,201204-AVLApSa1-Saturday-01,0,1,12,ON RUBY AT 18TH EASTBOUND,39.071442,-94.648972
1040087,201204-AVLApSa1-Saturday-01,0,1,12,ON RUBY AT 14TH EASTBOUND,39.071415,-94.644562
1040091,201204-AVLApSa1-Saturday-01,0,1,13,ON 7TH AT CHEYENNE NORTHBOUND,39.080822,-94.625565
1040092,201204-AVLApSa1-Saturday-01,0,1,13,ON 7TH AT MIAMI NORTHBOUND,39.082279,-94.625648
1040093,201204-AVLApSa1-Saturday-01,0,1,12,ON 10TH AT ARGENTINE NORTHBOUND,39.084732,-94.635185
1040094,201204-AVLApSa1-Saturday-01,0,1,12,ON 10TH AT SHAWNEE NORTHBOUND,39.085716,-94.635201
1040097,201204-AVLApSa1-Saturday-01,0,1,12,ON 10TH AT MONTANA NORTHBOUND,39.092587,-94.635262
1040098,201204-AVLApSa1-Saturday-01,0,1,12,ON 10TH AT RAY NORTHBOUND,39.094006,-94.635292
1040099,201204-AVLApSa1-Saturday-01,0,1,12,ON 10TH AT IVANDALE NORTHBOUND,39.096146,-94.635292
1040100,201204-AVLApSa1-Saturday-01,0,1,12,ON 10TH AT PACIFIC NORTHBOUND,39.098663,-94.63533
1040103,201204-AVLApSa1-Saturday-01,0,1,12,ON 10TH AT CALVIN NORTHBOUND,39.103233,-94.635361
1040106,201204-AVLApSa1-Saturday-01,0,1,12,ON 10TH AT SPLITLOG NORTHBOUND,39.108475,-94.635391
1040107,201204-AVLApSa1-Saturday-01,0,1,12,ON 10TH AT ORVILLE NORTHBOUND,39.109711,-94.635361
1040109,201204-AVLApSa1-Saturday-01,0,1,12,ON 10TH AT ANN NORTHBOUND,39.113506,-94.635002
1040112,201204-AVLApSa1-Saturday-01,0,2,24,ON ARMSTRONG AT 8TH ST WESTBOUND,39.114613,-94.629494
1042500,201204-AVLApSa1-Saturday-01,0,1,12,ON STRONG AT 31ST EB,39.075043,-94.664864
1042501,201204-AVLApSa1-Saturday-01,0,1,12,ON 12TH AT CHEYENNE NB,39.080448,-94.639824
1042502,201204-AVLApSa1-Saturday-01,0,1,12,ON 12TH AT CHEYENNE SB,39.080627,-94.639977
1042503,201204-AVLApSa1-Saturday-01,0,1,12,ON STRONG AT 31ST WB,39.075142,-94.664871
106002,201204-AVLApSa1-Saturday-01,0,1,14,ON 10TH AT CENTRAL EB,39.102261,-94.586998
1060020,201204-AVLApSa1-Saturday-01,0,3,51,ON 7TH AT ARMSTRONG NORTHBOUND,39.114475,-94.626678
1060021,201204-AVLApSa1-Saturday-01,0,2,26,ON 7TH AT MINNESOTA NB,39.115929,-94.62664
1060023,201204-AVLApSa1-Saturday-01,0,1,13,ON 7TH AT WASHINGTON NORTHBOUND,39.118298,-94.626671
1060024,201204-AVLApSa1-Saturday-01,0,1,13,ON 7TH AT OAKLAND NORTHBOUND,39.120369,-94.626694
1060026,201204-AVLApSa1-Saturday-01,0,1,13,ON 7TH AT WALKER NORTHBOUND,39.123348,-94.626686
1060027,201204-AVLApSa1-Saturday-01,0,1,13,ON 7TH AT PARALLEL PKWY NORTHBOUND,39.125523,-94.62674
1060028,201204-AVLApSa1-Saturday-01,0,1,13,ON 7TH AT TROUP NORTHBOUND,39.127491,-94.626755
1060029,201204-AVLApSa1-Saturday-01,0,1,13,ON 7TH AT PARALLEL AVE NORTHBOUND,39.128315,-94.626709
1060036,201204-AVLApSa1-Saturday-01,0,1,13,ON QUINDARO AT 9TH WESTBOUND,39.134109,-94.632355
1060037,201204-AVLApSa1-Saturday-01,0,1,13,ON QUINDARO AT 10TH WESTBOUND,39.134777,-94.63517
1060038,201204-AVLApSa1-Saturday-01,0,1,13,ON QUINDARO AT 11TH WESTBOUND,39.135445,-94.637878
1060042,201204-AVLApSa1-Saturday-01,0,1,13,ON QUINDARO AT 17TH WESTBOUND,39.137695,-94.646965
1060043,201204-AVLApSa1-Saturday-01,0,1,13,ON QUINDARO AT HIAWATHA WESTBOUND,39.138237,-94.649239
1060045,201204-AVLApSa1-Saturday-01,0,1,13,ON QUINDARO AT 20TH WESTBOUND,39.139008,-94.652367
1060047,201204-AVLApSa1-Saturday-01,0,1,13,ON QUINDARO AT 2240 QUINDARO WESTBOUND,39.140114,-94.655823
1060049,201204-AVLApSa1-Saturday-01,0,1,13,ON 27TH AT LATHROP NORTHBOUND,39.141495,-94.659035
1060050,201204-AVLApSa1-Saturday-01,0,1,13,ON BROWN AT 29TH WESTBOUND,39.142933,-94.660736
1060051,201204-AVLApSa1-Saturday-01,0,1,13,ON BROWN AT 30TH WESTBOUND,39.14296,-94.661751
1060053,201204-AVLApSa1-Saturday-01,0,1,13,ON BROWN AT 32ND WESTBOUND,39.142944,-94.664177
1060057,201204-AVLApSa1-Saturday-01,0,1,14,ON FARROW AT 32ND EASTBOUND,39.14447,-94.664764
1060058,201204-AVLApSa1-Saturday-01,0,1,14,ON FARROW AT 30TH EASTBOUND,39.144451,-94.66243
1060059,201204-AVLApSa1-Saturday-01,0,1,14,ON FARROW AT 29TH EASTBOUND,39.14444,-94.660599
1060066,201204-AVLApSa1-Saturday-01,0,1,14,ON QUINDARO AT 20TH EASTBOUND,39.13895,-94.65255
1060067,201204-AVLApSa1-Saturday-01,0,1,14,ON QUINDARO AT 18TH EASTBOUND,39.138592,-94.651108
1060071,201204-AVLApSa1-Saturday-01,0,1,14,ON QUINDARO AT 12TH EASTBOUND,39.136093,-94.640945
1060074,201204-AVLApSa1-Saturday-01,0,1,14,ON QUINDARO AT 9TH EASTBOUND,39.133987,-94.632378
1060077,201204-AVLApSa1-Saturday-01,0,1,14,ON QUINDARO AT ALLIS EASTBOUND,39.132111,-94.628128
1060079,201204-AVLApSa1-Saturday-01,0,1,14,ON 7TH AT LAFAYETTE SOUTHBOUND,39.130234,-94.626869
1060080,201204-AVLApSa1-Saturday-01,0,1,14,ON 7TH AT STEWART SOUTHBOUND,39.129391,-94.626862
1060084,201204-AVLApSa1-Saturday-01,0,1,14,ON 7TH AT NEW JERSEY SOUTHBOUND,39.122501,-94.626839
1060085,201204-AVLApSa1-Saturday-01,0,1,14,ON 7TH AT OAKLAND SOUTHBOUND,39.120552,-94.626869
10601,201204-AVLApSa1-Saturday-01,0,1,13,ON JAMES STREET AT 346 JAMES STREET WB,39.109547,-94.613731
1060101,201204-AVLApSa1-Saturday-01,0,1,14,ON BROADWAY AT 9TH SOUTHBOUND,39.103786,-94.58831
1060102,201204-AVLApSa1-Saturday-01,0,1,14,ON 10TH AT BROADWAY EASTBOUND,39.10231,-94.588181
1060201,201204-AVLApSa1-Saturday-01,0,1,13,ON 38TH AT WALKER SOUTHBOUND,39.123203,-94.673386
1060202,201204-AVLApSa1-Saturday-01,0,1,13,ON 38TH AT OAKLAND SOUTHBOUND,39.121532,-94.673386
1060203,201204-AVLApSa1-Saturday-01,0,1,13,ON 38TH AT EVERETT SOUTHBOUND,39.120438,-94.673409
1060204,201204-AVLApSa1-Saturday-01,0,1,13,ON 38TH AT 1151 N 38TH SOUTHBOUND,39.117599,-94.673447
1060216,201204-AVLApSa1-Saturday-01,0,1,14,ON 34TH AT LAFAYETTE NORTHBOUND,39.130096,-94.668747
1060219,201204-AVLApSa1-Saturday-01,0,1,13,ON BROWN AT 27TH WESTBOUND,39.142956,-94.659279
1060222,201204-AVLApSa1-Saturday-01,0,1,13,ON PRAUN AT PARALLEL SOUTHBOUND,39.126575,-94.67437
1062501,201204-AVLApSa1-Saturday-01,0,1,14,ON 34TH AT PARALLEL NB,39.128563,-94.668762
1062503,201204-AVLApSa1-Saturday-01,0,1,14,ON QUINDARO AT 13TH EB,39.136639,-94.643135
1062505,201204-AVLApSa1-Saturday-01,0,1,14,ON 7TH AT PARALLEL SB,39.128304,-94.626892
1070004,201204-AVLApSa1-Saturday-01,0,1,14,ON 38TH AT WALKER NORTHBOUND,39.123207,-94.673225
1070031,201204-AVLApSa1-Saturday-01,0,1,14,ON 7TH AT MINNESOTA SOUTHBOUND,39.115601,-94.626839
1070035,201204-AVLApSa1-Saturday-01,0,1,13,ON 7TH AT ORVILLE SOUTHBOUND,39.109955,-94.626823
1070037,201204-AVLApSa1-Saturday-01,0,1,13,ON 7TH AT NORTHRUP SOUTHBOUND,39.107327,-94.626831
1070039,201204-AVLApSa1-Saturday-01,0,1,13,ON 7TH AT REYNOLDS SOUTHBOUND,39.104595,-94.626831
1070054,201204-AVLApSa1-Saturday-01,0,1,13,ON RAINBOW AT 35TH SOUTHBOUND,39.060905,-94.613167
1070055,201204-AVLApSa1-Saturday-01,0,1,13,ON RAINBOW AT 36TH SOUTHBOUND,39.060509,-94.613144
1070056,201204-AVLApSa1-Saturday-01,0,1,13,ON RAINBOW AT 39TH SOUTHBOUND,39.057434,-94.611969
1070057,201204-AVLApSa1-Saturday-01,0,1,13,ON RAINBOW AT MARTY SOUTHBOUND,39.056236,-94.611908
1070058,201204-AVLApSa1-Saturday-01,0,1,13,ON RAINBOW AT OLATHE BLVD SOUTHBOUND,39.053516,-94.611931
1070060,201204-AVLApSa1-Saturday-01,0,1,13,ON RAINBOW AT 43RD SOUTHBOUND,39.050282,-94.612068
1070064,201204-AVLApSa1-Saturday-01,0,1,13,ON RAINBOW AT OLATHE BLVD  NORTHBOUND,39.053616,-94.611702
1070067,201204-AVLApSa1-Saturday-01,0,1,13,ON RAINBOW AT 36TH NORTHBOUND,39.060169,-94.612885
1070081,201204-AVLApSa1-Saturday-01,0,1,13,ON 7TH AT KANSAS NORTHBOUND,39.087418,-94.625763
1070082,201204-AVLApSa1-Saturday-01,0,1,13,ON 7TH AT PACIFIC NORTHBOUND,39.098915,-94.626007
1070084,201204-AVLApSa1-Saturday-01,0,1,13,ON 7TH AT CENTRAL NORTHBOUND,39.102623,-94.626106
1070088,201204-AVLApSa1-Saturday-01,0,1,13,ON 7TH AT OHIO NORTHBOUND,39.108044,-94.626663
1070089,201204-AVLApSa1-Saturday-01,0,1,13,ON 7TH AT ORVILLE NORTHBOUND,39.109776,-94.626656
1070090,201204-AVLApSa1-Saturday-01,0,1,13,ON 7TH AT TAUROMEE NORTHBOUND,39.11161,-94.626663
1070091,201204-AVLApSa1-Saturday-01,0,2,25,ON 7TH AT BARNETT NORTHBOUND,39.112858,-94.626663
1070121,201204-AVLApSa1-Saturday-01,0,1,13,ON 7TH ST AT STATE AVE NORTHBOUND,39.116444,-94.626678
1070123,201204-AVLApSa1-Saturday-01,0,1,13,ON RAINBOW AT 45TH NORTHBOUND,39.046227,-94.611801
1070124,201204-AVLApSa1-Saturday-01,0,1,26,ON 43RD AT BOOTH WESTBOUND,39.050289,-94.613747
1070125,201204-AVLApSa1-Saturday-01,0,1,13,ON 43RD AT FISHER WESTBOUND,39.050316,-94.616852
1070126,201204-AVLApSa1-Saturday-01,0,1,13,ON 43RD AT MINNIE WESTBOUND,39.050255,-94.619171
1070127,201204-AVLApSa1-Saturday-01,0,1,13,ON MISSION AT SENECA SOUTHBOUND,39.049397,-94.621368
1070129,201204-AVLApSa1-Saturday-01,0,1,13,ON 47TH AT MISSION EASTBOUND,39.043926,-94.620338
1070130,201204-AVLApSa1-Saturday-01,0,1,13,ON 47TH AT ADAMS EASTBOUND,39.043999,-94.613205
1070131,201204-AVLApSa1-Saturday-01,0,1,13,ON RAINBOW AT 47TH NORTHBOUND,39.044292,-94.611824
107050,201204-AVLApSa1-Saturday-01,0,1,13,ON RAINBOW AT SW BLVD SOUTHBOUND,39.06628,-94.61322
1072506,201204-AVLApSa1-Saturday-01,0,1,13,ON RAINBOW AT 3948 RAINBOW SB,39.055595,-94.611908
10801,201204-AVLApSa1-Saturday-01,0,1,32,ON INDIANA AT 24TH TERR NB,39.081551,-94.542976
1080112,201204-AVLApSa1-Saturday-01,0,2,86,ON SWOPE PKWY AT BLUE PKWY NB,39.035805,-94.543228
1080115,201204-AVLApSa1-Saturday-01,0,1,33,ON BENTON AT 47TH TERR NORTHBOUND,39.039612,-94.542114
1080116,201204-AVLApSa1-Saturday-01,0,1,33,ON BENTON AT 46TH TERR NORTHBOUND,39.040733,-94.543243
1080117,201204-AVLApSa1-Saturday-01,0,1,33,ON INDIANA AT 45TH TERR NORTHBOUND,39.043217,-94.544937
1080118,201204-AVLApSa1-Saturday-01,0,1,33,ON INDIANA AT 45TH NORTHBOUND,39.044189,-94.544868
1080121,201204-AVLApSa1-Saturday-01,0,1,33,ON INDIANA AT 4209 NORTHBOUND,39.050041,-94.544556
1080122,201204-AVLApSa1-Saturday-01,0,1,33,ON INDIANA AT 41ST NORTHBOUND,39.051434,-94.544525
1080123,201204-AVLApSa1-Saturday-01,0,1,33,ON INDIANA AT 40TH NORTHBOUND,39.053219,-94.544418
1080126,201204-AVLApSa1-Saturday-01,0,1,33,ON INDIANA AT 37TH NORTHBOUND,39.05864,-94.544144
1080128,201204-AVLApSa1-Saturday-01,0,1,33,ON INDIANA AT 35TH NORTHBOUND,39.062263,-94.54393
1080131,201204-AVLApSa1-Saturday-01,0,1,33,ON INDIANA AT LINWOOD NORTHBOUND,39.067657,-94.543694
1080134,201204-AVLApSa1-Saturday-01,0,1,32,ON INDIANA AT 30TH NORTHBOUND,39.071255,-94.54351
1080136,201204-AVLApSa1-Saturday-01,0,1,32,ON INDIANA AT 28TH NORTHBOUND,39.074875,-94.543335
1080139,201204-AVLApSa1-Saturday-01,0,1,32,ON INDIANA AT 26TH NORTHBOUND,39.078476,-94.543137
1080140,201204-AVLApSa1-Saturday-01,0,1,32,ON INDIANA AT 25TH NORTHBOUND,39.080311,-94.543068
1080141,201204-AVLApSa1-Saturday-01,0,1,32,ON INDIANA AT 24TH NORTHBOUND,39.082695,-94.542946
1080144,201204-AVLApSa1-Saturday-01,0,1,32,ON INDIANA AT 20TH NORTHBOUND,39.088032,-94.542648
1080153,201204-AVLApSa1-Saturday-01,0,1,32,ON 18TH AT PROSPECT WESTBOUND,39.090862,-94.551682
1080157,201204-AVLApSa1-Saturday-01,0,1,32,ON 18TH AT WOODLAND WESTBOUND,39.091129,-94.560944
1080160,201204-AVLApSa1-Saturday-01,0,1,32,ON 18TH AT GROVE WESTBOUND,39.091248,-94.565514
1080161,201204-AVLApSa1-Saturday-01,0,1,32,ON 18TH AT LYDIA WESTBOUND,39.09132,-94.566933
1080204,201204-AVLApSa1-Saturday-01,0,1,31,ON 18TH AT VINE EASTBOUND,39.09111,-94.563477
1080206,201204-AVLApSa1-Saturday-01,0,1,31,ON 18TH AT WOODLAND EASTBOUND,39.091038,-94.56115
1080207_merged_71000137,201204-AVLApSa1-Saturday-01,0,1,31,ON 18TH AT EUCLID EASTBOUND,39.090935,-94.557693
1080209,201204-AVLApSa1-Saturday-01,0,1,31,ON 18TH AT PARK EASTBOUND,39.090851,-94.555389
1080210,201204-AVLApSa1-Saturday-01,0,1,31,ON 18TH AT PROSPECT EASTBOUND,39.090771,-94.551895
1080216,201204-AVLApSa1-Saturday-01,0,1,20,ON TRUMAN AT INDIANA EASTBOUND,39.094318,-94.542549
1080221,201204-AVLApSa1-Saturday-01,0,1,31,ON INDIANA AT 23RD SOUTHBOUND,39.084324,-94.542999
1080224,201204-AVLApSa1-Saturday-01,0,1,31,ON INDIANA AT 26TH SOUTHBOUND,39.078663,-94.543282
1080225,201204-AVLApSa1-Saturday-01,0,1,31,ON INDIANA AT 27TH SOUTHBOUND,39.07679,-94.54335
1080226,201204-AVLApSa1-Saturday-01,0,1,31,ON INDIANA AT LOCKRIDGE SOUTHBOUND,39.075668,-94.543404
1080228,201204-AVLApSa1-Saturday-01,0,1,31,ON INDIANA AT VICTOR SOUTHBOUND,39.073467,-94.543518
1080229,201204-AVLApSa1-Saturday-01,0,1,31,ON INDIANA AT 29TH SOUTHBOUND,39.07243,-94.543564
1080230,201204-AVLApSa1-Saturday-01,0,1,31,ON INDIANA AT 30TH SOUTHBOUND,39.071396,-94.54361
1080231,201204-AVLApSa1-Saturday-01,0,1,33,ON INDIANA AT 31ST SOUTHBOUND,39.06958,-94.543694
1080233,201204-AVLApSa1-Saturday-01,0,1,33,ON INDIANA AT 33RD SOUTHBOUND,39.066013,-94.543869
1080234,201204-AVLApSa1-Saturday-01,0,1,33,ON INDIANA AT 34TH SOUTHBOUND,39.064201,-94.543968
1080235,201204-AVLApSa1-Saturday-01,0,1,33,ON INDIANA AT 35TH SOUTHBOUND,39.062424,-94.544052
1080236,201204-AVLApSa1-Saturday-01,0,1,33,ON INDIANA AT 36TH SOUTHBOUND,39.060619,-94.544167
1080239,201204-AVLApSa1-Saturday-01,0,1,33,ON INDIANA AT 39TH SOUTHBOUND,39.055161,-94.544418
1080242,201204-AVLApSa1-Saturday-01,0,1,33,ON INDIANA AT 4150 SOUTHBOUND,39.050045,-94.544754
1080243,201204-AVLApSa1-Saturday-01,0,1,33,ON INDIANA AT 43RD SOUTHBOUND,39.047928,-94.544792
1080244,201204-AVLApSa1-Saturday-01,0,1,33,ON INDIANA AT 44TH SOUTHBOUND,39.046154,-94.544899
1080248,201204-AVLApSa1-Saturday-01,0,1,33,ON BENTON AT 46TH TERR SOUTHBOUND,39.041992,-94.545074
1080251,201204-AVLApSa1-Saturday-01,0,1,11,ON BENTON AT SWOPE PKWY SOUTHBOUND,39.036808,-94.543259
1080256,201204-AVLApSa1-Saturday-01,0,1,22,ON 51ST AT SHELTER BETWEEN CLEV/SWOPE WESTBOUND,39.033344,-94.541962
1080303,201204-AVLApSa1-Saturday-01,0,1,31,ON 18TH AT INDIANA EASTBOUND,39.090412,-94.542717
1080305,201204-AVLApSa1-Saturday-01,0,1,32,ON 18TH AT WALROND WESTBOUND,39.090603,-94.54528
1080306,201204-AVLApSa1-Saturday-01,0,1,32,ON 18TH AT KANSAS WESTBOUND,39.090721,-94.548073
1080307,201204-AVLApSa1-Saturday-01,0,1,32,ON 18TH AT BENTON WESTBOUND,39.090748,-94.549469
1082302,201204-AVLApSa1-Saturday-01,0,1,33,ON INDIANA AT 32ND ST SOUTHBOUND,39.068764,-94.543747
1082304,201204-AVLApSa1-Saturday-01,0,1,33,ON BENTON AT INDIANA NORTHWESTBOUND,39.042095,-94.544922
1082306,201204-AVLApSa1-Saturday-01,0,1,32,ON 18TH AT AGNES WESTBOUND,39.090702,-94.547066
1090013,201204-AVLApSa1-Saturday-01,0,1,21,ON 9TH AT HARDESTY WESTBOUND,39.101501,-94.519127
1090015,201204-AVLApSa1-Saturday-01,0,1,21,ON 9TH AT BRIGHTON WESTBOUND,39.101639,-94.523537
1090022,201204-AVLApSa1-Saturday-01,0,1,21,ON 9TH AT MYRTLE WESTBOUND,39.102043,-94.535347
1090023,201204-AVLApSa1-Saturday-01,0,1,21,ON 9TH AT CLEVELAND WESTBOUND,39.102028,-94.537582
1090025,201204-AVLApSa1-Saturday-01,0,1,21,ON 9TH AT INDIANA WESTBOUND,39.102234,-94.542664
1090030,201204-AVLApSa1-Saturday-01,0,1,20,ON 9TH AT OLIVE WESTBOUND,39.102585,-94.553452
1090031,201204-AVLApSa1-Saturday-01,0,1,20,ON 9TH AT BROOKLYN WESTBOUND,39.102642,-94.555763
1090032,201204-AVLApSa1-Saturday-01,0,1,20,ON 9TH AT EUCLID WESTBOUND,39.102661,-94.556938
1090033,201204-AVLApSa1-Saturday-01,0,1,20,ON 9TH AT WOODLAND WESTBOUND,39.102852,-94.560326
1090039,201204-AVLApSa1-Saturday-01,0,5,137,ON 11TH AT TROOST WESTBOUND,39.100689,-94.570007
1090042,201204-AVLApSa1-Saturday-01,0,5,137,ON 11TH AT CHERRY WESTBOUND,39.100914,-94.576065
1090053,201204-AVLApSa1-Saturday-01,0,2,28,ON 10TH AT CHARLOTTE EASTBOUND,39.101959,-94.573929
1090055,201204-AVLApSa1-Saturday-01,0,2,28,ON 10TH AT TROOST EASTBOUND,39.10186,-94.56987
1090059,201204-AVLApSa1-Saturday-01,0,2,28,ON MARYLOU WMS AT HIGHLAND EB,39.102249,-94.561798
1090061,201204-AVLApSa1-Saturday-01,0,1,20,ON 9TH AT WOODLAND EASTBOUND,39.102715,-94.560318
1090067,201204-AVLApSa1-Saturday-01,0,1,21,ON 9TH AT AGNES EASTBOUND,39.10228,-94.546989
1090068,201204-AVLApSa1-Saturday-01,0,1,21,ON 9TH AT BELLEFONTAINE EASTBOUND,39.102261,-94.54615
1090069,201204-AVLApSa1-Saturday-01,0,1,21,ON 9TH AT BENTON EASTBOUND,39.102188,-94.544357
1090071,201204-AVLApSa1-Saturday-01,0,1,21,ON 9TH AT BALES EASTBOUND,39.102055,-94.539925
1090072,201204-AVLApSa1-Saturday-01,0,1,21,ON 9TH AT CLEVELAND EASTBOUND,39.101944,-94.537498
1090074,201204-AVLApSa1-Saturday-01,0,1,21,ON 9TH AT JACKSON EASTBOUND,39.101891,-94.533173
1090075,201204-AVLApSa1-Saturday-01,0,1,21,ON 9TH AT 9TH TERRACE EASTBOUND,39.101826,-94.531105
1090077,201204-AVLApSa1-Saturday-01,0,2,32,ON 9TH AT ELMWOOD EASTBOUND,39.101707,-94.528336
1090079,201204-AVLApSa1-Saturday-01,0,1,21,ON 9TH AT BRIGHTON EASTBOUND,39.101559,-94.52372
1090081,201204-AVLApSa1-Saturday-01,0,1,21,ON 9TH AT HARDESTY EASTBOUND,39.101387,-94.519119
1090082,201204-AVLApSa1-Saturday-01,0,1,21,ON 9TH ST AT WINNER EB,39.10083,-94.51622
1090084,201204-AVLApSa1-Saturday-01,0,1,21,ON WINNER AT TOPPING EB,39.101173,-94.51445
1090099,201204-AVLApSa1-Saturday-01,0,2,40,ON WHITE AT INDEPENDENCE AVE SOUTHBOUND,39.104774,-94.511276
1090100,201204-AVLApSa1-Saturday-01,0,2,40,ON WHITE AT WINNER SOUTHBOUND,39.10318,-94.511345
1090102,201204-AVLApSa1-Saturday-01,0,1,21,ON WINNER AT TOPPING SOUTHBOUND,39.101387,-94.514336
1092500,201204-AVLApSa1-Saturday-01,0,1,21,ON 9TH AT MONROE EB,39.101997,-94.539047
110000,201204-AVLApSa1-Saturday-01,0,1,16,AT 44TH & BROOKLYN LOOP NORTHBOUND,39.046494,-94.558334
110001,201204-AVLApSa1-Saturday-01,0,1,8,ON BROOKLYN AT 43RD NORTHBOUND,39.04826,-94.558533
110003,201204-AVLApSa1-Saturday-01,0,1,8,ON BROOKLYN AT 41ST NORTHBOUND,39.05191,-94.558372
110006,201204-AVLApSa1-Saturday-01,0,1,8,ON BROOKLYN AT 38TH NORTHBOUND,39.057373,-94.55793
110007,201204-AVLApSa1-Saturday-01,0,1,8,ON BROOKLYN AT 37TH NORTHBOUND,39.059307,-94.557823
110008,201204-AVLApSa1-Saturday-01,0,1,8,ON BROOKLYN AT 36TH NORTHBOUND,39.060894,-94.557861
110011,201204-AVLApSa1-Saturday-01,0,1,8,ON BROOKLYN AT 33RD NORTHBOUND,39.066338,-94.557594
110013,201204-AVLApSa1-Saturday-01,0,1,8,ON BROOKLYN AT 31ST NORTHBOUND,39.069904,-94.557419
110014,201204-AVLApSa1-Saturday-01,0,1,8,ON BROOKLYN AT 30TH NORTHBOUND,39.071754,-94.55732
110016,201204-AVLApSa1-Saturday-01,0,1,8,ON BROOKLYN AT 28TH NORTHBOUND,39.075352,-94.557121
110017,201204-AVLApSa1-Saturday-01,0,1,8,ON BROOKLYN AT 27TH NORTHBOUND,39.077171,-94.55703
110018,201204-AVLApSa1-Saturday-01,0,1,8,ON BROOKLYN AT 26TH NORTHBOUND,39.078964,-94.556961
110020,201204-AVLApSa1-Saturday-01,0,1,16,ON 25TH AT EUCLID WESTBOUND,39.08099,-94.559143
110024,201204-AVLApSa1-Saturday-01,0,1,8,ON VINE AT 24TH NORTHBOUND,39.083336,-94.563667
110026,201204-AVLApSa1-Saturday-01,0,1,8,ON VINE AT 22ND NORTHBOUND,39.085804,-94.56353
110028,201204-AVLApSa1-Saturday-01,0,1,8,ON VINE AT 19TH NORTHBOUND,39.089733,-94.563354
110030,201204-AVLApSa1-Saturday-01,0,2,39,ON 18TH AT HIGHLAND EASTBOUND,39.091072,-94.562271
110031,201204-AVLApSa1-Saturday-01,0,1,8,ON WOODLAND AT 17TH  TER NB,39.091885,-94.560905
110034,201204-AVLApSa1-Saturday-01,0,1,8,ON WOODLAND AT TRUMAN NORTHBOUND,39.094933,-94.560791
110035,201204-AVLApSa1-Saturday-01,0,1,8,ON WOODLAND AT 14TH NORTHBOUND,39.096298,-94.560699
110038,201204-AVLApSa1-Saturday-01,0,2,52,ON ELLA FITZGERALD AT BASIE ST WESTBOUND,39.100296,-94.562454
110040,201204-AVLApSa1-Saturday-01,0,3,72,ON 11TH AT TRACY WESTBOUND,39.10062,-94.567368
110045,201204-AVLApSa1-Saturday-01,0,5,137,ON 11TH AT LOCUST WESTBOUND,39.100948,-94.577232
110046,201204-AVLApSa1-Saturday-01,0,5,137,ON 11TH AT OAK WESTBOUND,39.100986,-94.578331
110050,201204-AVLApSa1-Saturday-01,0,4,60,ON WALNUT BETWEEN 9TH AND 8TH NORTHBOUND,39.103954,-94.581749
110055,201204-AVLApSa1-Saturday-01,0,3,56,ON GRAND AT INDEPENDENCE AVE SOUTHBOUND,39.10743,-94.580116
110064,201204-AVLApSa1-Saturday-01,0,2,28,ON 10TH AT HOLMES EASTBOUND,39.101997,-94.575043
110075,201204-AVLApSa1-Saturday-01,0,1,8,ON WOODLAND AT 11TH SOUTHBOUND,39.100498,-94.560631
110076,201204-AVLApSa1-Saturday-01,0,1,8,ON WOODLAND AT ELLA FITZGERALD SOUTHBOUND,39.099289,-94.560707
110080,201204-AVLApSa1-Saturday-01,0,1,8,ON WOODLAND AT 15TH TERRACE SOUTHBOUND,39.094196,-94.560982
110081,201204-AVLApSa1-Saturday-01,0,1,8,ON WOODLAND AT 16TH SOUTHBOUND,39.093193,-94.560989
110084,201204-AVLApSa1-Saturday-01,0,1,8,ON VINE AT 19TH SOUTHBOUND,39.089874,-94.563454
110086,201204-AVLApSa1-Saturday-01,0,1,8,ON VINE AT 22ND SOUTHBOUND,39.085968,-94.563644
110088,201204-AVLApSa1-Saturday-01,0,1,8,ON 24TH BETWEEN VINE & HIGHLAND EB,39.08337,-94.56321
110091,201204-AVLApSa1-Saturday-01,0,1,8,ON 24TH AT 2027 E 24TH EASTBOUND,39.083241,-94.559128
110095,201204-AVLApSa1-Saturday-01,0,1,8,ON EUCLID BETWEEN 25TH & 26TH SB,39.080395,-94.559402
110098,201204-AVLApSa1-Saturday-01,0,1,8,ON BROOKLYN AT 28TH SOUTHBOUND,39.075489,-94.55722
110101,201204-AVLApSa1-Saturday-01,0,1,8,ON BROOKLYN AT 31ST SOUTHBOUND,39.070072,-94.557518
110103,201204-AVLApSa1-Saturday-01,0,1,8,ON BROOKLYN AT 33RD SOUTHBOUND,39.066475,-94.557693
110107,201204-AVLApSa1-Saturday-01,0,1,8,ON BROOKLYN AT 37TH SOUTHBOUND,39.059601,-94.558052
110108,201204-AVLApSa1-Saturday-01,0,1,8,ON BROOKLYN AT 38TH SOUTHBOUND,39.057312,-94.558037
110111,201204-AVLApSa1-Saturday-01,0,1,8,ON BROOKLYN AT 41ST SOUTHBOUND,39.052071,-94.558495
110112,201204-AVLApSa1-Saturday-01,0,1,8,ON BROOKLYN AT 42ND SOUTHBOUND,39.050262,-94.558586
110113,201204-AVLApSa1-Saturday-01,0,1,8,ON BROOKLYN AT 43RD SOUTHBOUND,39.048424,-94.558647
113016,201204-AVLApSa1-Saturday-01,0,1,12,ON PARALLEL AVE AT N  88TH ST  EASTBOUND,39.128483,-94.78331
113033,201204-AVLApSa1-Saturday-01,0,1,12,ON PROVIDENCE MEDICAL CTR DR  WESTBOUND,39.127956,-94.787628
114004,201204-AVLApSa1-Saturday-01,0,1,12,ON STATE AVE  AT N  52ND ST  WESTBOUND,39.116692,-94.697151
114005,201204-AVLApSa1-Saturday-01,0,1,12,ON STATE AVE  AT N  55TH ST  WESTBOUND,39.116756,-94.704979
114006,201204-AVLApSa1-Saturday-01,0,1,12,ON STATE AVE  AT N  59TH PL WB,39.116802,-94.716255
114009,201204-AVLApSa1-Saturday-01,0,1,12,ON STATE AVE  AT CAMPUS BLVD  WESTBOUND,39.116779,-94.746826
114010,201204-AVLApSa1-Saturday-01,0,1,12,ON STATE AVE AT N 69TH ST WESTBOUND,39.116859,-94.737747
114013,201204-AVLApSa1-Saturday-01,0,1,12,ON STATE AVE  AT N  78TH ST  WESTBOUND,39.116493,-94.760719
114020,201204-AVLApSa1-Saturday-01,0,1,12,ON N  82ND ST  AT WASHINGTON AVE  SOUTHBOUND,39.118835,-94.76989
114021,201204-AVLApSa1-Saturday-01,0,1,12,ON N  82ND ST  AT TROUP AVE  SOUTHBOUND,39.127445,-94.769974
114036,201204-AVLApSa1-Saturday-01,0,1,12,ON STATE AVE  AT N  75TH PL  EASTBOUND,39.116322,-94.754456
114040,201204-AVLApSa1-Saturday-01,0,1,12,ON STATE AVE  AT N  69TH ST  EASTBOUND,39.11665,-94.73745
114041,201204-AVLApSa1-Saturday-01,0,1,12,ON STATE AVE AT N 65TH ST EASTBOUND,39.116562,-94.726639
114043,201204-AVLApSa1-Saturday-01,0,1,12,ON STATE AVE  AT N  59TH PL  EASTBOUND,39.116543,-94.714561
114044,201204-AVLApSa1-Saturday-01,0,1,12,ON STATE AVE  AT N  57TH ST  EASTBOUND,39.116501,-94.709976
114046,201204-AVLApSa1-Saturday-01,0,1,12,ON STATE AVE  AT N  52ND ST  EASTBOUND,39.116459,-94.697372
114047,201204-AVLApSa1-Saturday-01,0,1,12,ON STATE AVE  AT N  50TH ST  EASTBOUND,39.116447,-94.692924
1142500,201204-AVLApSa1-Saturday-01,0,1,12,ON STATE AVE AT 79TH WB,39.116482,-94.764099
1142503,201204-AVLApSa1-Saturday-01,0,1,12,ON STATE AVE AT COLLEGE PKWY EB,39.116516,-94.743561
1142700,201204-AVLApSa1-Saturday-01,0,1,12,ON STATE AVE AT 66TH WB,39.116844,-94.732185
1200005,201204-AVLApSa1-Saturday-01,0,1,20,ON TRUMAN AT BELMONT WESTBOUND,39.093876,-94.510056
1200006,201204-AVLApSa1-Saturday-01,0,1,20,ON TRUMAN AT WHITE WESTBOUND,39.093933,-94.512604
1200008,201204-AVLApSa1-Saturday-01,0,1,20,ON TRUMAN AT OAKLEY WESTBOUND,39.094059,-94.516907
1200011,201204-AVLApSa1-Saturday-01,0,1,20,ON TRUMAN AT VAN BRNT BLVD WESTBOUND,39.094212,-94.523285
1200012,201204-AVLApSa1-Saturday-01,0,1,20,ON TRUMAN AT CHELSEA WESTBOUND,39.094265,-94.525612
1200015,201204-AVLApSa1-Saturday-01,0,1,20,ON TRUMAN AT KENSINGTON WESTBOUND,39.093983,-94.530701
1200018,201204-AVLApSa1-Saturday-01,0,1,20,ON TRUMAN AT CLEVELAND WESTBOUND,39.094254,-94.537933
1200025,201204-AVLApSa1-Saturday-01,0,1,24,ON 24TH AT VAN BRUNT WESTBOUND,39.081482,-94.521049
1200026,201204-AVLApSa1-Saturday-01,0,1,24,ON 24TH AT DENVER WESTBOUND,39.08165,-94.522209
1200030,201204-AVLApSa1-Saturday-01,0,1,24,ON 24TH AT KENSINGTON WESTBOUND,39.082226,-94.531631
1200031,201204-AVLApSa1-Saturday-01,0,1,24,ON 24TH AT JACKSON WESTBOUND,39.082272,-94.533745
1200035,201204-AVLApSa1-Saturday-01,0,1,24,ON JACKSON AT 19TH NORTHBOUND,39.088631,-94.533424
1200036,201204-AVLApSa1-Saturday-01,0,1,24,ON JACKSON AT 18TH NORTHBOUND,39.090042,-94.533333
1200039,201204-AVLApSa1-Saturday-01,0,1,24,ON JACKSON AT TRUMAN NORTHBOUND,39.093933,-94.533157
1200041,201204-AVLApSa1-Saturday-01,0,1,24,ON 12TH AT JACKSON  WESTBOUND,39.098217,-94.533218
1200044,201204-AVLApSa1-Saturday-01,0,1,24,ON 12TH AT CLEVELAND WESTBOUND,39.098396,-94.537514
1200048,201204-AVLApSa1-Saturday-01,0,1,24,ON 12TH AT BENTON BLVD WESTBOUND,39.098656,-94.544373
1200051,201204-AVLApSa1-Saturday-01,0,1,24,ON 12TH AT CHESTNUT WESTBOUND,39.098782,-94.549164
1200052,201204-AVLApSa1-Saturday-01,0,1,24,ON 12TH AT PROSPECT WESTBOUND,39.098866,-94.551308
1200053,201204-AVLApSa1-Saturday-01,0,1,44,ON 12TH AT WABASH WESTBOUND,39.098919,-94.552437
1200054,201204-AVLApSa1-Saturday-01,0,1,44,ON 12TH AT OLIVE WESTBOUND,39.098969,-94.553619
1200055,201204-AVLApSa1-Saturday-01,0,1,44,ON 12TH AT PARK WESTBOUND,39.098999,-94.554779
1200056,201204-AVLApSa1-Saturday-01,0,1,44,ON 12TH AT BROOKLYN WESTBOUND,39.099056,-94.556206
1200059,201204-AVLApSa1-Saturday-01,0,1,44,ON 12TH AT WOODLAND WESTBOUND,39.099247,-94.560524
1200065,201204-AVLApSa1-Saturday-01,0,5,137,ON 11TH AT HARRISON WESTBOUND,39.100742,-94.57122
1200076,201204-AVLApSa1-Saturday-01,0,1,44,ON 11TH AT WASHINGTON WESTBOUND,39.101116,-94.589912
1200077,201204-AVLApSa1-Saturday-01,0,1,44,ON 11TH AT PENNSYLVANIA WESTBOUND,39.101101,-94.591003
1200079,201204-AVLApSa1-Saturday-01,0,1,20,ON JEFFERSON AT 10TH NORTHBOUND,39.102417,-94.592094
1200084,201204-AVLApSa1-Saturday-01,0,1,24,ON 12TH AT GENESSEE WB,39.099934,-94.604599
1200087,201204-AVLApSa1-Saturday-01,0,2,18,ON BROADWAY AT BETWEEN 13TH AND 14TH SOUTHBOUND,39.098099,-94.588531
1200098,201204-AVLApSa1-Saturday-01,0,1,20,ON TRUMAN AT ELMWOOD EASTBOUND,39.094097,-94.528969
1200100,201204-AVLApSa1-Saturday-01,0,1,25,ON WYOMING AT 16TH NORTHBOUND,39.094501,-94.603683
1200105,201204-AVLApSa1-Saturday-01,0,1,25,ON 12TH AT PENNSYLVANIA EASTBOUND,39.100163,-94.591286
1200116,201204-AVLApSa1-Saturday-01,0,2,18,ON BROADWAY AT 16TH  NORTHBOUND,39.09462,-94.588562
1200118,201204-AVLApSa1-Saturday-01,0,1,19,ON 8TH AT PENNSYLVANIA EASTBOUND,39.104736,-94.591057
1200121,201204-AVLApSa1-Saturday-01,0,1,19,ON PENNSYLVANIA AT 11TH SOUTHBOUND,39.101147,-94.591187
1200122,201204-AVLApSa1-Saturday-01,0,1,44,ON 12TH AT WASHINGTON EASTBOUND,39.100117,-94.590134
1200123,201204-AVLApSa1-Saturday-01,0,1,44,ON 12TH AT BROADWAY EASTBOUND,39.100063,-94.588554
1200129,201204-AVLApSa1-Saturday-01,0,5,187,ON 12TH AT LOCUST EASTBOUND,39.099663,-94.577591
1200133,201204-AVLApSa1-Saturday-01,0,1,44,ON 12TH AT TRACY EASTBOUND,39.099312,-94.567551
1200136,201204-AVLApSa1-Saturday-01,0,1,44,ON 12TH AT WOODLAND EASTBOUND,39.099068,-94.56076
1200137,201204-AVLApSa1-Saturday-01,0,1,44,ON 12TH AT EUCLID EASTBOUND,39.099045,-94.558418
1200138,201204-AVLApSa1-Saturday-01,0,1,44,ON 12TH AT GARFIELD EASTBOUND,39.09901,-94.557266
1200139,201204-AVLApSa1-Saturday-01,0,1,44,ON 12TH AT BROOKLYN EASTBOUND,39.098969,-94.556122
1200140,201204-AVLApSa1-Saturday-01,0,1,44,ON 12TH AT OLIVE EASTBOUND,39.098888,-94.553802
1200150,201204-AVLApSa1-Saturday-01,0,1,20,ON TRUMAN AT JACKSON EASTBOUND,39.093952,-94.533348
1200153,201204-AVLApSa1-Saturday-01,0,1,20,ON TRUMAN AT LAWN EASTBOUND,39.0942,-94.527992
1200154,201204-AVLApSa1-Saturday-01,0,1,20,ON TRUMAN AT LISTER EASTBOUND,39.094147,-94.526863
1200155,201204-AVLApSa1-Saturday-01,0,1,20,ON TRUMAN AT CHELSEA EASTBOUND,39.094109,-94.525787
1200161,201204-AVLApSa1-Saturday-01,0,1,20,ON TRUMAN AT WHITE EASTBOUND,39.093849,-94.51252
1200164,201204-AVLApSa1-Saturday-01,0,1,20,ON TRUMAN AT BENNINGTON EASTBOUND,39.0937,-94.505653
1200165,201204-AVLApSa1-Saturday-01,0,1,20,ON TRUMAN AT EWING EASTBOUND,39.093636,-94.503563
1200166,201204-AVLApSa1-Saturday-01,0,1,20,ON TRUMAN AT WINCHESTER EASTBOUND,39.093559,-94.501122
1200167,201204-AVLApSa1-Saturday-01,0,1,20,ON CORRINGTON AT 16TH SOUTHBOUND,39.092346,-94.498856
1200169,201204-AVLApSa1-Saturday-01,0,1,44,ON 12TH AT PROSPECT EASTBOUND,39.098789,-94.551491
1200170,201204-AVLApSa1-Saturday-01,0,1,25,ON 12TH AT CHESTNUT EASTBOUND,39.098705,-94.549347
1200171,201204-AVLApSa1-Saturday-01,0,1,25,ON 12TH AT AGNES EASTBOUND,39.09864,-94.547211
1200188,201204-AVLApSa1-Saturday-01,0,1,25,ON JACKSON AT 23RD SOUTHBOUND,39.083748,-94.533791
1200189,201204-AVLApSa1-Saturday-01,0,1,25,ON 24TH AT JACKSON EASTBOUND,39.082191,-94.533661
1200190,201204-AVLApSa1-Saturday-01,0,1,25,ON 24TH AT KENSINGTON EASTBOUND,39.08215,-94.531807
1200193,201204-AVLApSa1-Saturday-01,0,1,25,ON 24TH AT POPLAR EASTBOUND,39.081936,-94.525688
1200194,201204-AVLApSa1-Saturday-01,0,1,25,ON 24TH AT QUINCY EASTBOUND,39.08176,-94.523521
1200195,201204-AVLApSa1-Saturday-01,0,1,25,ON 24TH AT DENVER EASTBOUND,39.081501,-94.521797
1200196,201204-AVLApSa1-Saturday-01,0,1,25,ON VAN BRUNT AT 23RD NORTHBOUND,39.083195,-94.521027
1200203,201204-AVLApSa1-Saturday-01,0,1,23,ON 20TH AT HARDESTY EASTBOUND,39.086807,-94.519814
1200204,201204-AVLApSa1-Saturday-01,0,1,6,ON NOWLIN HALL AT 19TH NORTHBOUND,39.088211,-94.518799
1201,201204-AVLApSa1-Saturday-01,0,1,25,ON 12TH AT ILLINOIS EB,39.098583,-94.545753
1210009,201204-AVLApSa1-Saturday-01,0,1,12,ON CLEVELAND AT BLUE PKWY NORTHBOUND,39.035892,-94.540733
1210010,201204-AVLApSa1-Saturday-01,0,1,12,ON CLEVELAND AT CLEAVER II BLVD NB,39.038589,-94.540581
1210012,201204-AVLApSa1-Saturday-01,0,1,12,ON CLEVELAND AT 45TH NORTHBOUND,39.043987,-94.54026
1210014,201204-AVLApSa1-Saturday-01,0,1,12,ON CLEVELAND AT 43RD NS NB,39.047604,-94.540077
1210018,201204-AVLApSa1-Saturday-01,0,1,12,ON CLEVELAND AT 39TH NORTHBOUND,39.054901,-94.539719
1210019,201204-AVLApSa1-Saturday-01,0,1,12,ON CLEVELAND AT 37TH NORTHBOUND,39.05846,-94.539528
1210020,201204-AVLApSa1-Saturday-01,0,1,12,ON CLEVELAND AT 36TH NORTHBOUND,39.060303,-94.539421
1210021,201204-AVLApSa1-Saturday-01,0,1,12,ON CLEVELAND AT 35TH NORTHBOUND,39.06205,-94.539337
1210022,201204-AVLApSa1-Saturday-01,0,1,12,ON CLEVELAND AT 34TH NORTHBOUND,39.063904,-94.539223
1210023,201204-AVLApSa1-Saturday-01,0,1,12,ON CLEVELAND AT 33RD NORTHBOUND,39.065681,-94.539131
1210024,201204-AVLApSa1-Saturday-01,0,1,12,ON CLEVELAND AT LINWOOD NORTHBOUND,39.067478,-94.53904
1210025,201204-AVLApSa1-Saturday-01,0,1,12,ON CLEVELAND AT 31ST NORTHBOUND,39.069294,-94.538986
1210028,201204-AVLApSa1-Saturday-01,0,1,12,ON CLEVELAND AT 28TH NORTHBOUND,39.074722,-94.538712
1210029,201204-AVLApSa1-Saturday-01,0,1,12,ON CLEVELAND AT 27TH NORTHBOUND,39.076542,-94.538612
1210031,201204-AVLApSa1-Saturday-01,0,1,12,ON CLEVELAND AT 25TH NORTHBOUND,39.080143,-94.538437
1210032,201204-AVLApSa1-Saturday-01,0,1,12,ON CLEVELAND AT 24TH TERRACE NORTHBOUND,39.081432,-94.538383
1210034,201204-AVLApSa1-Saturday-01,0,1,12,ON CLEVELAND AT 23RD NORTHBOUND,39.083755,-94.538269
1210035,201204-AVLApSa1-Saturday-01,0,1,12,ON CLEVELAND AT 21ST NORTHBOUND,39.086086,-94.538139
1210036,201204-AVLApSa1-Saturday-01,0,1,12,ON CLEVELAND AT 19TH NORTHBOUND,39.088772,-94.53801
1210055,201204-AVLApSa1-Saturday-01,0,1,11,ON HARDESTY AT ST JOHN NORTHBOUND,39.11235,-94.518608
1210056,201204-AVLApSa1-Saturday-01,0,2,31,ON ST. JOHN AT DRURY EASTBOUND,39.112354,-94.517632
1210059,201204-AVLApSa1-Saturday-01,0,2,31,ON ST. JOHN AT TOPPING EASTBOUND,39.112232,-94.51413
1210066,201204-AVLApSa1-Saturday-01,0,1,20,ON BELMONT AT GLADSTONE NORTHBOUND INDIAN MOUND,39.119099,-94.509224
1210068,201204-AVLApSa1-Saturday-01,0,1,11,ON CHOUTEAU AT GARDNER NORTHBOUND,39.126995,-94.519501
1210078,201204-AVLApSa1-Saturday-01,0,1,11,ON FRONT AT CHOUTEAU EASTBOUND,39.130646,-94.522598
1210097,201204-AVLApSa1-Saturday-01,0,1,12,ON CHOUTEAU AT GARDNER SOUTHBOUND,39.127491,-94.520096
1210109,201204-AVLApSa1-Saturday-01,0,2,32,ON ST JOHN AT DRURY WESTBOUND,39.112438,-94.517418
1210110,201204-AVLApSa1-Saturday-01,0,1,12,ON HARDESTY AT ST JOHN SOUTHBOUND,39.112328,-94.518745
1210112,201204-AVLApSa1-Saturday-01,0,1,12,ON HARDESTY AT SMART SOUTHBOUND,39.108906,-94.518951
1210113,201204-AVLApSa1-Saturday-01,0,1,12,ON HARDESTY AT INDEPENDENCE AVE SOUTHBOUND,39.105267,-94.51915
1210116,201204-AVLApSa1-Saturday-01,0,2,65,ON INDEPENDENCE AVE AT BRIGHTON WB,39.1054,-94.523903
1210120,201204-AVLApSa1-Saturday-01,0,2,33,ON 9TH AT ELMWOOD WESTBOUND,39.10181,-94.528091
1210123,201204-AVLApSa1-Saturday-01,0,1,12,ON SPRUCE AT 12TH SOUTHBOUND,39.098236,-94.532585
1210127,201204-AVLApSa1-Saturday-01,0,2,32,ON TRUMAN AT 3824 EAST TRUMAN RD WESTBOUND,39.0942,-94.536812
1210128,201204-AVLApSa1-Saturday-01,0,1,11,ON CLEVELAND AT 16TH ST SB,39.093323,-94.537933
1210129,201204-AVLApSa1-Saturday-01,0,1,11,ON CLEVELAND AT 18TH SOUTHBOUND,39.090412,-94.538071
1210130,201204-AVLApSa1-Saturday-01,0,1,11,ON CLEVELAND AT 19TH SOUTHBOUND,39.088955,-94.538147
1210131,201204-AVLApSa1-Saturday-01,0,1,11,ON CLEVELAND AT 21ST SOUTHBOUND,39.086044,-94.538292
1210132,201204-AVLApSa1-Saturday-01,0,1,11,ON CLEVELAND AT 23RD SOUTHBOUND,39.083942,-94.538399
1210136,201204-AVLApSa1-Saturday-01,0,1,11,ON CLEVELAND AT 26TH SOUTHBOUND,39.078323,-94.538689
1210137,201204-AVLApSa1-Saturday-01,0,1,11,ON CLEVELAND AT 27TH SOUTHBOUND,39.076729,-94.538742
1210138,201204-AVLApSa1-Saturday-01,0,1,11,ON CLEVELAND AT 28TH SOUTHBOUND,39.074905,-94.538849
1210142,201204-AVLApSa1-Saturday-01,0,1,11,ON CLEVELAND AT LINWOOD SOUTHBOUND,39.067665,-94.539185
1210143,201204-AVLApSa1-Saturday-01,0,1,11,ON CLEVELAND AT 33RD SOUTHBOUND,39.065868,-94.539276
1210145,201204-AVLApSa1-Saturday-01,0,1,11,ON CLEVELAND AT 35TH SOUTHBOUND,39.062233,-94.539474
1210147,201204-AVLApSa1-Saturday-01,0,1,11,ON CLEVELAND AT 37TH SOUTHBOUND,39.058647,-94.539665
1210154,201204-AVLApSa1-Saturday-01,0,1,11,ON CLEVELAND AT 45TH SOUTHBOUND,39.044174,-94.540398
1212500,201204-AVLApSa1-Saturday-01,0,1,21,ON 9TH AT MONROE WB,39.102108,-94.538803
1212705,201204-AVLApSa1-Saturday-01,0,1,11,ON HARDESTY AT ANDERSON NB,39.110523,-94.518738
122302,201204-AVLApSa1-Saturday-01,0,1,20,ON TRUMAN AT PROSPECT EASTBOUND FS,39.094681,-94.551476
122500,201204-AVLApSa1-Saturday-01,0,1,44,ON 12TH AT PARK EB,39.098904,-94.554993
122502,201204-AVLApSa1-Saturday-01,0,1,20,ON TRUMAN AT CORRINGTON EB,39.093388,-94.498871
122505,201204-AVLApSa1-Saturday-01,0,1,20,ON PROSPECT AT 13TH NB,39.097385,-94.551399
1240032,201204-AVLApSa1-Saturday-01,0,2,75,ON 12TH AT CHARLOTTE EASTBOUND,39.099552,-94.573738
1260007,201204-AVLApSa1-Saturday-01,0,1,11,ON MUNICIPAL AT 5300 MUNICIPAL WESTBOUND,39.135216,-94.520142
1260008,201204-AVLApSa1-Saturday-01,0,1,11,ON MUNICIPAL AT CHOUTEAU WESTBOUND,39.132881,-94.524437
1260040,201204-AVLApSa1-Saturday-01,0,3,60,ON MAIN AT 8TH SOUTHBOUND,39.104603,-94.583206
1260042,201204-AVLApSa1-Saturday-01,0,2,51,ON MAIN AT 10TH NORTH OF 10TH SOUTHBOUND,39.102367,-94.583099
1260082,201204-AVLApSa1-Saturday-01,0,1,12,ON MUNICIPAL AT 5304 MUNICIPAL EASTBOUND,39.135216,-94.519867
1260087,201204-AVLApSa1-Saturday-01,0,1,18,ON CHOUTEAU AT FRONT ST SOUTHBOUND,39.130894,-94.523003
1290010,201204-AVLApSa1-Saturday-01,0,1,6,ON PRAIRIE VIEW AT 64TH NORTHBOUND,39.210571,-94.64006
1292503,201204-AVLApSa1-Saturday-01,0,1,6,ON VIVION AT OLD PIKE WB,39.181072,-94.58123
1292504,201204-AVLApSa1-Saturday-01,0,1,6,ON VIVION AT KLAMM WB,39.179539,-94.608521
1292505,201204-AVLApSa1-Saturday-01,0,1,6,ON VIVION AT GATEWAY WB,39.178238,-94.612373
1320031,201204-AVLApSa1-Saturday-01,0,1,13,ON BURLINGTON AT E 16TH AVE SOUTHBOUND,39.137634,-94.580658
1320054,201204-AVLApSa1-Saturday-01,0,2,23,ON 8TH BETWEEN WALNUT AND GRAND EASTBOUND,39.104389,-94.581223
1320095,201204-AVLApSa1-Saturday-01,0,1,18,ON RANDOLPH AT 46TH ST SB,39.177475,-94.493721
132011,201204-AVLApSa1-Saturday-01,0,1,18,ON RANDOLPH AT PARVIN SOUTHBOUND,39.168617,-94.493912
1330002,201204-AVLApSa1-Saturday-01,0,1,6,ON VIVION AT CAMPBELL EB,39.181007,-94.569809
1330005,201204-AVLApSa1-Saturday-01,0,1,6,ON VIVION AT HIGHLAND EASTBOUND,39.180939,-94.559189
1330006,201204-AVLApSa1-Saturday-01,0,2,16,ON VIVION AT 48TH EASTBOUND,39.181137,-94.557289
1330010,201204-AVLApSa1-Saturday-01,0,2,16,ON VIVION AT OLIVE EASTBOUND,39.184772,-94.550804
1330012,201204-AVLApSa1-Saturday-01,0,5,77,ON ANTIOCH AT ANTIOCH SHOPPING CENTER,39.187786,-94.547737
1330049,201204-AVLApSa1-Saturday-01,0,1,10,ON SWIFT BETWEEN ARMOUR AND 19TH SB,39.141479,-94.577339
1330134,201204-AVLApSa1-Saturday-01,0,2,16,ON VIVION AT OLIVE WESTBOUND,39.184822,-94.55098
1330136,201204-AVLApSa1-Saturday-01,0,2,16,ON VIVION AT BROOKLYN WESTBOUND,39.183311,-94.55336
1330137,201204-AVLApSa1-Saturday-01,0,2,16,ON VIVION AT GARFIELD WESTBOUND,39.182339,-94.554817
1330139,201204-AVLApSa1-Saturday-01,0,1,6,ON VIVION AT HIGHLAND WESTBOUND,39.181065,-94.559204
1330141,201204-AVLApSa1-Saturday-01,0,1,6,ON VIVION AT DAVIDSON WESTBOUND,39.18111,-94.564568
1330142,201204-AVLApSa1-Saturday-01,0,1,6,ON VIVION AT CAMPBELL WESTBOUND,39.181137,-94.569107
1331009,201204-AVLApSa1-Saturday-01,0,5,145,ON GRAND AT 10TH SOUTHBOUND,39.102356,-94.580849
1350043,201204-AVLApSa1-Saturday-01,0,2,23,ON BURLINGTON AT E 10TH AVE SOUTHBOUND,39.126675,-94.580765
1350069,201204-AVLApSa1-Saturday-01,0,1,10,ON SWIFT AT E 14TH AVE NORTHBOUND,39.134533,-94.577316
1350091,201204-AVLApSa1-Saturday-01,0,1,11,ON CHOUTEAU AT RUSSELL RD NORTHBOUND,39.166382,-94.532028
1350110,201204-AVLApSa1-Saturday-01,0,1,11,ON CHOUTEAU AT PARVIN NORTHBOUND,39.162334,-94.53228
1350111,201204-AVLApSa1-Saturday-01,0,1,11,ON CHOUTEAU AT 38TH NORTHBOUND,39.162746,-94.532219
1360012,201204-AVLApSa1-Saturday-01,0,1,5,ON BARRY RD AT BOONE EASTBOUND,39.246288,-94.570206
1360013,201204-AVLApSa1-Saturday-01,0,1,10,ON NE VIVION RD AT JACKSON EASTBOUND,39.187923,-94.530533
1360024,201204-AVLApSa1-Saturday-01,0,1,5,ON N PROSPECT AT 68TH TERR NORTHBOUND,39.217571,-94.548462
1360033,201204-AVLApSa1-Saturday-01,0,1,5,ON N ANTIOCH AT WABASH SOUTHBOUND,39.207794,-94.548569
1360038,201204-AVLApSa1-Saturday-01,0,1,6,ON ENGLEWOOD AT WALNUT WESTBOUND,39.19603,-94.579727
1360040,201204-AVLApSa1-Saturday-01,0,1,6,ON ENGLEWOOD AT LIBERTY EASTBOUND,39.195755,-94.599365
1360041,201204-AVLApSa1-Saturday-01,0,1,6,ON ENGLEWOOD AT LIBERTY WESTBOUND,39.195877,-94.599129
1360042,201204-AVLApSa1-Saturday-01,0,1,6,ON ENGLEWOOD AT TRACY EASTBOUND,39.195492,-94.564957
1360043,201204-AVLApSa1-Saturday-01,0,1,6,ON ENGLEWOOD AT TRACY WESTBOUND,39.195614,-94.565178
136005,201204-AVLApSa1-Saturday-01,0,1,6,ON WAUKOMIS DR AT 64TH STREET NB,39.210194,-94.611931
136006,201204-AVLApSa1-Saturday-01,0,1,6,ON WAUKOMIS DR AT 64TH STREET SB,39.210175,-94.612099
13601,201204-AVLApSa1-Saturday-01,0,1,6,ON ENGLEWOOD AT TROOST EB,39.195538,-94.566872
13602,201204-AVLApSa1-Saturday-01,0,1,6,ON ENGLEWOOD AT TROOST WB,39.19566,-94.566635
13608,201204-AVLApSa1-Saturday-01,0,2,19,ON BARRY AT OVERLAND EB,39.246613,-94.640259
13609,201204-AVLApSa1-Saturday-01,0,2,19,ON BARRY AT OVERLAND WB,39.246784,-94.639999
13702,201204-AVLApSa1-Saturday-01,0,1,5,ON N PROSPECT AT 72ND NB,39.224056,-94.54837
1372701,201204-AVLApSa1-Saturday-01,0,1,5,ON BARRY RD AT 83RD EB,39.246357,-94.561974
1372801,201204-AVLApSa1-Saturday-01,0,1,5,ON ANTIOCH AT KENDALLWOOD/58TH TERR NB,39.199562,-94.548531
1372802,201204-AVLApSa1-Saturday-01,0,1,5,ON N PROSPECT AT 70TH NB,39.220745,-94.548447
1372803,201204-AVLApSa1-Saturday-01,0,1,5,ON N PROSPECT AT 70TH SB,39.220932,-94.548599
1420001,201204-AVLApSa1-Saturday-01,0,2,18,ON 85TH TERR AT N OAK EASTBOUND,39.248486,-94.575935
1420002,201204-AVLApSa1-Saturday-01,0,1,13,ON N OAK AT NE 70TH ST SOUTHBOUND,39.221085,-94.57618
1420003,201204-AVLApSa1-Saturday-01,0,1,13,ON N OAK AT NE 67TH PL SOUTHBOUND,39.214581,-94.576195
1420004,201204-AVLApSa1-Saturday-01,0,1,13,ON N OAK AT NE 64TH ST SOUTHBOUND,39.210155,-94.576324
1420008,201204-AVLApSa1-Saturday-01,0,1,13,ON N OAK AT NE 54TH ST SOUTHBOUND,39.193546,-94.576591
1420012,201204-AVLApSa1-Saturday-01,0,1,13,ON N OAK AT NE 54TH ST NORTHBOUND,39.193558,-94.576424
1420014,201204-AVLApSa1-Saturday-01,0,1,13,ON N OAK AT WOODLAND DR NORTHBOUND,39.198936,-94.576385
1420018,201204-AVLApSa1-Saturday-01,0,1,13,ON N OAK AT NE 70TH ST NORTHBOUND,39.220924,-94.57605
1420020,201204-AVLApSa1-Saturday-01,0,2,19,ON BARRY RD AT THOMAS MEYER WB,39.246582,-94.594299
1420024,201204-AVLApSa1-Saturday-01,0,1,13,ON N OAK AT 6270 N OAK NORTHBOUND,39.20763,-94.57621
14201,201204-AVLApSa1-Saturday-01,0,1,13,ON NORTH OAK AT 51ST NB,39.186214,-94.576515
14202,201204-AVLApSa1-Saturday-01,0,1,13,ON NORTH OAK AT 51ST SB,39.186195,-94.576691
1420308,201204-AVLApSa1-Saturday-01,0,2,19,ON BARRY AT MARSTON WESTBOUND,39.246441,-94.607063
1420311,201204-AVLApSa1-Saturday-01,0,2,19,ON BARRY RD AT 3800 NW BARRY RD WESTBOUND,39.246578,-94.623192
1420312,201204-AVLApSa1-Saturday-01,0,2,19,ON BARRY RD BETWEEN ADRIAN AND GRANBY WESTBOUND,39.24662,-94.626106
1420313,201204-AVLApSa1-Saturday-01,0,2,19,ON BARRY RD AT WAUKOMIS  WB,39.246811,-94.642662
1420314,201204-AVLApSa1-Saturday-01,0,2,19,ON BARRY RD AT WAUKOMIS DR EB,39.246586,-94.643082
1420315,201204-AVLApSa1-Saturday-01,0,2,19,ON BARRY RD AT GRANBY EASTBOUND,39.246365,-94.626846
1420319,201204-AVLApSa1-Saturday-01,0,2,19,ON BARRY RD AT MARSTON EASTBOUND,39.246216,-94.607529
1420323,201204-AVLApSa1-Saturday-01,0,1,13,ON N OAK AT 43RD TERR SOUTHBOUND,39.172832,-94.576797
1422501,201204-AVLApSa1-Saturday-01,0,1,13,ON N OAK AT 59TH TERR SB,39.20174,-94.576439
1422701,201204-AVLApSa1-Saturday-01,0,3,25,ON ST CLAIR AT WAUKOMIS NW,39.249962,-94.647346
1550005,201204-AVLApSa1-Saturday-01,0,1,20,ON SWOPE PKWY AT 53RD TERR NORTHBOUND,39.029591,-94.542358
1550043,201204-AVLApSa1-Saturday-01,0,1,8,ON BROADWAY AT JC NICHOLS NORTHBOUND,39.041149,-94.59156
1550059,201204-AVLApSa1-Saturday-01,0,1,23,ON S WARD PKWY AT 48TH ST EB,39.039848,-94.591194
1550060,201204-AVLApSa1-Saturday-01,0,1,23,ON S WARD PKWY AT 235 EASTBOUND,39.040009,-94.589569
1550062,201204-AVLApSa1-Saturday-01,0,1,39,ON S WARD PKWY AT MAIN EB,39.03986,-94.587181
1550091,201204-AVLApSa1-Saturday-01,0,1,11,ON CLEVELAND AT 53RD SOUTHBOUND,39.029728,-94.541206
1550092,201204-AVLApSa1-Saturday-01,0,1,11,ON CLEVELAND AT 5404 CLEVELAND SOUTHBOUND,39.028008,-94.541275
1550093,201204-AVLApSa1-Saturday-01,0,2,31,ON SWOPE PKWY AT 5630 SWOPE PKWY SOUTHBOUND,39.024063,-94.541687
1550095,201204-AVLApSa1-Saturday-01,0,2,31,ON SWOPE PKWY AT 58TH SOUTHBOUND,39.020683,-94.541847
1552506,201204-AVLApSa1-Saturday-01,0,1,11,ON CLEVELAND AT 5200 SB,39.031883,-94.541077
1562305,201204-AVLApSa1-Saturday-01,0,1,14,ON CARONDELET AT 621 NORTHBOUND,38.935734,-94.60144
1562306,201204-AVLApSa1-Saturday-01,0,1,14,ON CARONDELET AT JEFFERSON EASTBOUND,38.936798,-94.599663
1562307,201204-AVLApSa1-Saturday-01,0,1,14,ON CARONDELET AT WORNALL EASTBOUND,38.93668,-94.596985
1562500,201204-AVLApSa1-Saturday-01,0,1,14,ON WORNALL AT 76TH SB,38.990742,-94.594421
16302,201204-AVLApSa1-Saturday-01,0,1,12,ON 63RD AT HARDESTY WB,39.015236,-94.518745
1632304,201204-AVLApSa1-Saturday-01,0,1,12,ON 63RD ST BETWEEN MANCHESTER AND ELMWOOD WB,39.0131,-94.529503
17102,201204-AVLApSa1-Saturday-01,0,1,14,ON PROSPECT AT 79TH SB,38.983433,-94.557701
17103,201204-AVLApSa1-Saturday-01,0,1,14,ON PROSPECT AT 80TH SB,38.981823,-94.557785
17109,201204-AVLApSa1-Saturday-01,0,1,13,ON PROSPECT AT 78TH NORTHBOUND,38.984905,-94.557503
17110,201204-AVLApSa1-Saturday-01,0,1,13,ON PROSPECT AT 77TH NORTHBOUND,38.98671,-94.557419
1730007,201204-AVLApSa1-Saturday-01,0,1,36,HARRAH'S EAST OF PARKING GARAGE FRONT OF CASINO,39.143581,-94.546448
173001,201204-AVLApSa1-Saturday-01,0,1,36,AMERISTAR CASINO'S KC CINEMA 18,39.15102,-94.486305
1730013,201204-AVLApSa1-Saturday-01,0,1,36,ON 210 HWY AT AMERISTAR DR WB,39.155037,-94.477829
1730014,201204-AVLApSa1-Saturday-01,0,1,36,AMERISTAR CASINO EMPLOYEE DAYCARE NB,39.153961,-94.48587
17302,201204-AVLApSa1-Saturday-01,0,1,18,ON CHOUTEAU AT RIVERBOAT DR SB,39.148575,-94.535385
1732500,201204-AVLApSa1-Saturday-01,0,1,18,ON FRONT ST AT EAST 3630 SEARS OUTLET STORE WB,39.131351,-94.540649
1732502,201204-AVLApSa1-Saturday-01,0,1,18,ON FRONT ST AT EAST 4135 WEST OF JACKSON EB,39.130959,-94.532784
1732516,201204-AVLApSa1-Saturday-01,0,1,18,ON FRONT ST AT KANSAS WB,39.128761,-94.54689
1732602,201204-AVLApSa1-Saturday-01,0,2,29,ON CHOUTEAU AT STILWELL NB,39.137287,-94.52845
1732801,201204-AVLApSa1-Saturday-01,0,1,18,ON FRONT ST AT CHOUTEAU EB,39.130722,-94.523537
1732802,201204-AVLApSa1-Saturday-01,0,1,18,ON FRONT ST AT CHOUTEAU WB,39.13084,-94.523529
1732902,201204-AVLApSa1-Saturday-01,0,1,18,ON CHOUTEAU AT RIVERBOAT DR NB,39.148483,-94.535057
1750003,201204-AVLApSa1-Saturday-01,0,1,12,ON 63RD AT JACKSON WESTBOUND,39.011749,-94.53743
1750007,201204-AVLApSa1-Saturday-01,0,1,11,ON CLEVELAND AT 67TH SOUTHBOUND,39.004719,-94.542679
1750008,201204-AVLApSa1-Saturday-01,0,1,11,ON CLEVELAND AT 67TH TERR SOUTHBOUND,39.003769,-94.542725
1750010,201204-AVLApSa1-Saturday-01,0,1,11,ON CLEVELAND AT 68TH TERR SOUTHBOUND,39.001987,-94.542801
1750013,201204-AVLApSa1-Saturday-01,0,1,11,ON CLEVELAND AT GREGORY SOUTHBOUND,38.998352,-94.542969
1750014,201204-AVLApSa1-Saturday-01,0,1,11,ON CLEVELAND AT 71ST SOUTHBOUND,38.996628,-94.54303
1750015,201204-AVLApSa1-Saturday-01,0,1,11,ON CLEVELAND AT 72ND SOUTHBOUND,38.995644,-94.543098
1750019,201204-AVLApSa1-Saturday-01,0,1,11,ON 75TH AT BALES WESTBOUND,38.990326,-94.546654
1750020,201204-AVLApSa1-Saturday-01,0,1,11,ON 75TH AT INDIANA WESTBOUND,38.990379,-94.547836
1750022,201204-AVLApSa1-Saturday-01,0,1,11,ON 75TH AT WALROND WESTBOUND,38.990501,-94.550148
1750023,201204-AVLApSa1-Saturday-01,0,1,11,ON 75TH AT CHESTNUT WESTBOUND,38.990742,-94.55481
1750025,201204-AVLApSa1-Saturday-01,0,1,13,ON 75TH AT OLIVE WESTBOUND,38.990913,-94.559418
1750028,201204-AVLApSa1-Saturday-01,0,1,13,ON 75TH AT PASEO WESTBOUND,38.991203,-94.565948
1750029,201204-AVLApSa1-Saturday-01,0,1,13,ON 75TH AT WAYNE WESTBOUND,38.991314,-94.568649
1750031,201204-AVLApSa1-Saturday-01,0,1,13,ON 75TH AT TRACY WESTBOUND,38.991497,-94.573174
1750033,201204-AVLApSa1-Saturday-01,0,1,13,ON 75TH AT CAMPBELL WESTBOUND,38.991665,-94.577782
1750035,201204-AVLApSa1-Saturday-01,0,1,13,ON 75TH AT CHERRY WESTBOUND,38.991871,-94.582466
1750040,201204-AVLApSa1-Saturday-01,0,3,35,ON 75TH AT BROADWAY WESTBOUND,38.992352,-94.593727
1750042,201204-AVLApSa1-Saturday-01,0,1,13,ON 75TH AT JEFFERSON WESTBOUND,38.992577,-94.59726
1750048,201204-AVLApSa1-Saturday-01,0,1,13,ON STATE LINE AT 7532 STATE LINE SOUTHBOUND,38.992165,-94.608009
1750049,201204-AVLApSa1-Saturday-01,0,1,13,ON STATE LINE BETWEEN 76TH & MEADOWLAKE SB,38.990032,-94.608078
1750050,201204-AVLApSa1-Saturday-01,0,1,13,ON STATE LINE AT 79TH SOUTHBOUND,38.987568,-94.608055
1750051,201204-AVLApSa1-Saturday-01,0,1,13,ON STATE LINE AT 7920 SB,38.98518,-94.608208
1750053,201204-AVLApSa1-Saturday-01,0,1,13,ON STATE LINE AT 81ST SOUTHBOUND,38.981895,-94.60833
1750054,201204-AVLApSa1-Saturday-01,0,1,13,ON STATE LINE AT 82ND STREET SOUTHBOUND,38.980038,-94.608513
1750056,201204-AVLApSa1-Saturday-01,0,1,13,ON STATE LINE AT 84TH SOUTHBOUND,38.975193,-94.608406
1750061,201204-AVLApSa1-Saturday-01,0,2,19,ON WARD PKWY AT 89TH SOUTHBOUND,38.967232,-94.60524
1750068,201204-AVLApSa1-Saturday-01,0,1,14,ON STATE LINE AT 83RD NORTHBOUND,38.978512,-94.608307
1750069,201204-AVLApSa1-Saturday-01,0,1,14,ON STATE LINE AT 82ND SPRINT NORTHBOUND,38.980167,-94.608261
1750071,201204-AVLApSa1-Saturday-01,0,1,14,ON STATE LINE AT 79TH NB,38.985176,-94.608055
1750072,201204-AVLApSa1-Saturday-01,0,1,14,ON STATE LINE AT MEADOWLAKE TERR NORTHBOUND,38.987579,-94.607887
1750073,201204-AVLApSa1-Saturday-01,0,1,14,ON STATE LINE AT MEADOWLAKE NORTHBOUND,38.989319,-94.60791
1750074,201204-AVLApSa1-Saturday-01,0,1,14,ON STATE LINE AT 75TH NORTHBOUND,38.992851,-94.607864
1750080,201204-AVLApSa1-Saturday-01,0,1,14,ON 75TH AT BROADWAY EB,38.992249,-94.593689
1750081,201204-AVLApSa1-Saturday-01,0,1,14,ON 75TH AT WYANDOTTE EASTBOUND,38.992161,-94.59198
1750084,201204-AVLApSa1-Saturday-01,0,1,14,ON 75TH AT OAK EASTBOUND,38.991867,-94.58506
1750087,201204-AVLApSa1-Saturday-01,0,1,14,ON 75TH AT CAMPBELL EASTBOUND,38.991566,-94.577721
1750088,201204-AVLApSa1-Saturday-01,0,1,14,ON 75TH AT TROOST EASTBOUND,38.991508,-94.575798
1750089,201204-AVLApSa1-Saturday-01,0,1,14,ON 75TH AT TRACY EASTBOUND,38.991405,-94.573418
1750090,201204-AVLApSa1-Saturday-01,0,1,14,ON 75TH AT LYDIA EASTBOUND,38.991329,-94.571175
1750091,201204-AVLApSa1-Saturday-01,0,1,14,ON 75TH BETWEEN WAYNE & HIGHLAND EB,38.991177,-94.568192
1750093,201204-AVLApSa1-Saturday-01,0,1,14,ON 75TH AT ARLETA EB,38.990967,-94.563416
1750102,201204-AVLApSa1-Saturday-01,0,1,12,ON 75TH AT MONROE EASTBOUND,38.990135,-94.544952
1750109,201204-AVLApSa1-Saturday-01,0,1,12,ON CLEVELAND AT 69TH NORTHBOUND,39.000885,-94.542702
1750110,201204-AVLApSa1-Saturday-01,0,2,23,ON CLEVELAND AT 68TH NORTHBOUND,39.002674,-94.542625
1750114,201204-AVLApSa1-Saturday-01,0,2,43,ON SWOPE PKWY AT MEYER NB,39.007652,-94.542206
1750118,201204-AVLApSa1-Saturday-01,0,1,12,ON 63RD AT ELMWOOD EASTBOUND,39.012085,-94.532967
1750120,201204-AVLApSa1-Saturday-01,0,1,13,ON 75TH AT PROSPECT WB FS,38.990799,-94.557404
1752301,201204-AVLApSa1-Saturday-01,0,1,12,ON 75TH AT BELLEFOTAINE EASTBOUND,38.990353,-94.551537
1752701,201204-AVLApSa1-Saturday-01,0,1,14,ON HICKMAN MILLS AT PROSPECT SB,38.979141,-94.557762
183,201204-AVLApSa1-Saturday-01,0,1,8,INDEPENDENCE CENTER MAIN ENTRANCE NORTHSIDE,39.046017,-94.358101
18300,201204-AVLApSa1-Saturday-01,0,1,8,CENTERPOINT HOSPITAL MAIN ENTRANCE,39.049759,-94.350281
1830003,201204-AVLApSa1-Saturday-01,0,1,8,ON BOLGER RD AT TARGET SUPERSTORE WESTBOUND,39.050621,-94.369469
1830004,201204-AVLApSa1-Saturday-01,0,1,8,ON 39TH AT ARROWHEAD EASTBOUND,39.047897,-94.359726
1830006,201204-AVLApSa1-Saturday-01,0,1,9,ON 23RD ST AT 1516 E 23RD ST WESTBOUND,39.078629,-94.397217
1830010,201204-AVLApSa1-Saturday-01,0,1,8,ON BOLGER AT VIKING  WALMART EB,39.047146,-94.366592
1830012,201204-AVLApSa1-Saturday-01,0,1,8,ON NOLAND AT SOUTH SB,39.081547,-94.41391
1830016,201204-AVLApSa1-Saturday-01,0,1,9,ON NOLAND AT ELM NB,39.087669,-94.413452
1830019,201204-AVLApSa1-Saturday-01,0,1,9,ON NOLAND AT SOUTH NB,39.081341,-94.413643
183031,201204-AVLApSa1-Saturday-01,0,1,8,ON 37TH TERR AT INDEPENDENCE RIDGE APTS WB,39.050739,-94.357018
183041,201204-AVLApSa1-Saturday-01,0,1,8,ON 37TH TERR AT 19120 E 37TH TERR WB,39.050713,-94.355453
1832500,201204-AVLApSa1-Saturday-01,0,1,8,ON GUDGELL AT 291 EB,39.072201,-94.378822
1910002,201204-AVLApSa1-Saturday-01,0,1,9,ON JENNINGS AT 6TH TERR COURT NB,39.11549,-94.374496
1910003,201204-AVLApSa1-Saturday-01,0,1,9,ON JENNINGS AT CHEYENNE NORTHBOUND,39.116688,-94.374443
1910005,201204-AVLApSa1-Saturday-01,0,1,9,ON 24 HWY AT SALISBURY WESTBOUND,39.107597,-94.392136
1910028,201204-AVLApSa1-Saturday-01,0,1,8,ON 24 HWY AT OVERTON WESTBOUND,39.101818,-94.461708
1910030,201204-AVLApSa1-Saturday-01,0,1,8,ON 24 HWY AT GLENWOOD WESTBOUND,39.101795,-94.466362
1910034,201204-AVLApSa1-Saturday-01,0,1,9,ON 24 HWY AT OVERTON EASTBOUND,39.101597,-94.461929
1910037,201204-AVLApSa1-Saturday-01,0,1,9,ON ASH AT 8TH SOUTHBOUND,39.100582,-94.456512
1910047,201204-AVLApSa1-Saturday-01,0,1,9,ON TRUMAN AT WOODLAND EASTBOUND,39.094337,-94.434204
1930006,201204-AVLApSa1-Saturday-01,0,1,9,ON 23RD AT BELMONT WB,39.077713,-94.374565
1930011,201204-AVLApSa1-Saturday-01,0,2,18,ON 23RD AT LEES SUMMIT WESTBOUND,39.078369,-94.390472
1930012,201204-AVLApSa1-Saturday-01,0,1,9,ON LEES SUMMIT AT 2119 S LEES SUMMIT RD NORTHBOUND,39.079781,-94.390503
1930013,201204-AVLApSa1-Saturday-01,0,1,9,ON LEES SUMMIT AT SEA NORTHBOUND,39.082516,-94.390381
1930015,201204-AVLApSa1-Saturday-01,0,1,9,ON LEES SUMMIT AT 1703 S LEES SUMMIT RD NORTHBOUND,39.087212,-94.390167
1930024,201204-AVLApSa1-Saturday-01,0,3,30,ON TRUMAN AT LIBERTY WB,39.093842,-94.41687
1930029,201204-AVLApSa1-Saturday-01,0,1,14,ON LEXINGTON AT WALNUT WESTBOUND,39.090603,-94.42968
1930031,201204-AVLApSa1-Saturday-01,0,1,14,ON LEXINGTON AT ELM WESTBOUND,39.087921,-94.431732
1930039,201204-AVLApSa1-Saturday-01,0,2,22,ON WINNER RD AT STERLING WESTBOUND,39.087715,-94.44606
1930044,201204-AVLApSa1-Saturday-01,0,2,22,ON WINNER AT WILLOW WESTBOUND,39.0895,-94.453957
1930045,201204-AVLApSa1-Saturday-01,0,1,14,ON WINNER AT ASH WESTBOUND,39.089863,-94.456612
1930046,201204-AVLApSa1-Saturday-01,0,1,14,ON  WINNER AT CEDAR WESTBOUND,39.089943,-94.458672
1930047,201204-AVLApSa1-Saturday-01,0,1,14,ON WINNER AT HAWTHORNE NORTHBOUND,39.090057,-94.460747
1930063,201204-AVLApSa1-Saturday-01,0,1,14,ON WINNER AT ASH EB,39.089756,-94.456467
1930065,201204-AVLApSa1-Saturday-01,0,2,23,ON WINNER AT APPLETON EB,39.08762,-94.449539
1930075,201204-AVLApSa1-Saturday-01,0,1,14,ON LEXINGTON AT CRYSLER EASTBOUND,39.087032,-94.432838
1930079,201204-AVLApSa1-Saturday-01,0,1,14,ON LEXINGTON AT RIVER EASTBOUND,39.091526,-94.427444
1930094,201204-AVLApSa1-Saturday-01,0,1,8,ON LEES SUMMIT AT SEA SOUTHBOUND,39.082699,-94.390518
2220016,201204-AVLApSa1-Saturday-01,0,1,18,ON MCGEE NORTH OF PERSHING AT HYATT HOTEL NB,39.084381,-94.580444
2220017,201204-AVLApSa1-Saturday-01,0,1,18,ON 20TH AT GRAND WESTBOUND,39.089115,-94.581306
2220018,201204-AVLApSa1-Saturday-01,0,5,88,ON GRAND AT 2100 GRAND SOUTHBOUND,39.087551,-94.581573
2220019,201204-AVLApSa1-Saturday-01,0,5,88,ON GRAND AT 22ND SOUTHBOUND,39.086456,-94.581642
2220020,201204-AVLApSa1-Saturday-01,0,5,88,ON GRAND AT 2344 GRAND SOUTHBOUND,39.085533,-94.581718
2220023,201204-AVLApSa1-Saturday-01,0,1,13,ON SUMMIT AT 25TH NORTHBOUND,39.082157,-94.593887
2220026,201204-AVLApSa1-Saturday-01,0,1,6,ON 25TH AT SUMMIT WESTBOUND,39.082264,-94.593796
23503,201204-AVLApSa1-Saturday-01,0,1,14,ON 35TH AT OLIVE EASTBOUND,39.062637,-94.555664
23504,201204-AVLApSa1-Saturday-01,0,1,14,ON 35TH AT PROSPECT EASTBOUND,39.062588,-94.553391
23508,201204-AVLApSa1-Saturday-01,0,1,14,ON 35TH AT INDIANA EASTBOUND,39.062298,-94.544159
23509,201204-AVLApSa1-Saturday-01,0,1,14,ON 35TH AT ASKEW EASTBOUND,39.062187,-94.541847
23511,201204-AVLApSa1-Saturday-01,0,1,14,ON 35TH AT NORTON EASTBOUND,39.062038,-94.536148
23515,201204-AVLApSa1-Saturday-01,0,1,15,ON 35TH AT CLEVELAND WESTBOUND,39.06218,-94.539223
23516,201204-AVLApSa1-Saturday-01,0,1,15,ON 35TH AT ASKEW WESTBOUND,39.062256,-94.541496
23518,201204-AVLApSa1-Saturday-01,0,1,15,ON 35TH AT BENTON BLVD  WESTBOUND,39.062454,-94.546158
23524,201204-AVLApSa1-Saturday-01,0,1,15,ON 35TH AT BROOKLYN WB,39.062813,-94.557686
235250,201204-AVLApSa1-Saturday-01,0,1,14,ON 35TH BETWEEN EMMANUAL CLEAVER II & QUINCY EB,39.061707,-94.524605
235253,201204-AVLApSa1-Saturday-01,0,1,15,ON 35TH AT NORTON WB,39.06213,-94.535851
235254,201204-AVLApSa1-Saturday-01,0,1,14,ON ARMOUR AT WARWICK WB,39.063725,-94.583183
2352600,201204-AVLApSa1-Saturday-01,0,1,14,ON ARMOUR AT CENTRAL EB,39.063854,-94.589218
23530,201204-AVLApSa1-Saturday-01,0,1,14,ON ARMOUR AT MAIN EB,39.063694,-94.585487
2360009,201204-AVLApSa1-Saturday-01,0,1,6,ON NE ENGLEWOOD RD AT N OAK WESTBOUND,39.195702,-94.576698
2360015,201204-AVLApSa1-Saturday-01,0,1,6,ON NW GATEWAY AT NW KAREN BLDV SOUTHBOUND,39.187565,-94.61351
2360016,201204-AVLApSa1-Saturday-01,0,1,6,ON NW GATEWAY AT 50TH SOUTHBOUND,39.18338,-94.613358
2360028,201204-AVLApSa1-Saturday-01,0,2,11,ON ANTIOCH AT 53RD NORTHBOUND,39.190254,-94.548584
2360029,201204-AVLApSa1-Saturday-01,0,1,5,ON ANTIOCH AT 60TH NORTHBOUND,39.202389,-94.548431
2360030,201204-AVLApSa1-Saturday-01,0,1,5,ON ANTIOCH BETWEEN 57TH TERR AND 58TH NB,39.198353,-94.548492
2360031,201204-AVLApSa1-Saturday-01,0,1,5,ON ANTIOCH AT 59TH NORTHBOUND,39.20055,-94.548454
2360035,201204-AVLApSa1-Saturday-01,0,1,10,AT MAPLE WOODS COMMUNITY COLLEGE EB,39.24725,-94.548393
2400006,201204-AVLApSa1-Saturday-01,0,1,14,ON WINNER AT ARLINGTON 2 NORTHBOUND,39.096321,-94.464386
2400008,201204-AVLApSa1-Saturday-01,0,1,95,ON 13TH BETWEEN CHARLOTTE & HOLMES WB,39.098354,-94.574768
2400011,201204-AVLApSa1-Saturday-01,0,1,8,ON 23RD ST AT LESLIE EB,39.078815,-94.40699
2400014,201204-AVLApSa1-Saturday-01,0,1,8,ON MAIN AT SEA SOUTHBOUND,39.083256,-94.415504
2400015,201204-AVLApSa1-Saturday-01,0,1,8,ON MAIN AT SOUTH SOUTHBOUND,39.081554,-94.415535
2400016,201204-AVLApSa1-Saturday-01,0,1,9,ON 23RD AT NOLAND WESTBOUND,39.079189,-94.413666
240002,201204-AVLApSa1-Saturday-01,0,1,9,ON 23RD AT KINGS HWY WB,39.078743,-94.39975
2400021,201204-AVLApSa1-Saturday-01,0,1,9,ON MAIN AT RUBY NORTHBOUND,39.085445,-94.415672
2400023,201204-AVLApSa1-Saturday-01,0,1,14,ON WINNER AT HAWTHORNE EASTBOUND,39.089893,-94.459679
2400029,201204-AVLApSa1-Saturday-01,0,1,37,ON 24 HWY AT BROOKSIDE WESTBOUND,39.103508,-94.469017
2400031,201204-AVLApSa1-Saturday-01,0,1,37,ON 24 HWY AT KENTUCKY WESTBOUND,39.107697,-94.474663
2400033,201204-AVLApSa1-Saturday-01,0,1,37,ON 24 HWY AT WALLACE WESTBOUND,39.10704,-94.483109
2400034,201204-AVLApSa1-Saturday-01,0,1,37,ON 24 HWY AT DONNELLY WESTBOUND,39.106873,-94.484543
2400035,201204-AVLApSa1-Saturday-01,0,1,37,ON 24 HWY AT TULLIS WESTBOUND,39.10672,-94.487503
2400042,201204-AVLApSa1-Saturday-01,0,1,57,ON INDEPENDENCE AVE AT WHITE WESTBOUND,39.104935,-94.511078
2400044,201204-AVLApSa1-Saturday-01,0,1,57,ON INDEPENDENCE AVE AT OAKLEY WESTBOUND,39.105145,-94.516655
2400046,201204-AVLApSa1-Saturday-01,0,2,65,ON INDEPENDENCE AVE AT COLORADO WESTBOUND,39.105263,-94.520149
2400047,201204-AVLApSa1-Saturday-01,0,2,65,ON INDEPENDENCE AVE AT DENVER WESTBOUND,39.105312,-94.521355
2400049,201204-AVLApSa1-Saturday-01,0,1,53,ON INDEPENDENCE AVE AT VAN BRUNT WESTBOUND,39.105476,-94.52597
240005,201204-AVLApSa1-Saturday-01,0,2,22,ON WINNER AT RALSTON WB,39.088974,-94.45295
2400050,201204-AVLApSa1-Saturday-01,0,1,53,ON INDEPENDENCE AVE AT ELMWOOD WESTBOUND,39.105556,-94.528259
2400057,201204-AVLApSa1-Saturday-01,0,1,53,ON INDEPENDENCE AVE AT BALES WESTBOUND,39.105957,-94.540367
240006,201204-AVLApSa1-Saturday-01,0,1,9,ON 23RD AT LESLIE WB,39.078995,-94.406731
2400061,201204-AVLApSa1-Saturday-01,0,1,53,ON INDEPENDENCE AVE AT CHESTNUT WESTBOUND,39.106258,-94.548149
2400065,201204-AVLApSa1-Saturday-01,0,1,53,ON INDEPENDENCE AVE AT GARFIELD WESTBOUND,39.106556,-94.557014
2400068,201204-AVLApSa1-Saturday-01,0,1,53,ON INDEPENDENCE AVE AT HIGHLAND WESTBOUND,39.106739,-94.561996
2400069,201204-AVLApSa1-Saturday-01,0,1,53,ON INDEPENDENCE AVE AT PASEO WESTBOUND,39.106781,-94.563316
2400073,201204-AVLApSa1-Saturday-01,0,1,53,ON INDEPENDENCE AVE AT CAMPBELL WESTBOUND,39.107113,-94.572205
2400075,201204-AVLApSa1-Saturday-01,0,1,53,ON CHARLOTTE AT ADMIRAL SOUTHBOUND,39.105354,-94.573692
2400078,201204-AVLApSa1-Saturday-01,0,3,76,ON ADMIRAL AT SUPERIOR WESTBOUND,39.10537,-94.578613
2400090,201204-AVLApSa1-Saturday-01,0,1,47,ON CHARLOTTE AT 13TH SOUTHBOUND,39.098385,-94.574059
2400092,201204-AVLApSa1-Saturday-01,0,4,117,ON 13TH AT GRAND WESTBOUND,39.09856,-94.580864
2400099,201204-AVLApSa1-Saturday-01,0,1,54,ON ADMIRAL AT CHERRY EASTBOUND,39.105152,-94.575775
2400100,201204-AVLApSa1-Saturday-01,0,1,54,ON CHARLOTTE AT 6TH NORTHBOUND,39.105869,-94.57354
2400102,201204-AVLApSa1-Saturday-01,0,1,54,ON INDEPENDENCE AVE AT CAMPBELL EASTBOUND,39.107006,-94.572151
2400103,201204-AVLApSa1-Saturday-01,0,1,54,ON INDEPENDENCE AVE AT HARRISON EASTBOUND,39.10696,-94.571121
2400105,201204-AVLApSa1-Saturday-01,0,1,54,ON INDEPENDENCE AVE AT VIRGINIA EASTBOUND,39.106796,-94.566048
2400106,201204-AVLApSa1-Saturday-01,0,1,54,ON INDEPENDENCE AVE AT PASEO EASTBOUND,39.106701,-94.564003
2400111,201204-AVLApSa1-Saturday-01,0,1,54,ON INDEPENDENCE AVE AT BROOKLYN EASTBOUND,39.106403,-94.555481
2400112,201204-AVLApSa1-Saturday-01,0,1,54,ON INDEPENDENCE AVE AT OLIVE EASTBOUND,39.106339,-94.553825
2400113,201204-AVLApSa1-Saturday-01,0,1,54,ON INDEPENDENCE  AT PROSPECT EASTBOUND,39.106228,-94.551125
2400119,201204-AVLApSa1-Saturday-01,0,1,54,ON INDEPENDENCE AVE AT MONROE EASTBOUND,39.105827,-94.538841
2400120,201204-AVLApSa1-Saturday-01,0,1,54,ON INDEPENDENCE AVE AT MYRTLE EASTBOUND,39.105717,-94.535439
2400122,201204-AVLApSa1-Saturday-01,0,1,54,ON INDEPENDENCE AVE AT JACKSON EASTBOUND,39.105625,-94.533157
2400127,201204-AVLApSa1-Saturday-01,0,2,65,ON INDEPENDENCE AVE AT BRIGHTON EB,39.105297,-94.52359
2400128,201204-AVLApSa1-Saturday-01,0,2,65,ON INDEPENDENCE AVE AT DENVER EASTBOUND,39.105225,-94.52153
2400129,201204-AVLApSa1-Saturday-01,0,2,65,ON INDEPENDENCE AVE AT COLORADO EASTBOUND,39.105171,-94.520157
2400130,201204-AVLApSa1-Saturday-01,0,1,55,ON INDEPENDENCE  AT HARDESTY EASTBOUND,39.10511,-94.518997
2400131,201204-AVLApSa1-Saturday-01,0,1,55,ON INDEPENDENCE AVE AT OAKLEY EASTBOUND,39.105049,-94.516586
2400133,201204-AVLApSa1-Saturday-01,0,1,55,ON INDEPENDENCE AVE AT WHITE EASTBOUND,39.104847,-94.511261
2400139,201204-AVLApSa1-Saturday-01,0,1,36,ON INDEPENDENCE AVE AT EWING EASTBOUND,39.104546,-94.502838
2400142,201204-AVLApSa1-Saturday-01,0,1,36,ON 24 HWY AT WALLACE EASTBOUND,39.106808,-94.483307
2400146,201204-AVLApSa1-Saturday-01,0,1,14,ON WINNER AT GLENWOOD NORTHBOUND,39.100471,-94.466568
2400149,201204-AVLApSa1-Saturday-01,0,1,14,ON WINNER AT TRUMAN SOUTHBOUND,39.095352,-94.464439
2400150,201204-AVLApSa1-Saturday-01,0,1,14,ON WINNER AT ARLINGTON SOUTHBOUND,39.093163,-94.463989
2400200,201204-AVLApSa1-Saturday-01,0,1,36,ON 24 HWY AT POTTER EB,39.106022,-94.489578
240022,201204-AVLApSa1-Saturday-01,0,1,8,ON 23RD AT KINGS HWY EB,39.078491,-94.398102
2400333,201204-AVLApSa1-Saturday-01,0,1,9,ON MAIN AT ELM NORTHBOUND,39.087757,-94.415787
2401008,201204-AVLApSa1-Saturday-01,0,2,18,ON 23RD AT ELLISONWAY WESTBOUND,39.07803,-94.383911
2401032,201204-AVLApSa1-Saturday-01,0,1,14,ON LEXINGTON AT NORWOOD WESTBOUND,39.086784,-94.440353
2401034,201204-AVLApSa1-Saturday-01,0,1,14,ON WINNER RD  AT CLAREMONT WESTBOUND,39.087345,-94.443893
2401037,201204-AVLApSa1-Saturday-01,0,2,22,ON WINNER RD AT APPLETON WESTBOUND,39.087883,-94.449242
2401049,201204-AVLApSa1-Saturday-01,0,1,20,ON TRUMAN AT WINCHESTER WESTBOUND,39.093643,-94.501205
2401052,201204-AVLApSa1-Saturday-01,0,1,20,ON TRUMAN AT PROSPECT WESTBOUND,39.094788,-94.551491
2401069,201204-AVLApSa1-Saturday-01,0,5,165,ON 12TH AT OAK EASTBOUND,39.099731,-94.578789
2401073,201204-AVLApSa1-Saturday-01,0,1,61,ON TRUMAN AT PROSPECT EASTBOUND NS,39.094681,-94.551735
2401079,201204-AVLApSa1-Saturday-01,0,1,14,ON WINNER AT CEDAR EASTBOUND,39.089859,-94.458656
2401089,201204-AVLApSa1-Saturday-01,0,1,14,ON WINNER AT SCOTT EASTBOUND,39.086479,-94.438957
2401090,201204-AVLApSa1-Saturday-01,0,1,14,ON WINNER AT PROCTOR EASTBOUND,39.086388,-94.436195
2401091,201204-AVLApSa1-Saturday-01,0,1,14,ON WINNER AT PARK EASTBOUND,39.086514,-94.434647
2401109,201204-AVLApSa1-Saturday-01,0,2,16,ON 23RD AT LEES SUMMIT EB FS,39.078159,-94.390297
2402000,201204-AVLApSa1-Saturday-01,0,1,8,ON 24 HWY AT DOVER EASTBOUND,39.118317,-94.378807
2402008,201204-AVLApSa1-Saturday-01,0,1,9,ON TRUMAN AT LESLIE WESTBOUND,39.093502,-94.407204
2402014,201204-AVLApSa1-Saturday-01,0,3,30,ON TRUMAN AT OSAGE WB,39.09388,-94.418304
2402017,201204-AVLApSa1-Saturday-01,0,1,8,ON TRUMAN AT DELAWARE WESTBOUND,39.094063,-94.42363
2402018,201204-AVLApSa1-Saturday-01,0,1,8,ON TRUMAN AT UNION WESTBOUND,39.094093,-94.424866
2402019,201204-AVLApSa1-Saturday-01,0,1,8,ON TRUMAN AT RIVER WESTBOUND,39.094166,-94.427086
2402037,201204-AVLApSa1-Saturday-01,0,1,9,ON TRUMAN AT CRYSLER EASTBOUND,39.094261,-94.431786
2402048,201204-AVLApSa1-Saturday-01,0,1,8,ON TRUMAN AT HOCKER EASTBOUND,39.093441,-94.40921
2402049,201204-AVLApSa1-Saturday-01,0,1,8,ON TRUMAN RD AT LESLIE EASTBOUND,39.093403,-94.406853
2402050,201204-AVLApSa1-Saturday-01,0,1,8,ON TRUMAN AT SMITH EASTBOUND,39.093292,-94.400795
2402051,201204-AVLApSa1-Saturday-01,0,1,8,ON TRUMAN AT 15309 EB,39.093163,-94.398117
2402055,201204-AVLApSa1-Saturday-01,0,1,8,ON 24 HWY AT SALISBURY EASTBOUND,39.107403,-94.392059
2403,201204-AVLApSa1-Saturday-01,0,1,14,ON WINNER RD AT ARLINGTON NB,39.09333,-94.463959
242500,201204-AVLApSa1-Saturday-01,0,1,53,ON INDEPENDENCE AVE AT MAPLE WB,39.106625,-94.558762
242501,201204-AVLApSa1-Saturday-01,0,1,54,ON INDEPENDENCE AVE AT MAPLE EB,39.106491,-94.558708
24301,201204-AVLApSa1-Saturday-01,0,1,12,AT RIVERSIDE COMMUNITY CENTER AND CITY HALL,39.175884,-94.615952
24306,201204-AVLApSa1-Saturday-01,0,1,6,ON VIVION AT 217 NW VIVION EB,39.181126,-94.579109
2432503,201204-AVLApSa1-Saturday-01,0,1,6,ON VIVION AT KLAMM EB,39.179363,-94.60862
243702,201204-AVLApSa1-Saturday-01,0,3,25,ON ST CLAIR AT 8501 ST CLAIR SB,39.248245,-94.647148
2440061,201204-AVLApSa1-Saturday-01,0,1,10,ON SWIFT AT 20TH SOUTHBOUND,39.142658,-94.577309
2440062,201204-AVLApSa1-Saturday-01,0,1,10,ON SWIFT AT ARMOUR SOUTHBOUND,39.142033,-94.577324
25000,201204-AVLApSa1-Saturday-01,0,3,88,ON DRURY AT BANNISTER,38.953735,-94.52491
250026,201204-AVLApSa1-Saturday-01,0,2,64,ON TROOST AT 18TH SOUTHBOUND,39.091473,-94.570374
250029,201204-AVLApSa1-Saturday-01,0,1,33,ON TROOST AT 25TH ST SB,39.081432,-94.570862
25004,201204-AVLApSa1-Saturday-01,0,7,195,ON 12TH BETWEEN GRAND AND MCGEE EASTBOUND,39.099758,-94.580101
25012,201204-AVLApSa1-Saturday-01,0,2,64,ON TROOST AT 16TH SOUTHBOUND,39.094204,-94.570175
25018,201204-AVLApSa1-Saturday-01,0,2,51,ON CHARLOTTE BETWEEN 23RD AND 24TH SOUTHBOUND,39.08445,-94.574783
25025,201204-AVLApSa1-Saturday-01,0,2,66,ON TROOST AT LINWOOD SOUTHBOUND,39.068504,-94.57148
25026,201204-AVLApSa1-Saturday-01,0,1,34,ON TROOST BETWEEN 32ND AND 33RD SOUTHBOUND,39.067543,-94.57151
25029,201204-AVLApSa1-Saturday-01,0,1,34,ON TROOST AT 36TH SOUTHBOUND,39.061539,-94.571854
25030,201204-AVLApSa1-Saturday-01,0,1,34,ON TROOST AT 37TH SOUTHBOUND,39.059746,-94.571945
25031,201204-AVLApSa1-Saturday-01,0,1,34,ON TROOST AT MANHEIM SOUTHBOUND,39.057709,-94.572067
25034,201204-AVLApSa1-Saturday-01,0,1,34,ON TROOST AT 41ST SOUTHBOUND,39.052616,-94.572365
25035,201204-AVLApSa1-Saturday-01,0,1,34,ON TROOST AT 42ND SOUTHBOUND,39.050793,-94.572464
25036,201204-AVLApSa1-Saturday-01,0,2,66,ON TROOST AT 43RD SOUTHBOUND,39.048737,-94.572617
25039,201204-AVLApSa1-Saturday-01,0,1,34,ON TROOST AT BRUSH CREEK SOUTHBOUND,39.043674,-94.572884
25040,201204-AVLApSa1-Saturday-01,0,2,66,ON TROOST AT CLEAVER II SOUTHBOUND,39.041779,-94.572998
25042,201204-AVLApSa1-Saturday-01,0,1,34,ON TROOST AT 50TH SOUTHBOUND,39.036263,-94.573303
25045,201204-AVLApSa1-Saturday-01,0,1,34,ON TROOST AT 53RD SOUTHBOUND,39.030941,-94.573631
25046,201204-AVLApSa1-Saturday-01,0,1,34,ON TROOST AT 54TH SOUTHBOUND,39.029057,-94.573708
25047,201204-AVLApSa1-Saturday-01,0,2,66,ON TROOST AT 55TH SOUTHBOUND,39.027279,-94.573822
25048,201204-AVLApSa1-Saturday-01,0,1,34,ON TROOST AT 56TH SOUTHBOUND,39.025448,-94.573921
25049,201204-AVLApSa1-Saturday-01,0,1,34,ON TROOST AT 57TH SOUTHBOUND,39.02367,-94.574036
25050,201204-AVLApSa1-Saturday-01,0,1,34,ON TROOST AT 58TH SOUTHBOUND,39.021839,-94.574135
25052,201204-AVLApSa1-Saturday-01,0,1,34,ON TROOST AT 60TH SOUTHBOUND,39.018368,-94.574341
25053,201204-AVLApSa1-Saturday-01,0,1,34,ON TROOST AT 61ST SOUTHBOUND,39.016697,-94.574425
25054,201204-AVLApSa1-Saturday-01,0,1,34,ON TROOST AT 62ND SOUTHBOUND,39.015022,-94.574493
25056,201204-AVLApSa1-Saturday-01,0,1,34,ON TROOST AT MEYER SOUTHBOUND,39.011578,-94.574745
25067,201204-AVLApSa1-Saturday-01,0,1,34,ON TROOST AT 73RD SOUTHBOUND,38.9953,-94.575523
25068,201204-AVLApSa1-Saturday-01,0,1,34,ON TROOST AT 74TH SOUTHBOUND,38.993454,-94.575615
25072,201204-AVLApSa1-Saturday-01,0,2,66,ON TROOST AT 77TH SOUTHBOUND,38.98716,-94.57592
25073,201204-AVLApSa1-Saturday-01,0,2,66,ON TROOST AT 78TH TERR SOUTHBOUND,38.985512,-94.576012
25076,201204-AVLApSa1-Saturday-01,0,2,66,ON TROOST AT 81ST SOUTHBOUND,38.981194,-94.576248
25078,201204-AVLApSa1-Saturday-01,0,1,16,TROOST AT PRESIDENT AVE SOUTHBOUND,38.977886,-94.576424
25080,201204-AVLApSa1-Saturday-01,0,1,16,ON TROOST AT 84TH SOUTHBOUND,38.975132,-94.576584
25082,201204-AVLApSa1-Saturday-01,0,1,16,ON TROOST AT 8700 SOUTHBOUND,38.969135,-94.576805
25083,201204-AVLApSa1-Saturday-01,0,1,16,ON TROOST AT 89TH SOUTHBOUND,38.966278,-94.576965
25085,201204-AVLApSa1-Saturday-01,0,1,16,ON TROOST AT 9401 SB,38.956104,-94.577866
25086,201204-AVLApSa1-Saturday-01,0,1,16,ON BANNISTER AT 1115 E BANNISTER RD EASTBOUND,38.955135,-94.576828
25097,201204-AVLApSa1-Saturday-01,0,1,16,ON 95TH TER AT BANNISTER FEDERAL COMPLEX EB,38.957481,-94.56073
25102,201204-AVLApSa1-Saturday-01,0,2,100,ON FOREST AT PRESIDENT AVE SOUTHBOUND,38.978008,-94.575722
25126,201204-AVLApSa1-Saturday-01,0,1,14,ON HILLCREST AT BANNISTER SB NS,38.954285,-94.521935
25132,201204-AVLApSa1-Saturday-01,0,1,16,ON 95TH AT GRANDVIEW WESTBOUND,38.954723,-94.550735
25135,201204-AVLApSa1-Saturday-01,0,1,16,ON BANNISTER AT FREEDOM WESTBOUND,38.95536,-94.576378
25137,201204-AVLApSa1-Saturday-01,0,1,16,ON TROOST AT 92ND NORTHBOUND,38.965252,-94.576958
25138,201204-AVLApSa1-Saturday-01,0,1,16,ON TROOST AT 89TH NORTHBOUND,38.966087,-94.576828
25140,201204-AVLApSa1-Saturday-01,0,1,16,ON TROOST AT 86TH TERR NORTHBOUND,38.970615,-94.576614
25141,201204-AVLApSa1-Saturday-01,0,1,16,ON TROOST AT 83RD TERRACE NORTHBOUND,38.975666,-94.57634
25144,201204-AVLApSa1-Saturday-01,0,2,66,ON TROOST AT 81ST NORTHBOUND,38.981606,-94.57608
25147,201204-AVLApSa1-Saturday-01,0,2,66,ON TROOST AT 79TH NORTHBOUND,38.984261,-94.575981
25148,201204-AVLApSa1-Saturday-01,0,2,66,ON TROOST AT 78TH NORTHBOUND,38.985203,-94.575912
25149,201204-AVLApSa1-Saturday-01,0,2,66,ON TROOST AT 77TH TERRACE NORTHBOUND,38.98621,-94.575851
25150,201204-AVLApSa1-Saturday-01,0,2,66,ON TROOST AT 77TH NB,38.987484,-94.57579
25155,201204-AVLApSa1-Saturday-01,0,1,34,ON TROOST AT 73RD NORTHBOUND,38.995094,-94.575417
25156,201204-AVLApSa1-Saturday-01,0,1,34,ON TROOST AT 72ND NORTHBOUND,38.996864,-94.575333
25159,201204-AVLApSa1-Saturday-01,0,1,34,ON TROOST AT 70TH NORTHBOUND,38.999889,-94.575226
25161,201204-AVLApSa1-Saturday-01,0,1,34,ON TROOST AT 68TH NORTHBOUND,39.004047,-94.574997
25164,201204-AVLApSa1-Saturday-01,0,1,34,ON TROOST AT 66TH ST NB,39.008312,-94.57476
25165,201204-AVLApSa1-Saturday-01,0,1,34,ON TROOST AT 65TH NORTHBOUND,39.009495,-94.574699
25172,201204-AVLApSa1-Saturday-01,0,1,34,ON TROOST AT 58TH NORTHBOUND,39.021618,-94.57402
25173,201204-AVLApSa1-Saturday-01,0,1,34,ON TROOST AT 57TH NORTHBOUND,39.02343,-94.573959
25174,201204-AVLApSa1-Saturday-01,0,1,34,ON TROOST AT 56TH NORTHBOUND,39.025234,-94.573792
25176,201204-AVLApSa1-Saturday-01,0,1,34,ON TROOST AT 54TH NORTHBOUND,39.028858,-94.573654
25177,201204-AVLApSa1-Saturday-01,0,1,34,ON TROOST AT 53RD NORTHBOUND,39.030659,-94.573532
25179,201204-AVLApSa1-Saturday-01,0,1,34,ON TROOST AT 51ST NORTHBOUND,39.034321,-94.573311
25180,201204-AVLApSa1-Saturday-01,0,1,34,ON TROOST AT 50TH NORTHBOUND,39.036095,-94.573204
25183,201204-AVLApSa1-Saturday-01,0,1,34,ON TROOST AT 48TH NORTHBOUND,39.040718,-94.572975
25185,201204-AVLApSa1-Saturday-01,0,1,34,ON TROOST AT BRUSH CREEK NORTHBOUND,39.043438,-94.572792
25186,201204-AVLApSa1-Saturday-01,0,1,34,ON TROOST AT 45TH NORTHBOUND,39.045143,-94.572716
25189,201204-AVLApSa1-Saturday-01,0,1,34,ON TROOST AT 42ND NORTHBOUND,39.050552,-94.572372
25192,201204-AVLApSa1-Saturday-01,0,2,66,ON TROOST AT 39TH NORTHBOUND,39.056156,-94.572037
25195,201204-AVLApSa1-Saturday-01,0,1,34,ON TROOST AT 36TH NORTHBOUND,39.061298,-94.571762
25197,201204-AVLApSa1-Saturday-01,0,1,34,ON TROOST AT 34TH NORTHBOUND,39.064671,-94.571594
25200,201204-AVLApSa1-Saturday-01,0,2,71,ON TROOST AT 31ST NORTHBOUND,39.070385,-94.571243
25201,201204-AVLApSa1-Saturday-01,0,1,33,ON TROOST AT 30TH NORTHBOUND,39.072174,-94.571167
25202,201204-AVLApSa1-Saturday-01,0,1,33,ON TROOST AT 29TH NORTHBOUND,39.073994,-94.571068
25203,201204-AVLApSa1-Saturday-01,0,1,33,ON TROOST AT 28TH NORTHBOUND,39.075947,-94.570984
25205,201204-AVLApSa1-Saturday-01,0,1,33,ON TROOST AT 26TH NORTHBOUND,39.079273,-94.570816
25212,201204-AVLApSa1-Saturday-01,0,2,65,ON TROOST AT 18TH NORTHBOUND,39.09148,-94.570206
25213,201204-AVLApSa1-Saturday-01,0,2,65,ON TROOST AT 17TH NORTHBOUND,39.092861,-94.570137
25215,201204-AVLApSa1-Saturday-01,0,2,65,ON TROOST AT 13TH NORTHBOUND,39.098057,-94.569893
25216,201204-AVLApSa1-Saturday-01,0,2,65,ON TROOST AT 12TH NORTHBOUND,39.099319,-94.569824
2522073,201204-AVLApSa1-Saturday-01,0,2,66,ON TROOST AT 7834 TROOST SOUTHBOUND,38.984993,-94.576035
252302,201204-AVLApSa1-Saturday-01,0,2,29,ON BANNISTER AT HOME DEPOT WESTBOUND,38.953495,-94.533539
252306,201204-AVLApSa1-Saturday-01,0,1,34,ON TROOST AT 4825 TROOST SOUTHBOUND,39.040852,-94.573059
252307,201204-AVLApSa1-Saturday-01,0,1,34,ON TROOST AT VOLKER SOUTHBOUND,39.040325,-94.573082
25232,201204-AVLApSa1-Saturday-01,0,1,18,ON PRESIDENT GARDEN AV AT TROOST WESTBOUND,38.977871,-94.576172
25319,201204-AVLApSa1-Saturday-01,0,1,33,ON TROOST AT 19TH NB,39.08992,-94.570259
25325,201204-AVLApSa1-Saturday-01,0,1,33,ON TROOST AT 25TH NB,39.081245,-94.570709
25530,201204-AVLApSa1-Saturday-01,0,2,36,ON GILLHAM AT 31ST NORTHBOUND,39.070683,-94.578827
25803,201204-AVLApSa1-Saturday-01,0,1,33,ON TROOST AT 2011 TROOST SOUTHBOUND,39.088585,-94.570419
26001,201204-AVLApSa1-Saturday-01,0,2,65,ON 12TH AT CHARLOTTE EB,39.099537,-94.574043
26004,201204-AVLApSa1-Saturday-01,0,2,70,ON TROOST AT 27TH SB,39.077553,-94.571037
26005,201204-AVLApSa1-Saturday-01,0,2,71,ON TROOST AT 31ST SB,39.07032,-94.571404
26006,201204-AVLApSa1-Saturday-01,0,2,66,ON TROOST AT ARMOUR SB,39.06308,-94.571785
26009,201204-AVLApSa1-Saturday-01,0,2,66,ON TROOST AT 63RD SB,39.013065,-94.574631
26010,201204-AVLApSa1-Saturday-01,0,2,66,ON TROOST AT 67TH SB,39.006073,-94.57502
26012,201204-AVLApSa1-Saturday-01,0,2,48,ON TROOST AT 82ND TERR SB,38.979099,-94.576408
26016,201204-AVLApSa1-Saturday-01,0,2,66,ON TROOST AT 67TH NB,39.006447,-94.574829
26018,201204-AVLApSa1-Saturday-01,0,2,66,ON TROOST AT 55TH NB,39.027275,-94.5737
26022,201204-AVLApSa1-Saturday-01,0,2,72,ON TROOST AT ARMOUR NB,39.063351,-94.571617
26023,201204-AVLApSa1-Saturday-01,0,2,63,ON TROOST AT 27TH NB,39.077827,-94.570869
26024,201204-AVLApSa1-Saturday-01,0,1,30,ON 25TH AT CAMPBELL WB,39.081482,-94.573647
270002,201204-AVLApSa1-Saturday-01,0,2,68,ON VAN BRUNT LOOP AT 31ST NORTHBOUND,39.069168,-94.521149
2700020,201204-AVLApSa1-Saturday-01,0,1,20,ON VAN BRUNT AT 27TH TERRACE NORTHBOUND,39.075226,-94.520256
2700022,201204-AVLApSa1-Saturday-01,0,1,20,ON 27TH AT DENVER WESTBOUND,39.076149,-94.522881
2700023,201204-AVLApSa1-Saturday-01,0,1,20,ON 27TH AT QUINCY WESTBOUND,39.076183,-94.524139
2700024,201204-AVLApSa1-Saturday-01,0,1,20,ON 27TH AT BRIGHTON WESTBOUND,39.076221,-94.525352
2700028,201204-AVLApSa1-Saturday-01,0,1,20,ON 27TH AT KENSINGTON WESTBOUND,39.076427,-94.531883
2700029,201204-AVLApSa1-Saturday-01,0,1,20,ON 27TH AT SPRUCE WESTBOUND,39.076466,-94.53318
2700033,201204-AVLApSa1-Saturday-01,0,1,20,ON 27TH AT MONROE WESTBOUND,39.076679,-94.539772
2700037,201204-AVLApSa1-Saturday-01,0,1,20,ON 27TH BETWEEN COLLEGE & WALROND WB,39.076866,-94.545296
2700042,201204-AVLApSa1-Saturday-01,0,1,20,ON 27TH AT BROOKLYN WESTBOUND,39.077278,-94.556992
2700043,201204-AVLApSa1-Saturday-01,0,1,20,ON 27TH AT GARFIELD WESTBOUND,39.077293,-94.558182
2700045,201204-AVLApSa1-Saturday-01,0,1,20,ON 27TH AT PASEO WESTBOUND,39.077564,-94.565414
2700057,201204-AVLApSa1-Saturday-01,0,1,20,ON LOCUST AT 24TH SOUTHBOUND,39.08411,-94.578423
2700058,201204-AVLApSa1-Saturday-01,0,1,20,ON 25TH AT CHERRY EB,39.081497,-94.577278
2700059,201204-AVLApSa1-Saturday-01,0,1,20,ON CHERRY AT 26TH SOUTHBOUND,39.079266,-94.577339
2700065,201204-AVLApSa1-Saturday-01,0,2,42,ON WALNUT AT 20TH NB,39.089222,-94.582565
2700086,201204-AVLApSa1-Saturday-01,0,2,53,ON MAIN AT 16TH SOUTHBOUND,39.094578,-94.583488
2700089,201204-AVLApSa1-Saturday-01,0,2,41,ON MAIN AT 19TH SOUTHBOUND,39.090485,-94.58371
2700094,201204-AVLApSa1-Saturday-01,0,1,19,ON GILLHAM AT 25TH AT BUS SHELTER SOUTHBOUND,39.081661,-94.57872
2700096,201204-AVLApSa1-Saturday-01,0,1,19,ON CHERRY AT 26TH NORTHBOUND,39.079124,-94.57724
2700099,201204-AVLApSa1-Saturday-01,0,1,19,ON LOCUST AT 24TH NORTHBOUND,39.083942,-94.578308
2700103,201204-AVLApSa1-Saturday-01,0,1,19,ON 22ND AT CHARLOTTE EASTBOUND,39.086246,-94.574699
2700108,201204-AVLApSa1-Saturday-01,0,1,19,ON 27TH BETWEEN CHARLOTTE & CAMPBELL EB,39.077766,-94.574326
2700110,201204-AVLApSa1-Saturday-01,0,1,19,ON 27TH AT TROOST EASTBOUND,39.077652,-94.571053
2700116,201204-AVLApSa1-Saturday-01,0,1,19,ON 27TH AT BROOKLYN EASTBOUND,39.077198,-94.557175
2700118,201204-AVLApSa1-Saturday-01,0,1,19,ON 27TH AT PROSPECT EASTBOUND,39.07703,-94.552589
2700119,201204-AVLApSa1-Saturday-01,0,1,19,ON 27TH BETWEEN MONTGALL & CHESTNUT EB,39.076969,-94.550766
2700121,201204-AVLApSa1-Saturday-01,0,1,19,ON 27TH AT WALROND EASTBOUND,39.076797,-94.546059
2700124,201204-AVLApSa1-Saturday-01,0,1,19,ON 27TH AT ASKEW EASTBOUND,39.07663,-94.541092
2700127,201204-AVLApSa1-Saturday-01,0,1,19,ON 27TH AT MYRTLE EASTBOUND,39.076481,-94.53614
2700130,201204-AVLApSa1-Saturday-01,0,1,19,ON 27TH AT WENZEL EASTBOUND,39.076355,-94.532295
2700131,201204-AVLApSa1-Saturday-01,0,1,19,ON 27TH AT ELMWOOD EASTBOUND,39.076275,-94.529594
2700135,201204-AVLApSa1-Saturday-01,0,1,19,ON 27TH AT BRIGHTON EASTBOUND,39.076134,-94.525085
2700136,201204-AVLApSa1-Saturday-01,0,1,19,ON 27TH AT QUINCY EASTBOUND,39.076099,-94.524055
2700138,201204-AVLApSa1-Saturday-01,0,1,19,ON 27TH AT VAN BRUNT EASTBOUND,39.076004,-94.520691
2702,201204-AVLApSa1-Saturday-01,0,1,19,ON CHARLOTTE AT 23RD SB,39.085178,-94.574715
272500,201204-AVLApSa1-Saturday-01,0,1,20,ON 27TH AT BENTON WB,39.077003,-94.548882
272501,201204-AVLApSa1-Saturday-01,0,1,20,ON 27TH AT PARK WB,39.077251,-94.555809
272502,201204-AVLApSa1-Saturday-01,0,1,20,ON 27TH AT WOODLAND WB,39.077408,-94.561592
272507,201204-AVLApSa1-Saturday-01,0,1,19,ON 27TH AT WOODLAND EB,39.077282,-94.561363
28000,201204-AVLApSa1-Saturday-01,0,3,77,AT BLUE RIDGE CROSSING,39.046398,-94.442223
280001,201204-AVLApSa1-Saturday-01,0,1,17,ON OAK AT 10TH NB,39.102093,-94.578331
2800011,201204-AVLApSa1-Saturday-01,0,1,15,ON BLUE RIDGE AT 11117 NORTHBOUND,38.922104,-94.509338
2800013,201204-AVLApSa1-Saturday-01,0,1,15,ON BLUE RIDGE AT 10905 NB,38.924423,-94.508621
2800017,201204-AVLApSa1-Saturday-01,0,1,15,ON BLUE RIDGE AT 104TH NORTHBOUND,38.935722,-94.508286
2800018,201204-AVLApSa1-Saturday-01,0,1,15,ON BLUE RIDGE AT 103RD TERRACE NORTHBOUND,38.937241,-94.508514
2800021,201204-AVLApSa1-Saturday-01,0,1,15,ON BLUE RIDGE AT 99TH NORTHBOUND,38.94503,-94.508209
2800036,201204-AVLApSa1-Saturday-01,0,1,15,ON 87TH AT NEWTON EASTBOUND,38.96693,-94.511253
2800039,201204-AVLApSa1-Saturday-01,0,1,15,ON 87TH AT EASTERN EASTBOUND,38.96661,-94.503281
2800041,201204-AVLApSa1-Saturday-01,0,1,15,ON BLUE RIDGE 86TH NB,38.967808,-94.498077
2800046,201204-AVLApSa1-Saturday-01,0,1,15,ON BLUE RIDGE 81ST TERRACE  NORTHBOUND,38.97588,-94.491463
2800047,201204-AVLApSa1-Saturday-01,0,1,15,ON BLUE RIDGE AT 81ST NORTHBOUND,38.977005,-94.49015
2800048,201204-AVLApSa1-Saturday-01,0,1,15,ON BLUE RIDGE AT 80TH TERRACE NORTHBOUND,38.978359,-94.488541
2800049,201204-AVLApSa1-Saturday-01,0,1,15,ON BLUE RIDGE AT 7915  NORTHBOUND,38.979786,-94.486916
2800051,201204-AVLApSa1-Saturday-01,0,1,15,ON BLUE RIDGE AT 78TH TERRACE NORTHBOUND,38.981594,-94.484795
2800054,201204-AVLApSa1-Saturday-01,0,1,15,ON BLUE RIDGE AT COUNTRYSHIRE NORTHBOUND,38.985477,-94.483063
2800056,201204-AVLApSa1-Saturday-01,0,1,15,ON BLUE RIDGE AT 74TH TERRACE NORTHBOUND,38.989128,-94.482742
2800057,201204-AVLApSa1-Saturday-01,0,1,15,ON BLUE RIDGE AT 73RD NORTHBOUND,38.991287,-94.482216
2800060,201204-AVLApSa1-Saturday-01,0,1,15,ON BLUE RIDGE AT 69TH TERRACE NORTHBOUND,38.997307,-94.482384
2800061,201204-AVLApSa1-Saturday-01,0,1,15,ON BLUE RIDGE AT 69TH NORTHBOUND,38.99976,-94.482254
2800066,201204-AVLApSa1-Saturday-01,0,1,15,ON BLUE RIDGE CUT OFF AT 62ND TERRACE NORTHBOUND,39.010796,-94.481697
2800067,201204-AVLApSa1-Saturday-01,0,1,15,ON BLUE RIDGE CUT OFF AT 61ST NB,39.012463,-94.481606
2800069,201204-AVLApSa1-Saturday-01,0,1,15,ON BLUE RIDGE CUT OFF AT 59TH TERRACE NORTHBOUND,39.015644,-94.481567
2800072,201204-AVLApSa1-Saturday-01,0,1,15,ON BLUE RIDGE CUT OFF AT 57TH NORTHBOUND,39.019997,-94.481415
2800074,201204-AVLApSa1-Saturday-01,0,1,15,ON BLUE RIDGE CUT OFF AT 55TH NORTHBOUND,39.023678,-94.481216
2800075,201204-AVLApSa1-Saturday-01,0,1,15,ON BLUE RIDGE CUT OFF AT 54TH NORTHBOUND,39.025864,-94.48111
2800076,201204-AVLApSa1-Saturday-01,0,1,15,ON BLUE RIDGE CUT OFF AT 53RD TERRACE NORTHBOUND,39.027031,-94.481041
2800080,201204-AVLApSa1-Saturday-01,0,2,27,ON BLUE RIDGE CUT OFF AT RAYTOWN RD NORTHBOUND,39.036243,-94.476448
2800081,201204-AVLApSa1-Saturday-01,0,1,15,ON 47TH AT RAYTOWN RD EASTBOUND,39.03463,-94.473396
2800083,201204-AVLApSa1-Saturday-01,0,1,15,ON 47TH AT OVERTON EB,39.037502,-94.464973
2800084,201204-AVLApSa1-Saturday-01,0,1,15,ON 47TH AT PITTMAN EASTBOUND,39.037453,-94.462143
2800085,201204-AVLApSa1-Saturday-01,0,1,15,ON 47TH AT APPLETON EASTBOUND,39.036953,-94.451103
2800089,201204-AVLApSa1-Saturday-01,0,1,15,ON STERLING AT 48TH TERRACE SOUTHBOUND,39.03384,-94.448273
2800093,201204-AVLApSa1-Saturday-01,0,1,15,ON 51ST AT WOODSON EASTBOUND,39.029388,-94.444176
2800099,201204-AVLApSa1-Saturday-01,0,1,15,ON BLUE RIDGE BLVD AT 44TH TERRACE NORTHBOUND,39.041309,-94.436882
2800100,201204-AVLApSa1-Saturday-01,0,1,15,ON BLUE RIDGE BLVD AT 43RD TERR NORTHBOUND,39.042713,-94.437584
2800105,201204-AVLApSa1-Saturday-01,0,1,18,ON 43RD AT NORTHERN WESTBOUND,39.044353,-94.452057
2800106,201204-AVLApSa1-Saturday-01,0,1,18,ON NORTHERN AT 4251 NORTHERN NORTHBOUND,39.045681,-94.452133
2800107,201204-AVLApSa1-Saturday-01,0,1,18,ON NORTHERN AT 10700 NORTHBOUND,39.046425,-94.453011
2800111,201204-AVLApSa1-Saturday-01,0,1,18,ON 42ND AT PITTMAN WB,39.04686,-94.461395
2800113,201204-AVLApSa1-Saturday-01,0,1,18,ON PITTMAN AT 38TH TERRACE NORTHBOUND,39.052723,-94.461372
2800115,201204-AVLApSa1-Saturday-01,0,1,18,ON PITTMAN AT 40 HWY NORTHBOUND,39.05521,-94.461128
2800116,201204-AVLApSa1-Saturday-01,0,2,30,ON 40 HWY AT 36TH TERR WB,39.05603,-94.462624
2800122,201204-AVLApSa1-Saturday-01,0,1,18,ON 40 HWY AT 7900 E 40 HWY WB,39.063297,-94.490295
2800124,201204-AVLApSa1-Saturday-01,0,1,18,ON 40 HWY AT 7300 E 40 HWY WESTBOUND,39.067272,-94.497711
2800127,201204-AVLApSa1-Saturday-01,0,1,18,ON 31ST AT VAN BRUNT WESTBOUND,39.068886,-94.5214
2800130,201204-AVLApSa1-Saturday-01,0,1,18,ON LINWOOD AT CHELSEA WESTBOUND,39.067326,-94.528023
2800134,201204-AVLApSa1-Saturday-01,0,1,18,ON LINWOOD AT JACKSON WESTBOUND,39.067482,-94.534721
2800135,201204-AVLApSa1-Saturday-01,0,1,18,ON LINWOOD AT MYRTLE WESTBOUND,39.067528,-94.536858
2800136,201204-AVLApSa1-Saturday-01,0,1,18,ON LINWOOD AT CLEVELAND WESTBOUND,39.067623,-94.538994
2800138,201204-AVLApSa1-Saturday-01,0,1,18,ON LINWOOD AT WALROND WB,39.067871,-94.545975
2800140,201204-AVLApSa1-Saturday-01,0,1,18,ON LINWOOD AT AGNES WESTBOUND,39.067944,-94.548195
2800143,201204-AVLApSa1-Saturday-01,0,1,18,ON LINWOOD AT OLIVE WESTBOUND,39.068165,-94.555099
2800145,201204-AVLApSa1-Saturday-01,0,1,18,ON LINWOOD AT GARFIELD WESTBOUND,39.06831,-94.558594
2800146,201204-AVLApSa1-Saturday-01,0,1,18,ON LINWOOD AT WOODLAND WESTBOUND,39.068413,-94.56208
2800148,201204-AVLApSa1-Saturday-01,0,1,18,ON LINWOOD AT FLORA WESTBOUND,39.068527,-94.565475
2800150,201204-AVLApSa1-Saturday-01,0,1,18,ON LINWOOD AT TRACY WESTBOUND,39.068615,-94.568649
2800152,201204-AVLApSa1-Saturday-01,0,1,17,ON LINWOOD AT CAMPBELL WESTBOUND,39.068821,-94.574265
2800153,201204-AVLApSa1-Saturday-01,0,1,17,ON LINWOOD AT HOLMES WESTBOUND,39.068901,-94.576515
2800157,201204-AVLApSa1-Saturday-01,0,3,53,ON MCGEE TFWY AT 29TH NORTHBOUND,39.074535,-94.579323
2800158,201204-AVLApSa1-Saturday-01,0,3,53,ON MCGEE TFWY AT 27TH TERRACE NORTHBOUND,39.076946,-94.580109
2800161,201204-AVLApSa1-Saturday-01,0,3,53,ON 27TH AT GRAND WESTBOUND,39.078224,-94.583496
2800174,201204-AVLApSa1-Saturday-01,0,1,17,ON GRAND AT 13TH NORTHBOUND,39.098427,-94.58091
2800195,201204-AVLApSa1-Saturday-01,0,4,65,ON GRAND AT 19TH SOUTHBOUND,39.090424,-94.581467
2800208,201204-AVLApSa1-Saturday-01,0,1,16,ON MCGEE TRFWY AT GILLHAM SOUTHBOUND,39.073112,-94.578629
2800212,201204-AVLApSa1-Saturday-01,0,1,16,ON LINWOOD AT CAMPBELL EASTBOUND,39.068729,-94.574463
2800214,201204-AVLApSa1-Saturday-01,0,1,17,ON LINWOOD AT TROOST EASTBOUND,39.068592,-94.571312
2800216,201204-AVLApSa1-Saturday-01,0,1,17,ON LINWOOD AT PASEO EASTBOUND,39.06847,-94.566948
2800217,201204-AVLApSa1-Saturday-01,0,1,17,ON LINWOOD AT FLORA EASTBOUND,39.068436,-94.565681
2800218,201204-AVLApSa1-Saturday-01,0,1,17,ON LINWOOD AT WAYNE EASTBOUND,39.06839,-94.564613
2800219,201204-AVLApSa1-Saturday-01,0,1,17,ON LINWOOD AT WOODLAND EASTBOUND,39.068321,-94.562294
2800221,201204-AVLApSa1-Saturday-01,0,1,17,ON LINWOOD AT BROOKLYN EASTBOUND,39.068169,-94.55761
2800224,201204-AVLApSa1-Saturday-01,0,1,17,ON LINWOOD AT SOUTH BENTON EASTBOUND,39.067886,-94.549568
2800225,201204-AVLApSa1-Saturday-01,0,1,17,ON LINWOOD AT AGNES EASTBOUND,39.067852,-94.548401
2800229,201204-AVLApSa1-Saturday-01,0,1,17,ON LINWOOD AT CLEVELAND EASTBOUND,39.06752,-94.53923
2800231,201204-AVLApSa1-Saturday-01,0,1,17,ON LINWOOD AT JACKSON EASTBOUND,39.067383,-94.534637
2800232,201204-AVLApSa1-Saturday-01,0,1,17,ON LINWOOD AT KENSINGTON EASTBOUND,39.067345,-94.532333
2800233,201204-AVLApSa1-Saturday-01,0,1,17,ON LINWOOD AT CYPRESS EASTBOUND,39.067299,-94.531174
2800234,201204-AVLApSa1-Saturday-01,0,1,17,ON LINWOOD AT ELMWOOD EASTBOUND,39.067245,-94.530045
2800239,201204-AVLApSa1-Saturday-01,0,1,17,ON 40 HWY AT 5631 E 40 HWY EASTBOUND,39.068138,-94.517761
2800240,201204-AVLApSa1-Saturday-01,0,1,17,ON 40 HWY AT 7301 E 40 HWY EASTBOUND,39.066837,-94.497177
2800242,201204-AVLApSa1-Saturday-01,0,1,17,ON 40 HWY AT 7901 E 40 HWY EB,39.063202,-94.490334
2800243,201204-AVLApSa1-Saturday-01,0,1,17,ON 40 HWY AT WALLACE EASTBOUND,39.06348,-94.485336
2800245,201204-AVLApSa1-Saturday-01,0,2,29,ON 40 HWY AT PEEK EASTBOUND,39.059139,-94.470863
2800253,201204-AVLApSa1-Saturday-01,0,1,18,ON PITTMAN AT 4000 PITTMAN NB,39.050213,-94.461456
2800254,201204-AVLApSa1-Saturday-01,0,1,17,ON PITTMAN AT 4000 PITTMAN SOUTHBOUND,39.050213,-94.461601
2800256,201204-AVLApSa1-Saturday-01,0,1,17,ON 42ND AT PITTMAN EASTBOUND,39.046768,-94.461243
2800263,201204-AVLApSa1-Saturday-01,0,1,17,ON 43RD AT STERLING EB,39.044079,-94.447525
2800264,201204-AVLApSa1-Saturday-01,0,1,14,ON BLUE RIDGE BETWEEN 50TH TERR AND 51ST ST SB,39.029488,-94.439545
2800268,201204-AVLApSa1-Saturday-01,0,1,14,ON BLUE RIDGE BLVD AT 44TH TERR SOUTHBOUND,39.041264,-94.437012
2800269,201204-AVLApSa1-Saturday-01,0,1,14,ON BLUE RIDGE BLVD AT 46TH TERR SOUTHBOUND,39.037487,-94.437263
2800270,201204-AVLApSa1-Saturday-01,0,1,14,ON BLUE RIDGE BLVD AT 47TH TERR SOUTHBOUND,39.034634,-94.438904
2800274,201204-AVLApSa1-Saturday-01,0,1,14,ON 51ST AT NORWOOD WESTBOUND,39.029488,-94.443222
2800276,201204-AVLApSa1-Saturday-01,0,1,14,ON 50TH TERRACE AT STERLING WESTBOUND,39.030823,-94.44825
2800277,201204-AVLApSa1-Saturday-01,0,1,14,ON STERLING AT 49TH NORTHBOUND,39.032692,-94.448204
2800278,201204-AVLApSa1-Saturday-01,0,1,14,ON STERLING AT 48TH TERR NORTHBOUND,39.033676,-94.448151
2800281,201204-AVLApSa1-Saturday-01,0,1,14,ON 47TH AT APPLETON WESTBOUND,39.037045,-94.450859
2800286,201204-AVLApSa1-Saturday-01,0,1,14,ON 47TH AT RAYTOWN TFWY WESTBOUND,39.034592,-94.473732
2800288,201204-AVLApSa1-Saturday-01,0,2,26,ON BLUE RIDGE CUT OFF AT FAST STOP SOUTHBOUND,39.033558,-94.478882
2800289,201204-AVLApSa1-Saturday-01,0,1,14,BLUE RIDGE CUT OFF AT SNI-A-BAR SB,39.031132,-94.48037
2800291,201204-AVLApSa1-Saturday-01,0,1,14,ON BLUE RIDGE CUT OFF AT 53RD TERR SOUTHBOUND,39.027039,-94.481293
2800292,201204-AVLApSa1-Saturday-01,0,1,14,ON BLUE RIDGE CUT OFF AT 5420 SOUTHBOUND,39.025826,-94.481346
2800295,201204-AVLApSa1-Saturday-01,0,1,14,ON BLUE RIDGE CUT OFF AT 57TH SOUTHBOUND,39.020157,-94.481628
2800297,201204-AVLApSa1-Saturday-01,0,1,14,ON BLUE RIDGE CUT OFF AT 59TH SOUTHBOUND,39.016628,-94.481812
2800298,201204-AVLApSa1-Saturday-01,0,1,14,ON BLUE RIDGE CUT OFF AT 59TH TERR SOUTHBOUND,39.015594,-94.481804
2800299,201204-AVLApSa1-Saturday-01,0,1,14,ON BLUE RIDGE CUT OFF AT 60TH TERR SOUTHBOUND,39.014561,-94.481743
2800300,201204-AVLApSa1-Saturday-01,0,1,14,ON BLUE RIDGE CUT OFF AT THE GARDENS POINT APTS SB,39.012428,-94.481834
2800301,201204-AVLApSa1-Saturday-01,0,1,14,ON BLUE RIDGE CUT OFF AT 6220 BLUE RIDGE CUTOFF SB,39.010895,-94.481934
2800310,201204-AVLApSa1-Saturday-01,0,1,14,ON BLUE RIDGE CUT OFF AT 73RD SOUTHBOUND,38.991302,-94.482346
2800311,201204-AVLApSa1-Saturday-01,0,1,14,ON BLUE RIDGE CUT OFF AT 74TH TERR. SOUTHBOUND,38.989315,-94.482864
2800312,201204-AVLApSa1-Saturday-01,0,1,14,ON BLUE RIDGE CUT OFF AT 7500 BLUE RIDGE CUTOFF SB,38.988506,-94.482964
2800314,201204-AVLApSa1-Saturday-01,0,1,14,ON BLUE RIDGE CUT OFF AT 77TH SOUTHBOUND,38.984428,-94.483185
2800321,201204-AVLApSa1-Saturday-01,0,1,14,ON BLUE RIDGE CUT OFF AT 81ST TERR. SOUTHBOUND,38.976063,-94.491417
2800322,201204-AVLApSa1-Saturday-01,0,1,14,ON BLUE RIDGE CUT OFF AT JAMES A REED SOUTHBOUND,38.974602,-94.49308
2800327,201204-AVLApSa1-Saturday-01,0,1,14,ON BLUE RIDGE CUT OFF AT 85TH TERR  SOUTHBOUND,38.967987,-94.498009
2800330,201204-AVLApSa1-Saturday-01,0,1,14,ON 87TH AT EASTERN WB,38.96661,-94.502449
2800331,201204-AVLApSa1-Saturday-01,0,1,14,ON 87TH AT CORRINGTON WB,38.966843,-94.50544
2800334,201204-AVLApSa1-Saturday-01,0,1,14,ON 87TH AT 6408 E 87TH ST WESTBOUND,38.967197,-94.514397
2800337,201204-AVLApSa1-Saturday-01,0,1,14,ON HILLCREST AT 8932 HILLCREST SOUTHBOUND,38.961517,-94.51963
2800347,201204-AVLApSa1-Saturday-01,0,1,14,ON BLUE RIDGE CUT OFF AT 87TH SOUTHBOUND,38.966431,-94.499649
2800400,201204-AVLApSa1-Saturday-01,0,1,29,ON HOLIDAY DR AT BLUE RIDGE,38.914238,-94.514206
2802008,201204-AVLApSa1-Saturday-01,0,1,8,ON BLUE RIDGE BLVD AT STERLING SOUTHBOUND,39.053368,-94.44722
2803012,201204-AVLApSa1-Saturday-01,0,1,15,ON BLUE RIDGE AT 87TH NORTHBOUND,38.96648,-94.499474
282313,201204-AVLApSa1-Saturday-01,0,1,17,ON 40 HWY AT WHITE EASTBOUND,39.068024,-94.513832
282314,201204-AVLApSa1-Saturday-01,0,1,15,ON 47TH AT HEDGES EASTBOUND,39.037079,-94.453857
282315,201204-AVLApSa1-Saturday-01,0,1,17,ON 40 HWY AT 8601 E 40 HWY EASTBOUND,39.063515,-94.484215
282316,201204-AVLApSa1-Saturday-01,0,1,17,ON 40HWY AT STADIUM DR EASTBOUND,39.062469,-94.478386
282317,201204-AVLApSa1-Saturday-01,0,1,17,ON 40 HWY AT HUNTER EASTBOUND,39.061344,-94.47506
282319,201204-AVLApSa1-Saturday-01,0,4,126,ON OAK AT 12TH NB,39.099903,-94.578484
282321,201204-AVLApSa1-Saturday-01,0,1,14,ON BLUE RIDGE AT BANNISTER FARSIDE SOUTHBOUND,38.952187,-94.508003
282322,201204-AVLApSa1-Saturday-01,0,1,14,ON LONGVIEW AT BLUE RIDGE EASTBOUND,38.915386,-94.513092
282323,201204-AVLApSa1-Saturday-01,0,1,14,ON LONGVIEW AT WINCHESTER EASTBOUND,38.915184,-94.510414
282325,201204-AVLApSa1-Saturday-01,0,1,18,ON 40 HWY AT EWING HEART MOBILE VILLAGE WB,39.070335,-94.5037
282326,201204-AVLApSa1-Saturday-01,0,1,17,ON 40 HWY AT EWING HEART MOBILE VILLAGE EB,39.070213,-94.503746
282331,201204-AVLApSa1-Saturday-01,0,1,18,ON 40 HWY AT 5601 E 40 HWY WESTBOUND,39.068214,-94.517761
282332,201204-AVLApSa1-Saturday-01,0,1,18,ON LINWOOD AT MONTGALL WB,39.068043,-94.551651
282333,201204-AVLApSa1-Saturday-01,0,1,18,ON LINWOOD AT WAYNE WESTBOUND,39.068497,-94.564377
282501,201204-AVLApSa1-Saturday-01,0,3,52,ON 27TH AT WARWICK EB,39.078045,-94.582153
282502,201204-AVLApSa1-Saturday-01,0,1,14,ON 47TH AT 9230 EAST 47TH WB,39.035973,-94.47065
282505,201204-AVLApSa1-Saturday-01,0,1,14,ON BLUE RIDGE AT 107TH PLACE SB,38.928654,-94.507874
282506,201204-AVLApSa1-Saturday-01,0,1,14,ON 116TH AT HOLLIDAY DR SB,38.912712,-94.512444
282508,201204-AVLApSa1-Saturday-01,0,1,12,ON BLUE RIDGE CUT OFF AT 43RD TERR SB,39.044216,-94.475853
282513,201204-AVLApSa1-Saturday-01,0,1,15,ON BLUE RIDGE AT HOLIDAY NB,38.914619,-94.514336
282514,201204-AVLApSa1-Saturday-01,0,2,27,ON BLUE RIDGE CUT OFF AT 5000 NB,39.03323,-94.478928
282600,201204-AVLApSa1-Saturday-01,0,1,17,ON NORTHERN AT 10613 SB,39.04631,-94.45298
282602,201204-AVLApSa1-Saturday-01,0,2,23,ON 43RD BETWEEN BLUE RIDGE BLVD & MOATS WB,39.0438,-94.43943
282703,201204-AVLApSa1-Saturday-01,0,1,15,ON 47TH AT WILLOW EB,39.037216,-94.45713
2840030,201204-AVLApSa1-Saturday-01,0,1,17,ON 42ND TERRACE AT NOLAND EASTBOUND,39.043835,-94.414574
2840031,201204-AVLApSa1-Saturday-01,0,1,17,ON PRICE CHOPPER DR AT 42ND TERR NORTHBOUND,39.044437,-94.411446
2840032,201204-AVLApSa1-Saturday-01,0,1,8,ON NOLAND AT 44TH SOUTHBOUND,39.040707,-94.415436
