stop_id,service_id,direction_id,numroutes,TripsServingStop,stop_name,stop_lat,stop_lon
1310,105,0,2,13,"Eugene Station, Bay T",44.048747,-123.093362
1310,105,1,2,12,"Eugene Station, Bay T",44.048747,-123.093362
1627,105,0,2,13,"Springfield Station, Bay F",44.045235,-123.021651
1628,105,1,2,12,"Springfield Station, Bay G",44.045528,-123.021877
1647,105,0,2,13,EmX High Street Station outbound,44.048771,-123.0878
1648,105,0,2,13,EmX Hilyard Station,44.04761,-123.082312
1648,105,1,2,12,EmX Hilyard Station,44.04761,-123.082312
1649,105,0,2,13,EmX Dads' Gates Station,44.047765,-123.07772
1649,105,1,2,12,EmX Dads' Gates Station,44.047765,-123.07772
1650,105,0,2,13,EmX Agate Station,44.046365,-123.069282
1650,105,1,2,12,EmX Agate Station,44.046365,-123.069282
1651,105,0,2,13,EmX Walnut Station,44.044828,-123.061326
1651,105,1,2,12,EmX Walnut Station,44.044828,-123.061326
1652,105,1,2,12,EmX Glenwood Station inbound,44.045314,-123.043203
1653,105,0,2,13,EmX Glenwood Station outbound,44.045295,-123.040896
1654,105,1,2,12,EmX Lexington Station inbound,44.044997,-123.036552
1655,105,0,2,13,EmX Lexington Station outbound,44.044582,-123.034941
1656,105,0,2,13,EmX McVay Station,44.044137,-123.030916
1656,105,1,2,12,EmX McVay Station,44.044137,-123.030916
1800,105,1,2,12,High Street Station inbound,44.047789,-123.088637
1801,105,1,2,12,11th & Willamette,44.047794,-123.093202
1310,106,0,2,20,"Eugene Station, Bay T",44.048747,-123.093362
1310,106,1,2,17,"Eugene Station, Bay T",44.048747,-123.093362
1627,106,0,2,20,"Springfield Station, Bay F",44.045235,-123.021651
1628,106,1,2,17,"Springfield Station, Bay G",44.045528,-123.021877
1647,106,0,2,20,EmX High Street Station outbound,44.048771,-123.0878
1648,106,0,2,20,EmX Hilyard Station,44.04761,-123.082312
1648,106,1,2,17,EmX Hilyard Station,44.04761,-123.082312
1649,106,0,2,20,EmX Dads' Gates Station,44.047765,-123.07772
1649,106,1,2,17,EmX Dads' Gates Station,44.047765,-123.07772
1650,106,0,2,20,EmX Agate Station,44.046365,-123.069282
1650,106,1,2,17,EmX Agate Station,44.046365,-123.069282
1651,106,0,2,20,EmX Walnut Station,44.044828,-123.061326
1651,106,1,2,17,EmX Walnut Station,44.044828,-123.061326
1652,106,1,2,17,EmX Glenwood Station inbound,44.045314,-123.043203
1653,106,0,2,20,EmX Glenwood Station outbound,44.045295,-123.040896
1654,106,1,2,17,EmX Lexington Station inbound,44.044997,-123.036552
1655,106,0,2,20,EmX Lexington Station outbound,44.044582,-123.034941
1656,106,0,2,20,EmX McVay Station,44.044137,-123.030916
1656,106,1,2,17,EmX McVay Station,44.044137,-123.030916
1800,106,1,2,17,High Street Station inbound,44.047789,-123.088637
1801,106,1,2,17,11th & Willamette,44.047794,-123.093202
1310,107,0,2,6,"Eugene Station, Bay T",44.048747,-123.093362
1310,107,1,2,5,"Eugene Station, Bay T",44.048747,-123.093362
1627,107,0,2,6,"Springfield Station, Bay F",44.045235,-123.021651
1628,107,1,2,5,"Springfield Station, Bay G",44.045528,-123.021877
1647,107,0,2,6,EmX High Street Station outbound,44.048771,-123.0878
1648,107,0,2,6,EmX Hilyard Station,44.04761,-123.082312
1648,107,1,2,5,EmX Hilyard Station,44.04761,-123.082312
1649,107,0,2,6,EmX Dads' Gates Station,44.047765,-123.07772
1649,107,1,2,5,EmX Dads' Gates Station,44.047765,-123.07772
1650,107,0,2,6,EmX Agate Station,44.046365,-123.069282
1650,107,1,2,5,EmX Agate Station,44.046365,-123.069282
1651,107,0,2,6,EmX Walnut Station,44.044828,-123.061326
1651,107,1,2,5,EmX Walnut Station,44.044828,-123.061326
1652,107,1,2,5,EmX Glenwood Station inbound,44.045314,-123.043203
1653,107,0,2,6,EmX Glenwood Station outbound,44.045295,-123.040896
1654,107,1,2,5,EmX Lexington Station inbound,44.044997,-123.036552
1655,107,0,2,6,EmX Lexington Station outbound,44.044582,-123.034941
1656,107,0,2,6,EmX McVay Station,44.044137,-123.030916
1656,107,1,2,5,EmX McVay Station,44.044137,-123.030916
1800,107,1,2,5,High Street Station inbound,44.047789,-123.088637
1801,107,1,2,5,11th & Willamette,44.047794,-123.093202
1,61,0,1,75,E/S of 58th N of Main,44.046335,-122.926726
10,61,0,1,75,W/S of 69th S of G,44.05265,-122.904238
100,61,1,1,25,N/S of Q W of 10th,44.062538,-123.01242
1001,61,1,1,3,E/S of Oak S of 10th,44.048504,-123.091151
1003,61,1,1,6,E/S of Tamarack S of Olympic,44.059649,-123.042914
1004,61,1,1,6,S/S of Fairview E of Tamarack,44.060815,-123.042032
1005,61,1,1,6,S/S of Fairview W of Rainbow,44.060776,-123.038877
1007,61,1,1,31,W/S of Bertelsen S of 11th,44.047375,-123.162512
1009,61,1,2,46,E/S of Hilyard N of 30th,44.024788,-123.081466
101,61,1,1,25,N/S of Q W of 7th,44.062292,-123.016776
1010,61,0,2,46,W/S of Hilyard N of 30th,44.024618,-123.081724
1011,61,1,1,28,E/S of Hilyard N of 32nd,44.022461,-123.081458
1012,61,0,2,25,"Amazon Station, Bay C",44.026603,-123.084243
1013,61,0,1,18,"Amazon Station, Bay D",44.026464,-123.084234
1014,61,1,1,18,"Amazon Station, Bay B",44.026868,-123.084488
1015,61,1,2,25,"Amazon Station, Bay A",44.026661,-123.084489
1016,61,1,2,25,N/S of 19th E of Oak,44.039021,-123.091013
1018,61,0,1,36,E/S of Goodpstre Is N of Alexander,44.079748,-123.10999
1019,61,1,1,32,W/S of Goodpstre Is S of Alexander,44.079292,-123.10917
102,61,0,1,31,E/S of 21st N of L,44.057605,-122.994275
1020,61,1,1,25,E/S of Old Franklin S of Nugget Way,44.027199,-123.027264
1021,61,0,1,25,W/S of Old Franklin S of Nugget Way,44.02707,-123.027397
1022,61,1,1,21,S/S of 24th W of Taylor,44.033037,-123.114769
1023,61,0,1,21,E/S of Chambers N of 28th,44.027831,-123.11777
1024,61,0,1,21,N/S of 28th E of Almaden,44.027738,-123.114032
1026,61,0,1,25,E/S of Washington S of 6th Ave,44.053096,-123.100324
1027,61,1,1,8,S/S of 11th W of Fred Meyer dwy,44.047929,-123.144288
1028,61,1,1,31,W/S of Bertelsen S of 13th,44.044943,-123.16258
1031,61,0,1,18,N/S of Silver W of Escalante,44.095647,-123.134356
1032,61,0,1,4,S/S of Main E of 69th,44.045534,-122.90331
1033,61,0,1,75,S/S of Main E of 48th,44.045646,-122.948948
1034,61,0,3,66,E/S of Coburg S of Oakmont,44.065332,-123.07464
1035,61,1,1,6,E/S of Aspen N of Sequoia,44.05642,-123.042515
1037,61,1,2,49,S/S of 2nd E of Chambers,44.057482,-123.116723
104,61,0,1,31,S/S of Centennial W of 21st,44.055985,-122.994691
1040,61,0,2,48,N/S of 2nd W of Blair,44.057508,-123.111803
1041,61,1,2,49,W/S of Blair S of 2nd,44.057202,-123.110947
1042,61,0,2,48,E/S of Blair N of 4th,44.055649,-123.109266
1043,61,1,2,49,W/S of Blair N of 4th,44.055571,-123.109371
1047,61,1,1,73,N/S of Main E of 8th,44.046222,-123.015077
1048,61,0,6,75,S/S of 13th W of Oak,44.045448,-123.09178
1048,61,1,1,12,S/S of 13th W of Oak,44.045448,-123.09178
1051,61,0,1,31,E/S of Gateway S of North Access,44.076675,-123.042103
1052,61,0,1,30,W/S of Gateway S of North Access,44.075845,-123.042355
1053,61,0,1,30,Gateway Sta.-Bay B (to ES),44.073139,-123.042685
1053,61,1,1,31,Gateway Sta.-Bay B (to ES),44.073139,-123.042685
1054,61,0,1,31,Gateway Sta.-Bay A (to Spfd),44.073238,-123.042823
1055,61,0,2,48,E/S of Chambers N of 2nd,44.057957,-123.117248
1056,61,0,1,1,S/S of 1st W of Grimes,44.058198,-123.158429
1056,61,1,1,1,S/S of 1st W of Grimes,44.058198,-123.158429
1057,61,0,1,1,S/S of 1st E of Grimes,44.05838,-123.155194
1057,61,1,1,2,S/S of 1st E of Grimes,44.05838,-123.155194
1059,61,0,1,18,N/S of Silver W of Greg,44.095759,-123.141123
106,61,0,1,31,S/S of Centennial E of 18th,44.056072,-122.997558
1060,61,0,1,18,N/S of Silver E of N Park,44.095737,-123.143729
1066,61,1,1,6,W/S of Hwy 99 S of Fairfield,44.074198,-123.146871
1067,61,1,1,6,W/S of Hwy 99 S of Pattison,44.078043,-123.150119
1068,61,0,1,1,N/S of 1st W of Grimes,44.058304,-123.158445
1071,61,1,6,105,E/S of Olive S of 12th,44.046373,-123.094242
1072,61,0,3,66,N/S of 11th E of Commerce,44.048134,-123.166768
1073,61,1,3,70,S/S of 11th E of Commerce,44.047976,-123.166752
1074,61,0,1,34,E/S of Country Club S of Womenscare Clinic,44.064165,-123.091514
1075,61,0,2,42,E/S of River Rd S of Division,44.098112,-123.128903
1076,61,1,2,25,E/S of Amazon Pkwy S of 19th,44.038015,-123.089655
1077,61,0,2,46,W/S of Kincaid N of 14th,44.044573,-123.078724
1078,61,0,1,31,N/S of Elmira E of Berntzen,44.066248,-123.157757
1079,61,1,1,31,S/S of Elmira W of Berntzen,44.066233,-123.158322
108,61,0,1,31,S/S of Centennial E of 16th,44.056118,-123.000167
1080,61,0,1,7,N/S of 11th W of Terry,44.048447,-123.188778
1081,61,1,2,37,S/S of 11th E of Terry,44.048233,-123.187728
1084,61,1,1,31,E/S of Donald S of Mill,44.01283,-123.087295
1085,61,1,1,31,E/S of Donald N of 37th,44.015769,-123.087723
1086,61,1,1,31,E/S of Pearl S of 34th Pl,44.017869,-123.088511
1087,61,1,1,31,N/S of 34th Pl E of Donald,44.019194,-123.089332
1088,61,1,1,31,E/S of Donald N of 33rd,44.021328,-123.090092
1094,61,0,1,31,N/S of Roosevelt W of Chambers,44.063421,-123.121357
1095,61,1,1,31,S/S of Roosevelt W of Chambers,44.06325,-123.12165
1096,61,1,1,31,S/S of Elmira W of Archie,44.06619,-123.154986
11,61,0,1,75,W/S of 69th N of D,44.049526,-122.904205
110,61,0,1,31,S/S of Centennial W of Market,44.056174,-123.003579
1103,61,1,1,32,W/S of Goodpstre Is Sof Boulders,44.081753,-123.111952
1104,61,0,1,36,E/S of Goodpasture Is N of Wimbledon,44.08183,-123.111739
1106,61,0,1,13,S/S of 24th E of Alder,44.033375,-123.080113
1107,61,0,1,13,S/S of 24th E of Harris,44.033428,-123.0773
1108,61,0,1,13,S/S of 24th E of University,44.033391,-123.074104
1109,61,0,1,13,S/S of 24th W of Nixon,44.033377,-123.070846
111,61,1,1,30,N/S of Centennial W of Market,44.056257,-123.004076
1110,61,0,1,13,E/S of Agate S of 21st,44.036431,-123.069642
1111,61,0,1,13,E/S of Walnut S of 17th,44.041043,-123.061526
1112,61,0,1,13,E/S of Walnut N of 15th,44.043995,-123.061496
112,61,0,1,31,S/S of Centennial E of 12th,44.056217,-123.00856
113,61,1,1,30,N/S of Centennial W of 12th,44.05627,-123.009352
1138,61,0,1,31,E/S of Echo Hollow S of Barger,44.084149,-123.168028
1139,61,0,1,25,N/S of Marcola Rd E of 19th,44.064541,-122.995208
1139,61,1,1,25,N/S of Marcola Rd E of 19th,44.064541,-122.995208
114,61,0,1,31,S/S of Centennial E of 10th,44.056193,-123.01155
1141,61,0,1,25,N/S of Marcola E of 22nd,44.064555,-122.992429
115,61,1,1,30,N/S of Centennial W of 10th,44.056289,-123.013805
1150,61,1,1,73,N/S of Main W of 30th,44.045931,-122.983486
1157,61,0,2,79,"Thurston Sta, Bay B (outb.)",44.045556,-122.929652
1158,61,0,1,73,"Thurston Sta, Bay A (inb.)",44.044772,-122.930139
1158,61,1,1,73,"Thurston Sta, Bay A (inb.)",44.044772,-122.930139
1159,61,0,1,75,S/S of Main E of 34th,44.045793,-122.97818
116,61,0,1,31,S/S of Centennial E of 7th,44.056204,-123.016373
1160,61,1,1,18,S/S of Silver E of Sterling East,44.095606,-123.131582
1161,61,0,1,3,W/S of Old Franklin N of Seavey Loop,44.013435,-123.018434
1162,61,1,1,4,E/S of Old Franklin S of Seavey Loop,44.01276,-123.018291
117,61,1,1,30,N/S of Centennial W of 7th,44.056318,-123.017037
1172,61,0,1,6,N/S of Irving W of Prairie Rd,44.10328,-123.164401
1173,61,1,1,6,S/S of Irving W of Prairie Rd,44.103171,-123.164177
1177,61,0,1,17,N/S of Irvington Rd W of Willowbrook,44.115846,-123.15366
1177,61,1,1,19,N/S of Irvington Rd W of Willowbrook,44.115846,-123.15366
118,61,1,1,30,N/S of Centennial W of 5th,44.056292,-123.020531
1181,61,1,1,6,W/S of Hwy 99 S of Prairie Rd,44.088115,-123.158095
1182,61,1,1,25,E/S of Old Franklin N of Dw 512,44.033016,-123.026656
1183,61,0,1,25,W/S of Old Franklin N of Dw 512,44.033086,-123.026809
1184,61,1,1,31,W/s of Danebo N of Roosevelt,44.066543,-123.178252
1185,61,0,3,65,N/S of W 11th E of Danebo,44.048306,-123.177698
1186,61,0,1,29,E/S of Terry S of Avalon,44.07722,-123.188149
1187,61,0,1,29,E/S of Terry S of Summerfield Estates,44.082125,-123.188144
1188,61,1,1,32,W/S of Terry S of Summerfield Estates,44.082146,-123.188299
1189,61,1,1,32,W/S of Terry S of Woodland Pk,44.080013,-123.188321
119,61,0,1,31,S/S of Centennial E of Custom,44.056303,-123.022529
1190,61,1,1,32,W/S of Terry S of Avalon,44.077014,-123.188305
1191,61,1,1,32,W/S of Terry S of Donohue (Kalapuya HS),44.073894,-123.188352
1192,61,1,1,31,W/S of Danebo S of Pacific St,44.05704,-123.178294
1193,61,1,1,31,W/S of Danebo N of Isabelle,44.051473,-123.178318
1194,61,0,1,29,E/S of Danebo S of Isabelle St,44.050806,-123.178134
1195,61,0,1,29,E/S of Danebo N of Pacific St,44.057432,-123.178144
1199,61,1,1,19,W/S of Arrowhead N of Ginger,44.111636,-123.156568
120,61,1,1,30,N/S of Centennial E of 1st,44.057148,-123.025587
1200,61,1,1,19,W/S of Arrowhead N of Cinnamon,44.107963,-123.155718
1201,61,1,1,19,W/S of Arrowhead N of Dry Crk,44.106239,-123.155033
1202,61,1,1,19,S/S of Irving E of Arrowhead,44.103227,-123.152624
1203,61,1,3,70,S/S of 11th W of Commerce (Wal Mart),44.047987,-123.170315
1204,61,1,1,18,N/S of N Park W/S of Rossmore,44.079858,-123.140472
1205,61,1,1,18,E/S of N Park S/S of Cornwall,44.080757,-123.144164
1206,61,1,1,18,E/S of N Park S of Kelly,44.083284,-123.144135
1207,61,1,1,18,E/S of Grove N of Armstrong,44.093505,-123.138283
1209,61,0,1,31,E/S of Shadowview S of Crescent,44.09174,-123.060007
121,61,0,1,31,S/S of Centennial W of Pioneer Pkwy W,44.056916,-123.02525
1218,61,1,1,36,W/S of Shadowview S of Crescent,44.09171,-123.060156
1219,61,1,1,18,E/s of N. Park s/s of Maclay,44.079644,-123.137863
122,61,0,1,6,N/S of Centennial W of Prescott,44.057254,-123.034035
122,61,1,1,30,N/S of Centennial W of Prescott,44.057254,-123.034035
1220,61,0,1,29,E/S of Danebo N of Roosevelt,44.065447,-123.178075
1221,61,0,1,31,E/S of Echo Hollow north of Royal,44.071076,-123.168086
1223,61,1,1,31,W/S of Danebo S of Royal,44.068662,-123.178252
1225,61,0,1,18,S/S of Horn W of Anderson,44.081607,-123.129305
1226,61,0,1,18,S/S of Horn W/S of Hodson,44.081554,-123.125049
1227,61,1,2,37,W/S of Hwy 99 S of Barger,44.084011,-123.154421
1228,61,1,1,31,S/S of Country Club E of 520 dw,44.063998,-123.091341
123,61,0,1,31,S/S of Centennial E of Prescott,44.057195,-123.032894
1233,61,1,1,26,N/S of Spring Crk W of Spring Meadows,44.124278,-123.13866
1237,61,0,1,1,E/S of Seneca N of 11th,44.049966,-123.140538
1238,61,0,1,1,E/S of Seneca N of 7th,44.052629,-123.140548
1239,61,0,1,1,E/S of Seneca S of 1st Ave,44.056869,-123.140444
124,61,0,1,6,N/S of Centennial W of Rainbow,44.056201,-123.038282
124,61,1,2,36,N/S of Centennial W of Rainbow,44.056201,-123.038282
1240,61,0,1,1,N/S of 1st W of Seneca,44.058926,-123.145903
1241,61,0,1,1,N/S of 1st W of Industrial Finishes,44.058834,-123.150438
1242,61,0,1,1,N/S of 1st W of Wallis,44.058533,-123.154895
1243,61,0,1,1,N/S of 1st E of Bertelsen,44.058273,-123.162037
1244,61,0,1,1,N/S of 6th W of Bertelsen,44.053055,-123.163781
1244,61,1,1,1,N/S of 6th W of Bertelsen,44.053055,-123.163781
1245,61,0,1,1,N/S of 6th E of Commercial,44.053121,-123.166924
1245,61,1,1,1,N/S of 6th E of Commercial,44.053121,-123.166924
1246,61,0,1,1,S/S of 1st E of Bertelsen,44.058171,-123.161949
1246,61,1,1,1,S/S of 1st E of Bertelsen,44.058171,-123.161949
1247,61,1,1,2,S/S of 1st W of BiMart Warehouse,44.058796,-123.149179
1248,61,1,1,2,S/S of 1st W of Seneca,44.058838,-123.14557
1249,61,1,1,2,W/S of Seneca S of 1st Ave,44.056992,-123.140653
125,61,0,1,31,S/S of Centennial W of Rainbow Dr,44.056001,-123.038232
1250,61,1,1,2,W/S of Seneca N of 7th,44.052867,-123.140684
1251,61,1,1,2,W/S of Seneca N of 11th,44.050524,-123.1407
1253,61,0,1,29,E/S of Terry S of Woodland Park,44.080024,-123.188136
1254,61,0,1,6,E/S of Hwy 99 N of Royal,44.070544,-123.143151
1255,61,1,1,31,W/S of Echo Hollow N of Knoop,44.072782,-123.168186
1256,61,0,1,31,E/S of Echo Hollow N of Knoop,44.072686,-123.168051
1257,61,1,1,31,S/S of Elmira E of Hope,44.066257,-123.161426
126,61,0,1,31,S/S of Centennial E of Aspen,44.055643,-123.042238
1260,61,0,1,31,S/S of Chad E of Coburg Rd,44.09008,-123.065276
1261,61,0,1,31,E/S of Shadowview N of Chad,44.09025,-123.06084
1262,61,1,1,36,S/S of Crescent E/S of Coburg Rd,44.092895,-123.065713
1263,61,1,1,36,N/S of Chad W of Shadowview,44.090116,-123.063133
1264,61,1,1,36,N/S of Chad E of Coburg Rd,44.09022,-123.065372
1267,61,1,1,36,S/S of Crescent W of Shadowview,44.092169,-123.061364
1269,61,0,1,16,S/S of 30th on ramp E of Spring Blvd,44.022177,-123.059557
127,61,1,1,30,N/S of Centennial W of Aspen,44.055858,-123.043046
1270,61,1,3,68,S/S of 11th E of Willow Crk,44.048085,-123.177236
128,61,0,1,31,S/S of Centennial E of Anderson,44.055796,-123.047316
1288,61,1,2,62,S/S of Aerial W of N Clarey,44.086101,-123.162208
1289,61,0,1,31,S/S of Wagner E of Cubit,44.086064,-123.167434
1289,61,1,2,63,S/S of Wagner E of Cubit,44.086064,-123.167434
129,61,1,1,30,N/S of Centennial E of Anderson,44.05591,-123.047617
1290,61,0,3,66,N/S of 11th W of Commerce,44.048208,-123.170272
1291,61,0,1,7,"Eugene Station, Bay A",44.048128,-123.094019
1292,61,0,1,21,"Eugene Station, Bay B",44.047941,-123.093824
1293,61,0,1,29,"Eugene Station, Bay C",44.047858,-123.093715
1295,61,0,2,42,"Eugene Station, Bay E",44.048067,-123.093796
1296,61,0,1,30,"Eugene Station, Bay F",44.048236,-123.093942
1297,61,0,2,10,"Eugene Station, Bay G",44.04829,-123.094098
1299,61,0,3,28,"Eugene Station, Bay I",44.048515,-123.093919
13,61,0,1,75,W/S of 69th N of Main St,44.046242,-122.903942
130,61,1,2,55,W/S of Mohawk S of Olympic,44.059073,-123.000145
1300,61,0,1,11,"Eugene Station, Bay J",44.048276,-123.09374
1301,61,0,1,26,"Eugene Station, Bay K",44.048124,-123.093638
1302,61,0,2,43,"Eugene Station, Bay L",44.048138,-123.093399
1303,61,0,1,30,"Eugene Station, Bay M",44.047971,-123.093164
1303,61,1,1,12,"Eugene Station, Bay M",44.047971,-123.093164
1304,61,0,2,9,"Eugene Station, Bay N",44.048047,-123.092976
1305,61,0,1,31,"Eugene Station, Bay O",44.048133,-123.092989
1306,61,0,2,35,"Eugene Station, Bay P",44.048117,-123.093256
1307,61,0,1,31,"Eugene Station, Bay Q",44.048265,-123.093449
1308,61,0,1,34,"Eugene Station, Bay R",44.048392,-123.093664
1309,61,0,1,31,"Eugene Station, Bay S",44.048653,-123.093744
131,61,1,2,55,W/S of Mohawk S of M,44.056844,-123.001897
1310,61,0,2,86,"Eugene Station, Bay T",44.048747,-123.093362
1310,61,1,2,87,"Eugene Station, Bay T",44.048747,-123.093362
1311,61,0,2,28,E/S of Olive N of 8th,44.051306,-123.094199
1312,61,0,1,11,S/S of 5th E of Olive,44.054329,-123.093453
1313,61,0,1,11,S/S of 5th W of Pearl,44.054244,-123.090008
1321,61,0,2,65,S/S of MLK Blvd W of Centennial Lp,44.059479,-123.080922
1322,61,0,1,34,E/S of Club Rd S of Country Club Rd,44.060157,-123.084437
1323,61,0,1,32,W/S of Terry S of Barger,44.083928,-123.188283
1323,61,1,1,32,W/S of Terry S of Barger,44.083928,-123.188283
1325,61,1,1,16,LCC Station Bay B,44.009468,-123.035029
1326,61,1,1,21,LCC Station Bay C,44.009812,-123.035146
1327,61,1,1,25,LCC Station Bay D,44.009913,-123.035123
1328,61,0,2,8,LCC Station Bay E,44.010099,-123.035184
1328,61,1,2,6,LCC Station Bay E,44.010099,-123.035184
1329,61,1,1,4,N/S of Hwy 126 (MP 12.7) E of Thriftway,44.066042,-122.810337
133,61,0,1,25,E/S of Mohawk N of G,44.053562,-123.004197
1330,61,0,1,4,E/S of Territorial (MP 19.6) N of Broadway,44.051885,-123.351464
1331,61,0,1,4,S/S of Broadway E of 4th,44.051212,-123.354642
1334,61,0,1,6,N/S of 8th E of Holly,44.220965,-123.203518
1334,61,1,1,6,N/S of 8th E of Holly,44.220965,-123.203518
1336,61,1,1,4,W/S of Coburg Rd N of Game Farm Rd,44.106247,-123.056115
1337,61,0,1,3,E/S of Moss S of Shore,43.919154,-122.783157
1337,61,1,1,4,E/S of Moss S of Shore,43.919154,-122.783157
1338,61,0,1,8,W/S of Territorial N of Hwy 126,44.055246,-123.352913
1338,61,1,1,8,W/S of Territorial N of Hwy 126,44.055246,-123.352913
134,61,0,1,25,E/S of Mohawk N of Modoc,44.055019,-123.003007
1342,61,0,1,3,W/S of Hwy 99 N of Goshen,43.997413,-123.012435
1343,61,1,1,4,S/S of Hwy 126 (MP 47.7) W of Huston,44.052628,-123.330615
1344,61,1,1,4,N/S of Hwy 58 W of Seavey Loop,43.995243,-123.001067
1345,61,0,1,4,E/S of Territorial (MP 20.2) S of Bolton,44.043189,-123.351724
1346,61,0,1,4,S/S of Hwy 126 (MP 9.9) E of Thurston Rd,44.051624,-122.857594
1347,61,1,1,4,N/S of Hwy 126 (MP 9.7) E of Thurston Rd,44.051315,-122.860729
1348,61,0,1,4,S/S of Hwy 126 (MP 10.8) E of Mathers Mkt,44.054274,-122.841191
1349,61,1,1,4,N/S of Hwy 126 (MP 10.7) W of Mathers Mkt,44.054044,-122.842372
135,61,0,1,25,E/S of Mohawk N of Centennial,44.056576,-123.0018
1350,61,0,1,4,S/S of Hwy 126 (MP 11.7) E of Flowerdale Dr,44.058637,-122.827023
1351,61,1,1,4,N/S of Hwy 126 (MP 11.7) W of Flowerdale Dr,44.058502,-122.82733
1352,61,0,1,4,S/S of Hwy 126 (MP 12.7) E of Walterville,44.065966,-122.810147
1353,61,0,1,4,S/S of Hwy 126 (MP 13.3) W of Fallin,44.070155,-122.799579
1354,61,1,1,4,N/S of Hwy 126 (MP 13.3) W of Fallin,44.070303,-122.799671
1355,61,0,1,4,S/S of Hwy 126 (MP 15.3) W of Twin Firs Rd,44.078633,-122.75948
1356,61,1,1,4,N/S of Hwy 126 (MP 15.3) E of Twin Firs Rd,44.078812,-122.759192
1357,61,0,1,4,S/S of Hwy 126 (MP 19.9),44.10666,-122.677527
1358,61,0,1,4,S/S of Hwy 126 (MP 20.1) E of Mailbox 44895,44.107121,-122.675532
1359,61,1,1,4,N/S of Hwy 126 (MP 20.0) E of Johnson Crk,44.106892,-122.67708
136,61,0,1,25,E/S of Mohawk N of M,44.058062,-123.00071
1364,61,1,1,4,(^) N/S of Hwy 126 (MP 23.8) W of Leaburg Dam,44.135869,-122.613404
1365,61,0,1,4,S/S of Hwy 126 (MP 23.8) W of Leaburg Dam,44.135807,-122.613209
1366,61,1,1,4,N/S of Hwy 126 (MP 24.5) E of Hatchery Crk Rd,44.141067,-122.605984
1367,61,0,1,4,S/S of Hwy 126 (MP 24.8) E of Hatchery Crk Rd,44.14054,-122.601117
1368,61,0,1,4,S/S of Hwy 126 (MP 25.2) E of McKenzie Baptist,44.143454,-122.594408
1369,61,1,1,4,N/S of Hwy 126 (MP 32.7) E of McKenzie Baptist,44.143458,-122.594554
137,61,1,1,25,N/S of G E of 12th,44.052373,-123.007108
1370,61,0,1,4,S/S of Hwy 126 (MP 26.4) W of Gate Creek Rd,44.146887,-122.573168
1371,61,1,1,4,N/S of Hwy 126 (MP 26.4) E of Gate Creek Rd,44.146971,-122.572866
1372,61,1,1,4,N/S of Hwy 126 (MP 28.4) E of Mailbox 46451,44.132788,-122.540533
1373,61,0,1,4,S/S of Hwy 126 (MP 32.7) at 48500 McKenzie Hwy,44.118376,-122.461928
1374,61,1,1,4,N/S of Hwy 126 (MP 32.7) W of Driveway 48511,44.118494,-122.461803
1375,61,0,1,4,S/S of Hwy 126 (MP 34.5) W of Nimrod,44.111975,-122.433584
1376,61,1,1,4,N/S of Hwy 126 (MP 34.6) E of Nimrod,44.111562,-122.433153
1377,61,0,1,4,S/S of Hwy 126 (MP 35.7) W of Village Cafe,44.119194,-122.418018
1378,61,1,1,4,N/S of Hwy 126 (MP 35.8) E of Village Cafe,44.119491,-122.417672
138,61,0,1,25,S/S of G E of 12th,44.052238,-123.008661
1381,61,0,1,4,S/S of Hwy 126 (MP 38.0) W of Finn Rock Store,44.131293,-122.379658
1382,61,1,1,4,N/S of Hwy 126 (MP 38.2) E of Finn Rock Store,44.131412,-122.37944
1383,61,0,1,4,S/S of Blue Riv Dr W of Blue Riv Sch,44.152873,-122.361198
1384,61,1,1,4,N/S of Blue Riv Dr E of Blue Riv Sch,44.152898,-122.361353
1385,61,0,1,4,S/S of Blue Riv Dr E of McKenzie St,44.152965,-122.337954
1386,61,1,1,4,N/S of Blue River Dr W of Dexter St,44.15391,-122.338692
1387,61,0,1,4,S/S of Hwy 126 (MP 45.5) E of Aufderheide,44.165632,-122.260228
1388,61,1,1,4,N/S of Hwy 126 (MP 45.5) W of Aufderheide,44.165663,-122.260853
1389,61,0,1,2,S/S of Hwy 126 (MP 46.4) E of McKenzie Rvr Dr,44.170393,-122.241492
139,61,1,1,25,N/S of G E of 10th,44.052354,-123.012143
1390,61,1,1,4,N/S of Hwy126 (MP 46.3) W of McKenzie Rvr Dr,44.170236,-122.242899
1391,61,0,1,2,S/S of Hwy 126 (MP 47.5) E of Mill Creek Rd,44.17388,-122.2203
1392,61,1,1,2,N/S of Hwy 126 (MP 47.5) E of Mill Creek Rd,44.173954,-122.220297
1393,61,0,1,4,S/S of Hwy 126 (MP 50.0) E of Taylor,44.176739,-122.170067
1394,61,1,1,4,N/S of Hwy 126 (MP 49.9) E of Taylor Rd,44.176938,-122.170544
1395,61,0,1,4,S/S of Hwy 126 (MP 50.2) E of Mailbox 56311,44.175514,-122.166002
1396,61,1,1,4,N/S of Hwy 126 (MP 50.2) W of driveway 56311,44.175612,-122.166125
1397,61,0,1,4,S/S of Hwy126 (MP 50.3) W of McKenzie Bridge Store,44.174762,-122.163839
1398,61,1,1,4,N/S of Hwy126 (MP 50.3) E of McKenzie Bridge Store,44.174585,-122.162773
1399,61,0,1,4,S/S of Hwy 126 (MP 50.5) E of Horse Creek Rd,44.173644,-122.160196
14,61,0,1,75,N/S of Main W of 68th,44.045696,-122.907348
14,61,1,1,4,N/S of Main W of 68th,44.045696,-122.907348
140,61,1,1,25,N/S of G W of 7th,44.052367,-123.017058
1400,61,1,1,4,N/S of Hwy 126 (MP 50.6) E of Horse Creek Rd,44.173586,-122.157397
1401,61,0,1,4,S/S of Hwy 126 (MP 50.8) W of HUB RV,44.174068,-122.153852
1402,61,1,1,4,N/S of Hwy 126 (MP 50.8) W of driveway 56629,44.174064,-122.15396
1403,61,0,1,4,S/S of Hwy 126 (MP 52.8) E of McKenzieRngrSta,44.179588,-122.115275
1403,61,1,1,4,S/S of Hwy 126 (MP 52.8) E of McKenzieRngrSta,44.179588,-122.115275
1404,61,0,1,7,N/S of Hwy 126 (MP 1.3) E of Green Hill,44.051777,-123.208075
1405,61,1,1,8,S/S of Hwy 126 ( MP 1.2) W. of Green Hill,44.051967,-123.209368
1406,61,0,1,7,N/S of Hwy 126 (MP 52.0) E of Fisher,44.05324,-123.244669
1407,61,1,1,8,S/S of Hwy 126 (MP 52.0) E of Fisher,44.053079,-123.244734
1408,61,1,1,8,S/S of Hwy 126 (MP 50.8) E of Coyote Crk,44.052598,-123.268151
1409,61,0,1,7,N/S of Hwy 126 (MP 49.7) E of Central Rd,44.05277,-123.291629
141,61,0,1,25,S/S of G W of 7th,44.052294,-123.017052
1410,61,1,1,8,S/S of Hwy 126 (MP 49.7) W of Central Rd,44.052565,-123.292183
1411,61,0,1,7,N/S of Hwy 126 (MP 49.4) E of Ellmaker,44.052789,-123.318166
1412,61,1,1,8,S/S of Hwy 126 (MP 49.4) E of Ellmaker,44.052628,-123.317997
1413,61,0,1,4,W/S of Huston (MP .1) S of Hwy 126,44.051904,-123.330239
1414,61,0,1,4,W/S of Huston (MP .3) S of Hunter,44.048325,-123.330287
1415,61,0,1,4,W/S of Huston ( MP .5) S of Driveway 87944,44.045048,-123.33033
1416,61,0,1,4,W/S of Huston (MP.8) N of Bolton,44.040861,-123.330264
1417,61,0,1,4,W/S of Huston (MP 1.1) N of Perkins,44.037262,-123.330258
1418,61,0,1,4,N/S of Perkins (MP .5) W of Erdman,44.037146,-123.341887
1419,61,0,1,4,N/S of Perkins (MP .2) W of Oak Is,44.037122,-123.348233
1420,61,0,1,4,E/S of Territorial (MP 20.6) N of Perkins,44.037514,-123.352275
1421,61,0,1,4,E/S of Territorial (MP 20.3) N of Cheney,44.041819,-123.351905
1422,61,0,1,4,E/S of Territorial (MP 20.0) N of Bolton,44.045478,-123.351548
1423,61,0,1,4,E/S of Territorial (MP 19.8) S of Hunter,44.04774,-123.351488
1426,61,0,1,4,E/S of 5th S of Dunham,44.050262,-123.356064
1448,61,0,1,6,E/S of Birch S of 6th (JC),44.219227,-123.196824
1452,61,0,1,4,E/S of Coburg N of Driveway 89925,44.106513,-123.055371
1453,61,0,1,4,E/S of Coburg N of McKenzie View Dr,44.114051,-123.046935
1454,61,1,1,4,W/S of Coburg N of McKenzie View Dr,44.114956,-123.047986
1455,61,0,1,4,E/S of Willamette N of Dixon,44.135564,-123.065566
1455,61,1,1,4,E/S of Willamette N of Dixon,44.135564,-123.065566
1460,61,1,1,4,W/S of Coleman S of Pearl,44.136222,-123.062781
1461,61,0,1,4,E/S of Territorial (MP 20.4) S of Blek Dr,44.039312,-123.352163
1462,61,1,1,4,N/S of Dixon E of Willamette,44.135201,-123.064948
1463,61,0,1,2,S/S of McKenzieRvrDr (MP 0.8) E of King Rd Br,44.168374,-122.228126
1464,61,0,1,2,S/S of McKenzieRvrDr (MP 1.3) E of Mill Crk Br,44.171476,-122.220414
1465,61,0,1,2,S/S of McKenzieRvrDr (MP 2.8) E of Mailbx 55636,44.175706,-122.191704
1466,61,1,1,2,N/S of McKenzieRvrDr (MP 1.2) W of Mill CrkRd,44.171174,-122.220991
1469,61,1,1,2,N/S of McKenzieRvrDr (MP 0.7) W of KingRdBr,44.168225,-122.229121
1470,61,0,1,4,S/S of Hwy 126 (MP 9.0) W of Thurston Rd,44.0489,-122.876108
1471,61,0,1,4,S/S of Hwy 126 (MP 35.3) E of Nimrod,44.11487,-122.421696
1473,61,0,1,2,S/S of McKenzieRvrDr (MP 2.5) E of DW55472,44.174723,-122.197936
1475,61,1,1,4,N/S of Hwy 126 (MP 31.6) W of DW 47955,44.133104,-122.483237
1476,61,0,1,4,S/S of Hwy 126 (MP 39.05) E of Mailbox 50950,44.143856,-122.368045
1478,61,0,1,4,S/S of Hwy 126 (MP 42.4) E of Mailbox 52494,44.156082,-122.310851
1479,61,1,1,4,N/S of Hwy 126 (MP 42.4) E of LazyDaysRV Pk,44.155774,-122.311445
148,61,0,1,6,E/S of Mill N of B,44.048167,-123.025151
1480,61,0,1,4,S/S of Hwy 126 (MP 39.6) W of BlueRvrDr,44.150116,-122.362762
1481,61,1,1,4,N/S of Hwy 126 (MP 39.6) W of BlueRvrDr,44.150289,-122.362878
149,61,1,1,6,W/S of Mill S of C,44.048358,-123.025332
1499,61,1,1,4,W/S of Territorial (MP 19.8) S of Hunter,44.048556,-123.351607
15,61,0,1,75,N/S of Main W of 66th,44.045698,-122.911636
15,61,1,1,4,N/S of Main W of 66th,44.045698,-122.911636
150,61,1,1,6,W/S of Mill N of E,44.05111,-123.026064
1500,61,1,1,4,W/S of Territorial (MP 20.2) S of Bolton,44.043222,-123.35196
1501,61,1,1,4,W/S of Territorial (MP 20.3) S of Cheney,44.041428,-123.35212
1502,61,1,1,4,W/S of Territorial (MP 20.6) N of Perkins,44.037714,-123.352433
1505,61,1,1,4,E/S of Huston (MP 1.1) N of Perkins,44.037463,-123.33013
1506,61,1,1,4,E/S of Huston (MP .5) S of driveway 87944,44.04505,-123.330302
1507,61,1,1,4,E/S of Huston (MP .3) S of Hunter,44.048212,-123.330282
1508,61,1,1,4,E/S of Huston (MP .1) S of Hwy 126,44.051868,-123.330223
151,61,0,1,6,E/S of Mill S of E,44.050498,-123.025766
1510,61,1,1,4,S/S of Perkins (MP .2) W of Oak Isand Dr,44.037058,-123.347772
1511,61,1,1,4,S/S of Perkins (MP 0.5) W of Erdman,44.037092,-123.341929
1512,61,0,1,6,E/S of Hwy 99 N of Airport Rd,44.113971,-123.182133
1513,61,1,1,6,W/S of Hwy 99 S of Airport Rd,44.112928,-123.181412
1515,61,1,1,4,N/S of Hwy 58 W of Pleasant Hill,43.969612,-122.93865
1516,61,0,1,3,S/S of Hwy 58 E of Pleasant Hill,43.96944,-122.938802
1519,61,1,1,2,(^) N/S of Lost Crk (Dexter),43.914832,-122.812855
152,61,1,1,6,W/S of Mill N of G,44.052537,-123.026413
1520,61,0,1,2,(^) S/S of Lost Crk (Dexter),43.91466,-122.812502
1523,61,0,1,14,E/S of WalMart Rd N of Thomas Ln,43.799206,-123.040638
1523,61,1,1,9,E/S of WalMart Rd N of Thomas Ln,43.799206,-123.040638
1524,61,0,1,9,W/S of Hwy 99N S of Geer,43.804816,-123.056157
1525,61,0,1,9,W/S of 9th S of Chadwick,43.801244,-123.059116
1526,61,0,1,9,W/S of 9th S of Gibbs,43.798392,-123.059137
1527,61,0,1,9,N/S of Taylor W of 10th,43.78688,-123.059257
1528,61,0,1,9,E/S of 6th S of Quincy,43.791674,-123.061897
1529,61,0,1,9,E/S of R St N of Harrison,43.790965,-123.075475
153,61,0,1,6,E/S of Mill N of G,44.052586,-123.026338
1530,61,0,1,9,E/S of R St S of Main St,43.797447,-123.075666
1531,61,0,1,9,S/S of Main W of M St,43.797582,-123.070571
1532,61,0,1,9,S/S of Main E of I St,43.797577,-123.065863
1533,61,0,1,9,S/S of W Main W of 5th,43.797261,-123.063427
1534,61,0,1,9,S/S of E Main W of 15th,43.797184,-123.053136
1535,61,0,1,9,S/S of E Main W of Gateway Blvd,43.79714,-123.049305
1536,61,0,1,9,S/S of Whiteaker E of 22nd,43.798038,-123.043106
1537,61,0,1,9,S/S of E Main St E of S 10th St,43.79723,-123.057139
1538,61,0,1,9,W/S of 10th St N of E Washington Ave,43.796613,-123.058008
1539,61,0,1,9,W/S of 10th St N of Quincy,43.791618,-123.058057
154,61,1,1,6,W/S of Mill S of J,44.055118,-123.027101
1540,61,0,1,5,E/S of Row River N of Thornton,43.802443,-123.040347
1540,61,1,1,9,E/S of Row River N of Thornton,43.802443,-123.040347
1541,61,0,1,9,N/S of Taylor St E of 6th St,43.786892,-123.061788
1542,61,0,1,9,W/S of S 10th St S of Tyler,43.789257,-123.058075
1543,61,0,1,9,W/S of S Pacific Hwy N of Harrison,43.790973,-123.063868
1544,61,0,1,9,E/S of S River Rd S of LCC,43.787246,-123.06944
1545,61,0,1,9,E/S of S River Rd S of Harrison,43.789705,-123.070029
1546,61,0,1,8,N/S of C E of 1st,43.917012,-123.019787
1546,61,1,1,9,N/S of C E of 1st,43.917012,-123.019787
1547,61,0,1,8,S/S of F St E of 2nd St,43.914321,-123.020712
1547,61,1,1,9,S/S of F St E of 2nd St,43.914321,-123.020712
155,61,0,1,6,E/S of Mill N of J,44.055396,-123.027154
1553,61,1,3,42,Approaching UO Station,44.046061,-123.078677
156,61,1,1,25,W/S of 5th N of Moffitt,44.060202,-123.019436
1562,61,1,1,18,E/S of N. Park Av. N of Hatton,44.086299,-123.14408
1563,61,0,1,4,"E/S of Coburg Rd, N of Kinney Lp",44.094476,-123.067687
1564,61,0,1,4,E/S of Coburg Rd N of County Farm Rd,44.096818,-123.066753
1565,61,1,1,4,W/S of Coburg Rd N of County Fm Rd,44.096909,-123.066936
1566,61,0,1,4,E/S of Coburg Rd N of Hillview #1,44.10052,-123.062653
1567,61,1,1,4,W/S of Coburg Rd S of Hillview #1,44.099961,-123.063524
1568,61,0,1,4,E/S of Coburg Rd N of HIllview #2,44.102495,-123.060427
1569,61,1,1,4,W/S of Coburg Rd S of Hillview #2,44.101918,-123.061298
157,61,0,1,25,E/S of 5th N of Moffitt,44.060125,-123.019305
1570,61,0,1,4,E/S of Coburg Rd N of Armitage Pk ent,44.108226,-123.052133
1571,61,1,1,4,W/S of Coburg Rd S of Armitage Pk,44.108039,-123.052912
158,61,0,1,25,E/S of 5th N of L,44.05738,-123.019361
1580,61,0,3,63,Approaching LCC Sta,44.008836,-123.036868
159,61,1,1,25,W/S of 5th N of L,44.057347,-123.01948
1599,61,1,1,13,W/S of Agate N of 22nd,44.035655,-123.069823
16,61,0,1,75,N/S of Main E of 62nd Pl,44.045729,-122.91822
16,61,1,1,4,N/S of Main E of 62nd Pl,44.045729,-122.91822
160,61,1,1,25,W/S of 5th N of Broadway,44.055986,-123.019539
1604,61,0,1,29,E/S of Danebo S of Royal Ave.,44.068251,-123.178108
1607,61,1,24,461,Eugene Sta central arrival zone,44.048272,-123.093518
161,61,0,1,25,E/S of 5th S of Broadway,44.055617,-123.019354
1614,61,1,1,25,W/S of Q N of 18th,44.064194,-122.997567
1615,61,1,1,25,N/S of Q W of 16th,44.062538,-123.001698
1616,61,0,2,76,S/S of South A E of 7th,44.045242,-123.01611
1617,61,0,1,75,S/S of South A E of 10th,44.04486,-123.012466
1618,61,0,1,75,S/S of South A E of 11th,44.04447,-123.008162
1619,61,1,2,50,W/S of 5th S of B,44.047637,-123.019628
162,61,1,2,50,W/S of 5th S of G,44.05206,-123.019532
1623,61,0,1,25,"Springfield Station, Bay B",44.04525,-123.021259
1624,61,0,2,31,"Springfield Station, Bay C",44.045098,-123.021262
1625,61,0,1,25,"Springfield Station, Bay D",44.044963,-123.021138
1626,61,0,1,75,"Springfield Station, Bay E",44.045014,-123.021457
1627,61,0,2,87,"Springfield Station, Bay F",44.045235,-123.021651
1628,61,1,2,87,"Springfield Station, Bay G",44.045528,-123.021877
1629,61,0,1,17,N/S of Irvington Dr. W of River Road,44.115857,-123.137804
1629,61,1,1,2,N/S of Irvington Dr. W of River Road,44.115857,-123.137804
163,61,0,1,25,E/S of 5th N of G,44.052588,-123.019414
1630,61,0,1,17,N/S of Irvington Dr. W of Revell,44.115826,-123.14413
1630,61,1,1,2,N/S of Irvington Dr. W of Revell,44.115826,-123.14413
1631,61,0,1,17,N/S of Irvington Dr. W of Hyacinth,44.115835,-123.150544
1631,61,1,1,2,N/S of Irvington Dr. W of Hyacinth,44.115835,-123.150544
1638,61,1,1,19,W/S of Arrowhead S of Irvington,44.115238,-123.157192
1641,61,0,2,24,University of Oregon Station - Bay C,44.046157,-123.078575
1641,61,1,1,4,University of Oregon Station - Bay C,44.046157,-123.078575
1646,61,0,1,1,"Springfield Station, Bay H",44.045611,-123.021064
1646,61,1,1,1,"Springfield Station, Bay H",44.045611,-123.021064
1647,61,0,2,86,EmX High Street Station outbound,44.048771,-123.0878
1648,61,0,2,86,EmX Hilyard Station,44.04761,-123.082312
1648,61,1,2,87,EmX Hilyard Station,44.04761,-123.082312
1649,61,0,2,86,EmX Dads' Gates Station,44.047765,-123.07772
1649,61,1,2,87,EmX Dads' Gates Station,44.047765,-123.07772
165,61,0,2,50,E/S of 5th S of E,44.050214,-123.019473
1650,61,0,2,86,EmX Agate Station,44.046365,-123.069282
1650,61,1,2,87,EmX Agate Station,44.046365,-123.069282
1651,61,0,2,86,EmX Walnut Station,44.044828,-123.061326
1651,61,1,2,87,EmX Walnut Station,44.044828,-123.061326
1652,61,1,2,87,EmX Glenwood Station inbound,44.045314,-123.043203
1653,61,0,2,86,EmX Glenwood Station outbound,44.045295,-123.040896
1654,61,1,2,87,EmX Lexington Station inbound,44.044997,-123.036552
1655,61,0,2,86,EmX Lexington Station outbound,44.044582,-123.034941
1656,61,0,2,86,EmX McVay Station,44.044137,-123.030916
1656,61,1,2,87,EmX McVay Station,44.044137,-123.030916
166,61,0,1,6,N/S of C E of Water,44.048841,-123.026942
1666,61,0,1,8,S/S of E. Oregon Ave. E of Hwy 99,43.917846,-123.016876
1666,61,1,1,9,S/S of E. Oregon Ave. E of Hwy 99,43.917846,-123.016876
1667,61,0,1,8,N/S of E. Oregon Ave. E of Hwy 99,43.917941,-123.017284
1667,61,1,1,9,N/S of E. Oregon Ave. E of Hwy 99,43.917941,-123.017284
167,61,1,1,6,W/S of Water N of C,44.04885,-123.027066
168,61,1,1,6,W/S of Mill N of Centennial,44.057425,-123.027415
169,61,1,1,6,W/S of Mill N of Olympic,44.059606,-123.02739
17,61,0,1,75,N/S of Main W of 60th Pl,44.045743,-122.92142
17,61,1,1,4,N/S of Main W of 60th Pl,44.045743,-122.92142
170,61,1,1,6,S/S of Fairview E of Laura,44.060676,-123.029668
1709,61,0,1,9,E/S of 6th S of E Harrison Ave  CG,43.789439,-123.061932
1710,61,1,1,6,S/S of A  E of 4th,44.046992,-123.020464
1711,61,0,1,6,N/S of A  W of 4th,44.047147,-123.021832
1712,61,0,1,9,S/S of W Main W of N P,43.797622,-123.073855
1713,61,0,1,9,E/S of S. River Road N of Hwy 99,43.784936,-123.069412
172,61,1,1,6,S/S of Fairview E of Rainbow,44.060776,-123.03699
1726,61,0,1,5,W/S of Row River N of Village Green DW,43.802453,-123.04049
1727,61,1,1,4,S/S of E. Pearl E of S. Harrison,44.137038,-123.065248
173,61,1,1,6,S/S of Fairview W of Prescott,44.06082,-123.033216
1732,61,1,1,4,S/S of Hunter W of 3rd St.,44.048812,-123.354057
1733,61,0,1,4,N/S of Hunter W of 3rd St.,44.048911,-123.354237
1734,61,1,1,4,N/S of Broadway W of 2nd,44.051284,-123.354209
1735,61,1,1,4,W/S of 5th S of McCutcheon,44.049231,-123.356177
1736,61,1,1,6,W/S of Prairie Rd S of Maxwell Rd,44.089989,-123.158066
1737,61,0,1,6,E/S of Prairie Road N of Maxwell,44.090538,-123.157938
1738,61,0,1,6,E/S of Prairie Rd N of Driveway (PIC Inc.),44.100455,-123.161692
1739,61,1,1,6,W/S of Prairie Rd N of Murphy driveway,44.100629,-123.161844
174,61,0,1,31,S/S of Centennial W of 6th,44.056272,-123.018315
1740,61,0,1,6,N/S of Irving E of Hwy 99,44.103323,-123.171135
1741,61,1,1,6,S/S of Irving E of Hwy 99,44.103205,-123.170732
1742,61,0,1,6,S/S of E 1st E of second driveway (Country Coach),44.214909,-123.199356
1743,61,0,1,6,E/S of Hwy 99 N of Barger Dr.,44.085029,-123.154986
1744,61,1,1,6,W/S of Hwy 99 S of Bow Tech driveway,44.120327,-123.18837
1745,61,0,1,6,E/S of Hwy 99 N of Enid,44.121104,-123.188813
1746,61,0,1,6,S/S of E. 1st E of Railroad tracks,44.214929,-123.202718
1747,61,0,1,6,E/S of Birch N of E. 3rd,44.217052,-123.196675
1748,61,0,1,6,N/S of E 6th W Bi-mart DW,44.219335,-123.200785
1749,61,1,1,6,N/S of W. 10th W of Ivy (JC),44.222613,-123.205164
1750,61,1,1,6,N/S of W 10th East of Maple,44.222508,-123.20873
1751,61,1,1,6,W/S of Maple N of W. 5th,44.218294,-123.208968
1752,61,1,1,6,W/S of Maple N of W. 1st,44.215203,-123.208812
1753,61,1,1,6,W/S of Prairie Rd N of Bailey Ln,44.207787,-123.208946
1758,61,0,1,9,E/S of S R S of Bryant Ave,43.795279,-123.075705
1759,61,0,1,31,N/S of Crescent E of Suzanne Way,44.092936,-123.063822
176,61,0,1,75,S/S of Thurston E of 61st,44.053142,-122.920275
1760,61,0,1,31,N/S of Crescent E of Driveway,44.092951,-123.065911
1761,61,0,1,29,W/S Terry S of Arrowsmith,44.050879,-123.188361
1761,61,1,1,29,W/S Terry S of Arrowsmith,44.050879,-123.188361
1762,61,0,1,29,E/S of Arrowsmith N of W 11th Ave,44.048761,-123.186226
1763,61,0,1,4,S/S Broadway W Territorial,44.051234,-123.352044
1764,61,1,1,4,N/S Braodway W Territorial,44.051289,-123.3523
1765,61,0,1,4,S/S of Hwy 126 (MP 14.7) W of Partridge Lane,44.075975,-122.771947
1766,61,0,1,4,S/S of Hwy 126 (MP 16.91) W of DW 41404,44.086443,-122.731635
1767,61,0,1,4,S/S of Hwy 126 (MP 19.02) W of Holden Creek Ln,44.100187,-122.69339
1768,61,0,1,4,S/S of Hwy 126 (MP 21.37) W of Greenwood Drive,44.113887,-122.650748
1769,61,0,1,4,S/S of Hwy 126 (MP 22.05) W of Greer Drive,44.119322,-122.639503
177,61,0,1,6,N/S of Centennial W of Mill,44.057294,-123.027907
177,61,1,1,30,N/S of Centennial W of Mill,44.057294,-123.027907
1770,61,0,1,4,S/S of Hwy 126 (MP 22.84) E of Eweb #6092,44.126185,-122.62486
1771,61,0,1,4,S/S of Hwy 126 (MP 23.41) E of Mt View Lane,44.130849,-122.61714
1772,61,0,1,4,S/S of Hwy 126 (MP 30.27) E of DW 47386,44.132245,-122.504321
1773,61,0,1,4,S/S of Hwy 126 (MP 37.31) W of Mailbox 50389,44.122528,-122.389036
1774,61,1,1,4,N/S of Hwy 126 (MP 17.19) E of DW 41567,44.089529,-122.725727
1775,61,0,1,4,S/S of Hwy 126 (MP 30.94) W of Eweb #47760,44.132806,-122.490481
1776,61,1,1,4,N/S of Hwy 126 (MP 22.62) E of Canal Lane,44.124947,-122.630025
1777,61,0,2,87,"E"" Street Station""",44.050859,-123.022069
1778,61,1,2,91,"F"" Street Station""",44.051158,-123.02318
1779,61,0,2,87,Centennial Station,44.05698,-123.024062
1779,61,1,2,91,Centennial Station,44.05698,-123.024062
178,61,0,1,31,S/S of Centennial W of Mill,44.057178,-123.028026
1780,61,0,2,87,"Q"" Street Station outbound""",44.063299,-123.026273
1781,61,0,2,87,Hayden Bridge Station,44.070065,-123.028668
1781,61,1,2,91,Hayden Bridge Station,44.070065,-123.028668
1782,61,0,1,45,RiverBend Station_counter-clockwise,44.077581,-123.03097
1783,61,1,1,46,RiverBend Station_clockwise,44.077862,-123.030781
1784,61,1,1,46,Sacred Heart Station_clockwise,44.079815,-123.028945
1785,61,0,1,45,Sacred Heart Station_counter-clockwise,44.080466,-123.028729
1786,61,0,1,45,International Way East Station,44.088382,-123.030357
1786,61,1,1,44,International Way East Station,44.088382,-123.030357
1787,61,0,1,45,International Center Station,44.08849,-123.036349
1787,61,1,1,44,International Center Station,44.08849,-123.036349
1788,61,0,1,45,International Way Station West,44.088438,-123.04216
1788,61,1,1,44,International Way Station West,44.088438,-123.04216
1789,61,0,1,45,Kruse Way Station_counter-clockwise,44.08169,-123.041756
179,61,0,1,6,N/S of Centennial W of Laura,44.057298,-123.030127
179,61,1,1,30,N/S of Centennial W of Laura,44.057298,-123.030127
1790,61,1,1,44,Kruse Way Station_clockwise,44.081756,-123.041469
1791,61,0,1,45,Postal Way Station_counter-clockwise,44.077902,-123.042079
1792,61,1,1,44,Postal Way Station_clockwise,44.077485,-123.041902
1793,61,0,1,45,Gateway Sta.-Bay C (EmX to SS),44.073489,-123.042684
1793,61,1,1,45,Gateway Sta.-Bay C (EmX to SS),44.073489,-123.042684
1794,61,0,1,42,Gateway Sta.-Bay D (EmX to RB),44.073682,-123.042752
1794,61,1,1,44,Gateway Sta.-Bay D (EmX to RB),44.073682,-123.042752
1795,61,0,1,42,Guy Lee Station_clockwise,44.070989,-123.040301
1796,61,1,1,45,Guy Lee Station_counter-clockwise,44.070829,-123.039124
1797,61,0,1,42,Pheasant Station_clockwise,44.071009,-123.033784
1798,61,1,1,45,Pheasant Station_counter-clockwise,44.070799,-123.034254
1799,61,1,2,91,"Q"" Street Station inbound""",44.062726,-123.026118
18,61,0,1,75,N/S of Main W of 58th,44.045835,-122.927585
18,61,1,1,4,N/S of Main W of 58th,44.045835,-122.927585
180,61,0,1,31,S/S of Centennial W of Laura,44.057204,-123.030591
1800,61,1,2,87,High Street Station inbound,44.047789,-123.088637
1801,61,1,2,87,11th & Willamette,44.047794,-123.093202
1832,61,0,1,25,S/S of Hayden Bridge Rd E of Mintmeadow Way,44.070346,-123.015423
1833,61,0,1,25,S/S of Hayden Bridge Rd E of 10th,44.069835,-123.010801
1834,61,0,1,25,S/S of Hayden Bridge Rd E of 17th Place N,44.069698,-122.998367
1835,61,0,1,25,S/S of Hayden Bridge Rd E of Harvest Lane,44.069801,-123.006528
1836,61,0,1,25,S/S of Hayden Bridge Rd E of 15th,44.069746,-123.002333
1837,61,0,1,25,W/S of 19th S of Otto,44.068692,-122.996667
1838,61,0,1,25,W/S of 19th S of Rambling Drive,44.066979,-122.996677
1839,61,0,1,31,W/S Gateway Loop N of Postal Way,44.078892,-123.045302
184,61,0,1,75,S/S of South A W of 18th,44.044401,-123.000568
1840,61,0,1,31,N/S Gateway Loop W of Gateway Street,44.080008,-123.043292
1842,61,0,1,30,W/S Gateway Street S of Postal,44.078121,-123.042074
1846,61,1,4,129,Spfld Sta 5th St arrival zone,44.044966,-123.019928
1847,61,1,3,116,Spfld Sta South A St arrival zone,44.045566,-123.021541
1848,61,0,1,10,University of Oregon Station - Bay E,44.046446,-123.078595
1849,61,1,1,4,E/S of Huston Road N of E Bolton Rd,44.041233,-123.330237
185,61,1,1,31,N/S of Harlow W of Garden Way,44.06987,-123.052501
186,61,0,1,31,S/S of Harlow E of Garden Way,44.06973,-123.051479
187,61,0,1,31,S/S of Harlow E of Honeysuckle,44.069667,-123.055774
188,61,1,1,31,N/S of Harlow W of Honeysuckle,44.069778,-123.056045
189,61,1,1,31,N/S of Harlow W of Van Duyn,44.069679,-123.058784
19,61,0,1,75,S/S of Main E of 54th,44.045571,-122.934283
190,61,0,1,31,S/S of Harlow E of Randall,44.069545,-123.059793
191,61,1,1,31,N/S of Harlow W of Vincent,44.069635,-123.062351
192,61,0,1,31,S/S of Harlow W of Palomino,44.069464,-123.064143
193,61,1,1,31,N/S of Harlow E of Tomahawk,44.069384,-123.064725
194,61,0,1,31,S/S of Harlow E of Lydick,44.06943,-123.067471
195,61,1,1,31,N/S of Harlow W of Lydick,44.069618,-123.067936
2,61,0,1,75,E/S of 58th S of D,44.049456,-122.92622
20,61,1,2,74,N/S of Main W of 54th,44.0458,-122.936328
21,61,0,1,75,S/S of Main E of 53rd,44.045583,-122.936335
213,61,1,1,36,S/S of Crescent W of Coburg Rd,44.092916,-123.06844
214,61,0,1,31,N/S of Crescent W of Coburg Rd,44.092961,-123.068608
215,61,0,1,31,N/S of Crescent E of Chuckanut,44.093014,-123.072214
216,61,1,1,36,S/S of Crescent E of Chuckanut,44.092874,-123.072337
217,61,0,1,31,N/S of Crescent E of Sarah,44.092984,-123.075557
218,61,1,1,36,S/S of Crescent W of Gay,44.092871,-123.075699
219,61,0,1,31,N/S of Crescent E of Coach,44.092988,-123.077756
22,61,0,1,75,S/S of Main E of 52nd Pl,44.045609,-122.939143
220,61,1,1,36,S/S of Crescent E of Coach,44.092866,-123.077919
221,61,0,1,31,N/S of Crescent E of Gilham,44.092998,-123.080462
222,61,0,1,31,N/S of Crescent E of Tulip,44.093295,-123.085338
226,61,0,1,25,S/S of G E of 10th,44.052248,-123.012077
227,61,0,1,6,N/S of 6th W of Willamette,44.053248,-123.093286
228,61,1,3,59,E/S of Hilyard S of 22nd,44.035465,-123.082077
229,61,0,2,46,N/S of 18th W of Alder,44.040029,-123.081278
23,61,1,1,73,N/S of Main E of 52nd,44.045799,-122.939778
235,61,1,2,46,E/S of Hilyard S of 24th,44.033021,-123.082019
236,61,0,1,11,W/S of Riverview N of 16th,44.041917,-123.051836
237,61,0,1,11,W/S of Riverview N of 18th,44.039306,-123.051875
238,61,0,1,11,W/S of Riverview 3rd stop N of 26th,44.037255,-123.051934
239,61,0,1,11,W/S of Riverview 2nd stop N of 26th,44.034651,-123.051913
24,61,0,1,75,S/S of Main E of 51st,44.045625,-122.942536
240,61,0,1,11,W/S of Riverview 1st stop N of 26th,44.031358,-123.051961
241,61,0,1,22,E/S of Augusta 1st stop N of 26th,44.031755,-123.050514
242,61,0,1,11,E/S of Augusta 2nd stop N of 26th,44.03468,-123.050462
243,61,0,1,11,E/S of Augusta S of Laurel Hill,44.037859,-123.050421
244,61,0,1,11,N/S of 16th E of Riverview,44.041651,-123.051418
245,61,0,3,59,W/S of Patterson S of 19th,44.038436,-123.083726
246,61,0,3,59,W/S of Patterson N of 22nd,44.035666,-123.083724
247,61,0,2,46,W/S of Hilyard N of 26th,44.030732,-123.081625
248,61,0,2,46,W/S of Hilyard N of 28th,44.028069,-123.081563
249,61,0,1,28,W/S of Hilyard S of 30th,44.023686,-123.081748
25,61,1,1,73,N/S of Main E of 50th,44.045825,-122.943123
250,61,0,1,28,W/S of Hilyard S of 34th,44.018654,-123.081635
251,61,0,1,28,W/S of Hilyard S of 36th,44.016601,-123.082003
252,61,0,1,28,W/S of W. Amazon S of 37th,44.015724,-123.0789
253,61,0,1,28,W/S of W. Amazon S of 39th Pl,44.012457,-123.07748
254,61,0,1,28,W/S of W. Amazon N of Fox Hollow,44.010787,-123.076865
255,61,0,1,28,W/S of W. Amazon N of 44th,44.008148,-123.076032
257,61,0,1,28,W/S of W. Amazon N of Larch,44.004822,-123.075603
258,61,0,1,28,W/S of W. Amazon S of Snell,44.003145,-123.075733
259,61,0,1,28,W/S of W. Amazon S of Sprague,44.001429,-123.076272
26,61,0,1,75,S/S of Main E of 49th Pl,44.045636,-122.944798
260,61,0,1,28,W/S of W. Amazon N of Martin,43.998426,-123.077984
260,61,1,1,28,W/S of W. Amazon N of Martin,43.998426,-123.077984
261,61,1,1,28,S/S of Martin W of Center,43.996682,-123.075275
262,61,1,1,28,E/S of Center N of Alpine,43.998638,-123.07534
263,61,1,1,28,E/S of Center S of E. Amazon,44.000328,-123.075118
264,61,1,1,28,E/S of E. Amazon N of Snell,44.003589,-123.074917
265,61,1,1,28,E/S of E. Amazon N of Dillard,44.006358,-123.075151
266,61,1,1,28,E/S of E. Amazon N of Kincaid,44.008173,-123.075432
267,61,1,1,28,E/S of E. Amazon S of Potter,44.010129,-123.075937
268,61,1,1,28,E/S of E. Amazon S of 39th,44.012699,-123.076857
269,61,1,1,28,E/S of E. Amazon N of 37th,44.016133,-123.078281
27,61,1,1,73,N/S of Main W of 49th,44.045822,-122.947514
270,61,1,1,28,E/S of E. Amazon N of 35th,44.018657,-123.079622
271,61,1,1,28,E/S of E. Amazon S of Hilyard,44.020562,-123.080928
272,61,1,2,46,E/S of Hilyard N of 28th,44.027332,-123.081444
275,61,1,3,59,E/S of Hilyard N of 21st,44.036967,-123.08209
276,61,1,3,62,E/S of Hilyard S of 17th,44.040585,-123.082122
277,61,1,1,31,S/S of 18th W of Four Oaks Grg,44.038279,-123.1619
278,61,0,1,30,N/S of 18th W of Langton,44.03918,-123.159049
279,61,1,1,31,E/S of 18th N of Churchill,44.039046,-123.159045
28,61,0,1,75,S/S of Main W of 48th,44.045665,-122.951214
281,61,0,1,30,N/S of 18th E of Josh,44.040769,-123.156857
282,61,1,1,31,S/S of 18th W of Peppertree,44.040739,-123.1545
283,61,0,1,30,N/S of 18th E of Peppertree,44.040854,-123.154325
285,61,0,1,30,N/S of 18th 2nd stop W of Bailey Hill,44.040796,-123.151083
286,61,1,1,31,S/S of 18th 1st stop W of Bailey Hill,44.040673,-123.149073
287,61,0,1,30,N/S of 18th 1st stop W of Bailey Hill,44.040793,-123.148752
288,61,1,2,43,S/S of 18th W of Mistletoe,44.040662,-123.145828
289,61,0,2,42,N/S of 18th W of Mistletoe,44.040767,-123.145842
29,61,1,1,73,N/S of Main W of 48th,44.045826,-122.951252
290,61,1,2,43,S/S of 18th E of Quaker,44.040625,-123.14292
291,61,0,2,42,N/S of 18th W of Quaker,44.040748,-123.143609
292,61,1,2,43,S/S of 18th W of Buck,44.040658,-123.140559
293,61,0,2,42,N/S of 18th W of Buck,44.040708,-123.139764
294,61,1,2,43,S/S of 18th E of Greiner,44.040577,-123.138031
295,61,0,2,42,N/S of 18th W of Oak Patch,44.041164,-123.136047
296,61,0,1,30,N/S of 18th W of Wilson,44.040588,-123.132931
297,61,1,1,31,S/S of 18th W of Mckinley,44.040509,-123.130499
298,61,0,1,30,N/S of 18th W of City View,44.040588,-123.128612
299,61,1,1,31,S/S of 18th E of City View,44.040475,-123.126544
300,61,0,1,30,N/S of 18th W of Arthur,44.040467,-123.124965
301,61,1,1,31,S/S of 18th E of Arthur,44.040439,-123.123619
302,61,0,1,30,N/S of 18th E of Garfield,44.040526,-123.122666
303,61,0,1,30,N/S of 18th W of Grant,44.040469,-123.12073
304,61,1,1,31,S/S of 18th W of Grant,44.040451,-123.120564
305,61,1,1,31,S/S of 18th E of Chambers,44.040311,-123.116924
306,61,0,1,30,N/S of 18th E of Chambers,44.040459,-123.116882
307,61,0,1,30,N/S of 18th W of Polk,44.040399,-123.11318
308,61,1,1,31,S/S of 18th E of Polk,44.040295,-123.111583
309,61,0,1,30,N/S of 18th W of Van Buren,44.040388,-123.109775
31,61,1,1,73,N/S of Main E of 44th,44.045845,-122.957748
310,61,1,1,31,S/S of 18th W of Jackson,44.040238,-123.10839
311,61,1,1,31,S/S of 18th W of Friendly,44.040214,-123.10621
312,61,0,1,30,N/S of 18th W of Friendly,44.040313,-123.106197
313,61,0,1,30,N/S of 18th W of Madison,44.04031,-123.103171
314,61,1,1,31,S/S of 18th W of Madison,44.040244,-123.103124
315,61,1,1,31,S/S of 18th E of Jefferson,44.040199,-123.100607
316,61,0,1,30,N/S of 18th E of Jefferson,44.040312,-123.100462
317,61,1,1,31,S/S of 18th E of Lawrence,44.040027,-123.098139
318,61,0,1,30,N/S of 18th W of Lincoln,44.040137,-123.09769
319,61,1,1,31,S/S of 18th W of Charnelton,44.039981,-123.09581
32,61,0,1,75,S/S of Main E of 44th,44.0457,-122.957077
320,61,0,1,30,N/S of 18th W of Willamette,44.040023,-123.093261
322,61,0,1,12,W/S of Oak Patch S of 11th,44.047584,-123.135402
323,61,1,1,12,E/S of Oak Patch N of 15th,44.04556,-123.135357
324,61,0,1,12,W/S of Oak Patch N of 15th,44.045146,-123.13549
325,61,1,1,12,E/S of Oak Patch S of 15th,44.043441,-123.135362
326,61,0,1,12,W/S of Oak Patch S of 15th,44.043217,-123.135432
328,61,1,1,12,E/S of Bailey Hill N of Westleigh,44.038758,-123.149584
329,61,0,1,12,W/S of Bailey Hill N of Westleigh,44.038367,-123.150175
330,61,0,1,12,W/S of Warren N of Blackburn,44.035102,-123.151895
332,61,0,1,12,S/S of Wilshire E of Warren,44.031118,-123.150744
332,61,1,1,12,S/S of Wilshire E of Warren,44.031118,-123.150744
333,61,1,1,12,W/S of Wilshire N of Windsor Circle,44.030492,-123.147714
334,61,1,1,12,W/S of Wilshire N of Windsor Circle,44.029002,-123.146534
335,61,1,1,12,S/S of Brittany E of Windsor,44.031325,-123.145346
336,61,1,1,12,E/S of Brittany N of Kevington,44.033014,-123.144957
337,61,1,1,12,N/S of Kevington W of Brittany,44.035442,-123.144673
339,61,1,1,12,N/S of Kevington E of Burlington,44.035334,-123.148228
34,61,0,1,75,S/S of Main E of 42nd,44.045704,-122.961666
340,61,1,1,12,N/S of Kevington E of Warren,44.035911,-123.151802
341,61,1,1,12,E/S of Bailey Hill S of Leighton,44.037479,-123.150792
35,61,1,1,73,N/S of Main W of 42nd,44.045846,-122.964058
355,61,1,1,21,S/S of 24th E of Chambers,44.033045,-123.117351
356,61,0,1,21,E/S of Chambers S of 25th,44.032227,-123.117718
356,61,1,1,21,E/S of Chambers S of 25th,44.032227,-123.117718
357,61,0,1,21,E/S of Chambers S of North View,44.030016,-123.117731
358,61,0,2,60,W/S of Willamette S of 14th,44.045185,-123.092721
36,61,0,1,75,S/S of Main W of 41st,44.045679,-122.966863
360,61,0,2,60,W/S of Willamette S of 16th,44.041961,-123.092873
361,61,0,1,30,W/S of Willamette S of 18th,44.039546,-123.092892
362,61,1,1,31,E/S of Willamette S of 20th,44.037138,-123.092107
363,61,0,1,30,W/S of Willamette N of 22nd,44.035566,-123.091684
364,61,1,1,31,E/S of Willamette N of 23rd,44.034583,-123.091247
365,61,0,1,30,W/S of Willamette S of 24th,44.033265,-123.090849
366,61,1,1,31,E/S of Willamette N of 25th,44.031666,-123.090631
367,61,0,1,30,W/S of Willamette S of 25th,44.031052,-123.090787
368,61,1,1,31,E/S of Willamette N of 27th,44.029644,-123.090651
369,61,0,1,30,W/S of Willamette S of 27th,44.028649,-123.090777
37,61,1,1,73,N/S of Main W of 41st,44.045892,-122.967274
370,61,0,1,30,W/S of Willamette N of 29th,44.027267,-123.090781
371,61,1,1,31,E/S of Willamette N of 29th,44.027037,-123.090654
372,61,0,2,48,W/S of Willamette S of 29th,44.025703,-123.090799
373,61,1,2,49,E/S of Willamette N of 30th,44.024703,-123.090657
374,61,0,2,48,W/S of Willamette N of 30th,44.024251,-123.09078
376,61,0,1,30,W/S of Donald N of 33rd,44.021448,-123.090363
377,61,0,1,30,W/S of Donald N of 34th,44.019381,-123.089742
378,61,0,1,30,W/S of Donald S of Pearl,44.017031,-123.088805
379,61,0,1,30,W/S of Donald S of 37th,44.01502,-123.087807
38,61,0,1,75,S/S of Main E of 38th,44.045702,-122.971463
380,61,0,1,30,W/S of Donald N of Mill,44.013053,-123.087663
381,61,0,2,48,W/S of Donald S of 40th,44.011038,-123.087284
382,61,0,2,48,W/S of Donald N of 43rd,44.008547,-123.087281
383,61,0,2,48,W/S of Donald N of 46th,44.006306,-123.088705
384,61,0,2,48,S/S of 46th W of Fox Hollow,44.004193,-123.082811
385,61,0,2,50,W/S of Fox Hollow N of Princess,44.001712,-123.083835
386,61,0,2,50,W/S of Fox Hollow S of Princess,43.999299,-123.084413
387,61,0,2,50,W/S of Fox Hollow S of Saint Clair,43.997993,-123.085549
388,61,0,2,50,W/S of Fox Hollow N of Saratoga,43.996594,-123.087337
389,61,0,2,50,N/S of Donald W of Fox Hollow,43.995521,-123.089441
389,61,1,2,50,N/S of Donald W of Fox Hollow,43.995521,-123.089441
39,61,1,1,73,N/S of Main E of 38th,44.045851,-122.97092
390,61,1,2,50,E/S of Donald S/O Cul deSac 5315-35,43.998233,-123.090644
391,61,1,2,50,E/S of Donald N of Cul deSac 5235-85,43.999351,-123.090448
392,61,1,2,50,E/S of Donald N of 50th,44.001637,-123.090146
393,61,1,2,50,E/S of Donald N of 49th,44.003357,-123.089854
394,61,1,1,32,E/S of Donald N of 46th,44.006261,-123.088624
395,61,1,1,18,N/S of 46th E of High,44.006301,-123.091052
396,61,1,1,18,E/S of Willamette N of 46th,44.006826,-123.092917
397,61,1,1,18,E/S of Willamette N of Oak,44.008842,-123.092389
398,61,1,1,18,E/S of Willamette N of 40th,44.011856,-123.092559
399,61,1,1,18,E/S of Willamette N of 39th,44.014059,-123.092456
4,61,0,1,75,E/S of 58th S of Thurston Rd,44.052247,-122.926243
40,61,1,1,73,N/S of Main W of 36th,44.045923,-122.975063
400,61,1,1,18,E/S of Willamette N of 37th,44.015968,-123.092461
401,61,1,1,18,E/S of Willamette S of 35th,44.017632,-123.092329
402,61,1,1,18,E/S of Willamette S of 33rd,44.020019,-123.09201
403,61,1,2,49,S/S of 2nd E of Taylor,44.057478,-123.113727
404,61,0,2,48,N/S of 2nd W of Taylor,44.05755,-123.114609
405,61,1,1,30,N/S of MLK Blvd W of Garden Way,44.055716,-123.05469
406,61,0,1,31,S/S of MLK Blvd W of Lindley,44.055603,-123.053269
407,61,1,1,30,N/S of MLK Blvd E of Chevy Chase,44.055553,-123.059146
408,61,0,1,31,S/S of MLK Blvd E of Chevy Chase,44.055447,-123.058437
409,61,1,1,30,N/S of MLK Blvd W of Kinsrow,44.058577,-123.062412
41,61,0,1,75,S/S of Main W of 36th,44.045749,-122.9751
410,61,0,1,31,W/S of MLK Blvd S of Kinsrow,44.057758,-123.06233
411,61,1,1,30,N/S of MLK Blvd at Serbu Center,44.060092,-123.067478
412,61,0,1,31,S/S of MLK Blvd at Serbu Center,44.059929,-123.067071
413,61,0,1,31,S/S of MLK Blvd Eof Scout Access,44.059804,-123.070569
414,61,1,1,30,N/S of MLK Blvd W of Scout Access,44.059994,-123.070805
415,61,1,1,30,N/S of MLK Blvd E of Centennial Lp,44.059754,-123.076491
416,61,0,1,31,S/S of MLK Blvd E of Centennial Lp,44.059653,-123.07552
417,61,0,4,69,E/S of Coburg S of MLK Blvd,44.059771,-123.08215
418,61,1,3,71,W/S of Coburg N of Oakway,44.0643,-123.076994
419,61,1,3,71,W/S of Coburg S of Oakmont,44.065635,-123.074534
42,61,0,1,75,S/S of Main E of 32nd,44.045759,-122.980132
420,61,0,3,66,E/S of Coburg N of Rustic,44.067284,-123.072058
421,61,1,3,71,W/S of Coburg S of Frontier,44.067538,-123.072179
422,61,0,3,66,E/S of Coburg N of Pioneer Pike,44.068784,-123.070616
423,61,1,3,71,W/S of Coburg S of Pioneer Pike,44.068548,-123.07107
424,61,0,2,35,E/S of Coburg N of Tomahawk,44.071658,-123.069409
425,61,1,2,40,W/S of Coburg S of Tomahawk,44.071474,-123.069632
426,61,1,2,40,W/S of Coburg S of Tandy Turn,44.072591,-123.069617
427,61,0,2,35,E/S of Coburg N of Tandy Turn,44.073663,-123.069379
428,61,0,2,35,E/S of Coburg S of Bailey,44.075319,-123.069347
429,61,1,2,40,W/S of Coburg S of Bailey,44.07578,-123.069595
43,61,1,1,73,N/S of Main E of 32nd,44.045917,-122.979915
430,61,0,2,35,E/S of Coburg N of Cal Young,44.078285,-123.068768
431,61,1,2,40,W/S of Coburg N of Cal Young,44.078603,-123.068912
432,61,0,2,35,E/S of Coburg S of Willakenzie,44.079586,-123.067974
433,61,0,2,35,E/S of Coburg N of Willakenzie,44.081375,-123.067373
434,61,1,2,40,W/S of Coburg N of Willakenzie,44.081162,-123.067609
435,61,0,2,35,E/S of Coburg S of Adkins,44.083739,-123.06747
436,61,1,2,40,W/S of Coburg N of Elysium,44.085386,-123.06776
437,61,0,2,35,E/S of Coburg S of Beltline,44.086083,-123.067542
438,61,0,1,4,E/S of Coburg N of Chad,44.090961,-123.067616
439,61,1,1,4,W/S of Coburg N of Chad,44.09034,-123.067845
44,61,0,1,75,S/S of Main E of 28th,44.045776,-122.986055
440,61,1,1,4,W/S of Coburg N of Crescent,44.0932,-123.067907
441,61,0,1,36,S/S of Green Acres W of Applewood,44.093235,-123.093473
441,61,1,1,36,S/S of Green Acres W of Applewood,44.093235,-123.093473
442,61,0,1,31,N/S of Green Acres E of Applewood,44.093294,-123.09235
443,61,1,1,36,S/S of Green Acres W of Balboa,44.092842,-123.08979
445,61,0,1,31,N/S of Green Acres W of Norkenzie,44.092894,-123.087923
448,61,1,1,32,N/S of Goodpstre Is WofGoodpstre Lp,44.086831,-123.107342
449,61,0,1,36,S/S of Goodpstre Is E of Goodpstre Lp,44.086732,-123.106397
45,61,1,1,73,N/S of Main E of 28th,44.045923,-122.986402
450,61,1,1,32,N/S of Goodpstre Is W of James,44.08628,-123.109508
451,61,1,1,32,W/S of Goodpstre Is N of Kingsley,44.084464,-123.111208
452,61,0,1,36,E/S of Goodpstre Is N of Kingsley,44.084393,-123.111028
453,61,1,1,32,W/S of Goodpstre Is Sof Wimbledon,44.08041,-123.111714
454,61,1,1,32,W/S of Goodpstre Is S of 1355 GPI,44.073045,-123.108207
455,61,0,1,36,E/S of Goodpstre Is Sof DeltaVillage,44.073693,-123.107954
456,61,0,1,36,E/S of Goodpstre Isl (1st stop N of VRDr),44.071426,-123.107952
457,61,1,1,32,W/S of Goodpstre Is N of VRDr,44.071722,-123.108165
458,61,0,1,34,W/S of VR Way S of VR Dr,44.068367,-123.103217
459,61,0,1,34,W/S of VR Way S of VR Inn,44.065729,-123.103067
46,61,0,1,75,S/S of Main E of 23rd,44.045754,-122.990313
460,61,0,1,34,"VRC Sta, Bay B--outbound",44.067104,-123.106507
47,61,1,1,73,N/S of Main E of 23rd,44.045948,-122.990334
48,61,1,1,73,N/S of Main W of 23rd,44.045965,-122.992938
484,61,0,1,25,S/S of Wilkes E of River Rd,44.115596,-123.135958
484,61,1,1,26,S/S of Wilkes E of River Rd,44.115596,-123.135958
485,61,1,1,26,S/S of Wilkes W of Tempa,44.115353,-123.132075
486,61,1,1,26,E/S of Scenic S of Dean,44.117236,-123.13033
487,61,1,1,26,E/S of Scenic N of River Lp,44.120276,-123.130521
489,61,1,1,26,E/S of Scenic N of Warrington,44.123737,-123.130494
49,61,0,1,75,S/S of Main E of 21st,44.04576,-122.993843
490,61,1,1,26,N/S of Spring Crk E of Shannon,44.124326,-123.13431
491,61,1,1,26,N/S of Spring Crk W of Scottdale,44.124285,-123.136413
492,61,1,1,26,W/S of River Rd S of Spring Creek,44.123514,-123.140786
493,61,1,1,25,W/S of River Rd S of Lynnbrook,44.121265,-123.13961
494,61,1,1,25,W/S of River Rd N of Dean,44.11831,-123.138291
495,61,1,1,25,W/S of River Rd S of Irvington,44.115159,-123.13664
496,61,1,1,25,W/S of River Rd N of Blackfoot,44.113345,-123.135948
497,61,0,2,42,E/S of River Rd S of Anchor,44.113566,-123.135724
498,61,1,1,25,W/S of River Rd S of Blazer,44.111222,-123.134976
499,61,0,2,42,E/S of River Rd N of Wedgewood,44.111394,-123.13475
5,61,0,1,75,S/S of Thurston W of 64th,44.052949,-122.916628
50,61,1,1,73,N/S of Main E of 20th,44.045971,-122.995384
500,61,1,1,25,W/S of River Rd S of Ferndale,44.108375,-123.133682
501,61,0,2,42,E/S of River Rd N of River Lp1,44.10942,-123.133812
502,61,0,2,42,E/S of River Rd S of Banton,44.106666,-123.132609
503,61,1,1,25,W/S of River Rd S of Myoak,44.105946,-123.132581
504,61,0,2,42,E/S of River Rd N of Azalea,44.105278,-123.13199
505,61,1,1,25,W/S of River Rd N of Irving,44.104024,-123.131778
506,61,1,1,19,S/S of Irving E of Belmont,44.103456,-123.132518
507,61,1,1,19,S/S of Irving E of Dover,44.103412,-123.139916
508,61,1,1,19,S/S of Irving W of Stratford,44.103373,-123.143412
51,61,1,1,73,N/S of Main E of 18th,44.045915,-122.998443
512,61,1,1,19,S/S of Irving W of Stark,44.103416,-123.146894
513,61,0,2,42,E/S of River Rd N of Green,44.102378,-123.130712
514,61,1,2,44,W/S of River Rd N of Santa Clara,44.100656,-123.130332
515,61,0,1,18,N/S of Silver W of River Rd,44.09562,-123.128947
516,61,0,1,18,N/S of Silver E of Sterling,44.095674,-123.13176
518,61,0,1,18,N/S of Silver E of Grove,44.095652,-123.137777
519,61,1,1,18,S/S of Silver E of Sterling West,44.095545,-123.137229
52,61,1,1,73,N/S of Main W of 16th,44.04594,-123.002511
520,61,0,1,18,W/S of Park S of Armstrong,44.093267,-123.144322
521,61,1,1,18,E/S of Grove S of Maxwell,44.090055,-123.138282
522,61,0,2,42,E/S of River Rd S of Hamilton,44.091252,-123.126077
523,61,1,2,43,W/S of River Rd S of Maxwell,44.090032,-123.125752
524,61,0,2,42,E/S of River Rd S of Corliss,44.092864,-123.126661
525,61,1,2,43,W/S of River Rd S of Kourt,44.092069,-123.126722
526,61,0,2,42,(RRS) E/S River Rd N of River Ave (on-street),44.096038,-123.128015
527,61,1,2,43,W/S of River Rd S of Silver,44.094702,-123.127841
528,61,0,1,18,(RRS) E/S River Rd N of River Ave (SE),44.096072,-123.126968
528,61,1,1,18,(RRS) E/S River Rd N of River Ave (SE),44.096072,-123.126968
529,61,1,2,44,(RRS) E/S River Rd N of River Ave (NE),44.096173,-123.126966
53,61,1,1,73,N/S of Main W of 14th,44.045961,-123.00585
530,61,0,1,18,W/S of Park S of Maxwell,44.08995,-123.144221
531,61,0,1,18,S/S of Howard E of Park,44.088007,-123.143604
531,61,1,1,18,S/S of Howard E of Park,44.088007,-123.143604
532,61,0,1,18,S/S of Howard W of Maywood,44.087979,-123.140541
532,61,1,1,18,S/S of Howard W of Maywood,44.087979,-123.140541
533,61,0,1,18,S/S of Howard W of Lake,44.087962,-123.137872
536,61,0,1,18,W/S of Lake N of Audel,44.084436,-123.137164
538,61,0,1,18,W/S of Lake N of Horn,44.082179,-123.137227
54,61,1,1,73,N/S of Main E of 12th,44.045992,-123.008403
540,61,0,1,18,S/S of Horn E of Dalton,44.081611,-123.134952
542,61,0,1,18,S/S of Horn W of Golden,44.081606,-123.132372
55,61,1,1,73,N/S of Main E of 10th,44.046009,-123.011117
552,61,1,1,18,E/S of Park S of Beebe,44.077766,-123.137874
554,61,1,1,18,N/S of Park W of Filbert,44.074217,-123.133165
556,61,1,1,18,N/S of Park W of Park Terrace,44.074284,-123.129447
558,61,1,1,18,N/S of Park E of Meriau,44.074375,-123.126694
56,61,0,1,25,N/S of Main W of Mill,44.046202,-123.025044
56,61,1,1,1,N/S of Main W of Mill,44.046202,-123.025044
560,61,1,1,18,N/S of Park E of Mayfair,44.074355,-123.124696
561,61,0,1,18,N/S of Park W of River Rd,44.074484,-123.12005
561,61,1,1,18,N/S of Park W of River Rd,44.074484,-123.12005
562,61,0,1,30,N/S of Barger W of Century,44.084564,-123.157747
563,61,1,1,31,S/S of Barger W of Empire Park,44.084462,-123.156598
564,61,0,1,30,N/S of Barger W of Clarey,44.084579,-123.161345
564,61,1,1,31,N/S of Barger W of Clarey,44.084579,-123.161345
565,61,1,1,31,S/S of Barger E of Taney,44.084462,-123.160032
566,61,0,1,30,N/S of Barger E of Altimont,44.084603,-123.163664
566,61,1,1,31,N/S of Barger E of Altimont,44.084603,-123.163664
567,61,0,1,32,N/S of Barger W of Echo Hollow,44.084735,-123.168836
568,61,1,1,32,S/S of Barger W/S Beltline,44.084389,-123.172494
569,61,0,1,32,N/S of Barger E of Laurelhurst,44.084654,-123.173858
57,61,1,1,25,W/S of Mohawk N of G,44.053983,-123.004121
570,61,0,1,32,N/S of Barger W of Golden Gardens,44.084657,-123.177807
571,61,1,1,32,S/S of Barger W of Golden Gardens,44.08452,-123.177467
572,61,0,1,32,N/S of Barger W of Devos,44.08465,-123.181589
573,61,1,1,32,S/S of Barger E of Devos,44.084526,-123.180778
574,61,0,1,32,N/S of Barger W of Irwin,44.084653,-123.183348
575,61,1,1,32,S/S of Barger W of East Irwin,44.084557,-123.183184
576,61,0,1,32,N/S of Barger W of West Irwin,44.08466,-123.185693
577,61,1,1,32,S/S of Barger W of West Irwin,44.084602,-123.185912
578,61,0,1,23,N/S of Barger W of Terry,44.08471,-123.188695
579,61,0,1,32,S/S of Barger E of Terry,44.084576,-123.187611
579,61,1,1,32,S/S of Barger E of Terry,44.084576,-123.187611
58,61,0,1,75,S/S of South A E of 14th,44.044416,-123.005086
581,61,0,1,26,S/S of Barger W of Amirante,44.084582,-123.190136
582,61,0,1,23,N/S of Barger W of Praslin,44.08473,-123.193108
583,61,0,1,26,S/S of Barger W of Praslin,44.084602,-123.193493
584,61,0,1,26,E/S of Minnesota N of Burnett,44.087221,-123.193999
585,61,0,1,26,N/S of Cody E of Wisconsin,44.089356,-123.197025
586,61,0,1,26,W/S of Ohio N of Burnett,44.087084,-123.198814
588,61,0,1,26,S/S of Barger E of Wisconsin,44.084635,-123.197124
589,61,0,1,31,E/S of Echo Hollow S of Dove,44.082403,-123.168051
59,61,0,1,25,S/S of Olympic E of Mohawk,44.059527,-122.999103
590,61,1,1,31,W/S of Echo Hollow S of Barger,44.083028,-123.168185
591,61,0,1,31,E/S of Echo Hollow N of Murnan,44.079903,-123.168056
592,61,1,1,31,W/S of Echo Hollow N of Murnane,44.079952,-123.168121
593,61,0,1,31,E/S of Echo Hollow N of Willhi,44.078447,-123.168048
594,61,1,1,31,W/S of Echo Hollow S of Willhi,44.07794,-123.168181
597,61,0,1,31,E/S of Echo Hollow N of Sean,44.07502,-123.168038
598,61,1,1,31,W/S of Echo Hollow S of Sean,44.074806,-123.168177
599,61,1,1,31,W/S of Jacobs S of Concord,44.075988,-123.150633
6,61,0,1,75,S/S of Thurston E of 65th,44.052675,-122.913227
60,61,0,1,31,N/S of Olympic E of 18th,44.059762,-122.996104
60,61,1,1,30,N/S of Olympic E of 18th,44.059762,-122.996104
600,61,1,1,31,S/S of Jacobs W of Fairfield,44.07414,-123.149996
601,61,0,1,30,N/S of Royal W of Bon Vue,44.070133,-123.1445
602,61,1,1,31,S/S of Royal E of Wide Site,44.070085,-123.145201
603,61,0,1,30,N/S of Royal W of Jerry,44.070154,-123.146911
604,61,1,1,31,S/S of Royal E of Fairfield,44.070118,-123.148312
605,61,1,1,31,W/S of Bertelsen N of Bell,44.068827,-123.163167
606,61,0,1,31,N/S of Royal E of Ruskin,44.070008,-123.165265
607,61,1,1,31,S/S of Royal W of Ruskin,44.069914,-123.16708
608,61,0,1,29,N/S of Royal E of Candlelight,44.070059,-123.179978
609,61,1,1,32,S/S of Royal W of Danebo,44.069946,-123.179074
61,61,0,1,25,S/S of Olympic E of 18th,44.059576,-122.995836
610,61,0,1,29,N/S of Royal E of Royal Oak Dr,44.070121,-123.183277
611,61,1,1,32,S/S of Royal E of Royal Oak Dr,44.070005,-123.183114
612,61,0,1,29,N/S of Royal E of Driftwood,44.070215,-123.186879
613,61,1,1,32,S/S of Royal W of Driftwood,44.070025,-123.18708
614,61,0,1,29,E/S of Terry N of Royal,44.072121,-123.188152
615,61,0,1,29,E/S of Terry N of Daneland,44.07491,-123.188148
616,61,0,1,31,E/S of Bertelsen N of Bell,44.06871,-123.162996
620,61,0,1,1,S/S of 5th W of Bertelsen (PBPS),44.054499,-123.165486
620,61,1,1,1,S/S of 5th W of Bertelsen (PBPS),44.054499,-123.165486
621,61,0,2,42,E/S of River Rd S of E Rosewood,44.089587,-123.125348
622,61,1,2,43,W/S of River Rd S of Howard,44.087535,-123.124804
623,61,0,2,42,E/S of River Rd S of Merry,44.084599,-123.123316
624,61,1,2,43,W/S of River Rd N of Lindner,44.084695,-123.123624
625,61,0,2,42,E/S of River Rd N of Arbor,44.082044,-123.122195
626,61,0,1,18,W/S of River Rd S of Horn,44.081197,-123.122153
626,61,1,2,43,W/S of River Rd S of Horn,44.081197,-123.122153
627,61,0,1,18,W/S of River Rd S of Hilliard,44.078485,-123.120994
627,61,1,2,43,W/S of River Rd S of Hilliard,44.078485,-123.120994
628,61,0,2,42,E/S of River Rd N of Hilliard,44.079592,-123.121193
629,61,0,2,42,E/S of River Rd N of McClure,44.077071,-123.120126
630,61,0,1,18,W/S of River Rd S of Elkay,44.076418,-123.120029
630,61,1,2,43,W/S of River Rd S of Elkay,44.076418,-123.120029
631,61,0,2,42,E/S of River Rd N of Park,44.07481,-123.119156
632,61,1,2,43,W/S of River Rd S of Park,44.074273,-123.119243
633,61,0,2,42,E/S of River Rd N of Knoop,44.072005,-123.118504
634,61,1,2,43,W/S of River Rd S of Knoop,44.071065,-123.118588
635,61,0,2,42,E/S of River Rd N of Hansen,44.069261,-123.117947
636,61,1,2,43,W/S of River Rd S of Hansen,44.068348,-123.118075
637,61,1,2,43,W/S of River Rd S of Briarcliff,44.066286,-123.117688
638,61,0,2,42,E/S of River Rd S of Briarcliff,44.066337,-123.117391
639,61,0,1,25,E/S of Railroad N of Cross,44.062009,-123.11605
64,61,0,1,25,S/S of Olympic W of 28th,44.059586,-122.988537
640,61,1,1,25,W/S of Railroad S of Cross,44.061523,-123.115399
641,61,0,1,25,E/S of Railroad N of Polk,44.060118,-123.113016
642,61,1,1,25,W/S of Railroad E of Polk,44.059723,-123.112429
643,61,1,1,25,S/S of 1st E of Van Buren,44.058671,-123.108056
644,61,0,1,25,N/S of 1st E of Jackson,44.058735,-123.108312
645,61,0,1,25,N/S of 1st E of Adams,44.058797,-123.10576
646,61,1,1,25,S/S of 1st E of Monroe,44.058708,-123.10455
647,61,0,1,25,N/S of 1st W of Jefferson,44.058806,-123.102262
648,61,1,1,25,W/S of Jefferson S of 1st,44.058438,-123.101893
649,61,1,1,25,W/S of Jefferson S of 4th,44.055272,-123.10189
650,61,0,1,25,E/S of Washington N of 5th,44.054883,-123.100284
651,61,0,1,25,E/S of Washington N of 3rd,44.056787,-123.100282
652,61,0,2,48,N/S of 5th W of Jefferson,44.054374,-123.102154
653,61,1,2,49,S/S of 5th W of Madison,44.054297,-123.103574
654,61,0,2,48,N/S of 5th W of Monroe,44.054373,-123.105286
655,61,1,2,49,S/S of 5th E of Adams,44.054303,-123.106114
658,61,0,1,31,N/S of Roosevelt E of Arthur,44.063437,-123.124973
659,61,1,1,31,S/S of Roosevelt W of Garfield,44.063379,-123.124969
66,61,0,1,25,E/S of 28th N of R,44.063516,-122.985438
660,61,0,1,31,N/S of Roosevelt E of Bethel,44.063701,-123.129128
661,61,1,1,31,S/S of Roosevelt E of Bethel,44.063614,-123.128979
662,61,1,1,31,S/S of Roosevelt E of Foch,44.06363,-123.132031
663,61,0,1,31,N/S of Roosevelt E of Foch,44.063731,-123.132231
664,61,0,1,31,N/S of Roosevelt E of Hwy 99,44.063781,-123.135814
665,61,1,1,31,S/S of Roosevelt E of Hwy 99,44.063631,-123.13562
666,61,0,1,31,N/S of Roosevelt W of Hwy99,44.063813,-123.1383
667,61,0,1,31,N/S of Roosevelt W of Seneca,44.063868,-123.140987
668,61,0,1,31,E/S of Maple S of Elmira,44.064649,-123.142878
669,61,1,1,31,S/S of Elmira W of Hwy 99,44.065698,-123.139046
67,61,0,1,25,S/S of Olympic E of 21st,44.059623,-122.993032
670,61,0,1,31,N/S of Elmira W of Gilbert,44.065916,-123.144588
671,61,1,1,31,S/S of Elmira W of Gilbert,44.065885,-123.144902
674,61,0,1,31,N/S of Elmira W of Fairfield,44.066066,-123.148358
675,61,1,1,31,S/S of Elmira E of Anton,44.066055,-123.149194
676,61,0,1,31,N/S of Elmira E of Baxter,44.066176,-123.151919
677,61,1,1,31,S/S of Elmira E of Baxter,44.066148,-123.151747
678,61,0,1,31,N/S of Elmira W of Archie St,44.06625,-123.155799
679,61,0,1,31,N/S of Elmira W of Hope Ln,44.066308,-123.161792
680,61,0,1,30,E/S of Fairfield N of Royal,44.07064,-123.148679
681,61,0,1,30,E/S of Fairfield N of Hawthorne,44.072895,-123.148617
682,61,1,1,31,W/S of Fairfield N of Hawthorne,44.072827,-123.148727
683,61,0,1,30,S/S of Fairfield W of Hwy 99,44.074235,-123.147707
684,61,0,1,21,W/S of Jefferson S of 18th,44.039948,-123.101263
685,61,1,1,21,E/S of Jefferson N of 19th,44.039119,-123.101258
686,61,0,1,21,W/S of Jefferson S of 19th,44.038723,-123.101298
689,61,1,1,21,E/S of Jefferson N of 22nd,44.035375,-123.101211
69,61,1,1,31,N/S of Harlow Road W of Beverly,44.069946,-123.045044
690,61,0,1,21,W/S of Jefferson N of 22nd,44.035656,-123.101323
691,61,0,1,21,W/S of Jefferson S of 24th,44.031937,-123.1013
692,61,0,1,21,W/S of Jefferson S of 26th,44.029889,-123.101295
693,61,0,1,21,W/S of Jefferson N of 28th,44.027704,-123.101325
695,61,0,1,21,N/S of 28th W of Monroe,44.027248,-123.104372
696,61,0,1,21,N/S of 28th W of Friendly,44.02768,-123.106059
697,61,0,1,21,N/S of 28th E of Tyler,44.027758,-123.110544
698,61,1,1,21,S/S of 24th E of Polk,44.032974,-123.111674
699,61,1,1,21,S/S of 24th E of Van Buren,44.032978,-123.108998
7,61,0,1,75,S/S of Thurston W of 66th,44.053242,-122.911311
70,61,0,1,31,S/S of Harlow Rd W of Beverly,44.069834,-123.044771
700,61,1,1,21,S/S of 24th E of Adams,44.032943,-123.106606
701,61,1,1,21,S/S of 24th W of Madison,44.032952,-123.102824
702,61,1,1,21,E/S of Jefferson N of 18th,44.04058,-123.101247
703,61,1,1,21,E/S of Jefferson S of 15th,44.04316,-123.101218
704,61,0,1,21,W/S of Jefferson S of 15th,44.043131,-123.101345
705,61,0,2,36,E/S of Hwy 99 N of Bethel,44.080827,-123.151727
706,61,1,2,37,W/S of Hwy 99 of Lakewood,44.079914,-123.151449
707,61,0,2,36,E/S of Hwy 99 S of Bethel,44.078167,-123.149863
708,61,0,1,6,E/S of Hwy 99 N of Fairfield,44.075155,-123.147418
709,61,1,1,31,W/S of Jacobs S of Pattison,44.078072,-123.150602
710,61,1,2,37,W/S of Hwy 99 S of Royal,44.069461,-123.142421
711,61,1,2,37,W/S of Hwy 99 N of Side,44.06676,-123.139886
712,61,0,2,36,E/S of Hwy 99 N of Side,44.06699,-123.139805
713,61,1,2,37,W/S of Hwy 99 S of Roosevelt,44.063355,-123.136757
714,61,0,2,36,E/S of Hwy 99 N of Roosevelt,44.064257,-123.137213
715,61,1,2,37,W/S of Hwy 99 S of 5th,44.054347,-123.12848
716,61,0,2,36,E/S of Hwy 99 N of 5th,44.0555,-123.128724
717,61,1,2,37,W/S of Hwy 99 N of 7th,44.052144,-123.124665
718,61,0,2,36,N/S of 6th W of Garfield,44.053725,-123.124733
719,61,1,1,31,S/S of 8th E of Garfield,44.05089,-123.122294
720,61,0,1,30,N/S of 8th E of Garfield,44.050951,-123.122073
721,61,1,1,31,S/S of 8th E of Chambers,44.05088,-123.117465
722,61,0,1,30,N/S of 8th W of Chambers,44.050923,-123.118436
723,61,1,1,31,S/S of 8th W of Almaden,44.05085,-123.116029
724,61,0,1,30,N/S of 8th W of Almaden,44.050946,-123.116136
725,61,0,1,30,N/S of 8th W of Polk,44.050931,-123.112922
726,61,1,1,31,S/S of 8th E of Polk,44.050877,-123.112227
727,61,1,1,31,S/S of 8th E of Van Buren,44.050886,-123.109194
728,61,0,1,30,N/S of 8th E of Van Buren,44.050944,-123.109273
730,61,0,1,30,N/S of 8th W of Monroe,44.0509,-123.10539
731,61,1,1,31,S/S of 8th W of Monroe,44.050887,-123.105645
732,61,1,1,31,S/S of 8th W of Jefferson,44.050858,-123.102128
733,61,0,1,30,N/S of 8th W of Jefferson,44.050918,-123.102247
734,61,0,1,12,N/S of 11th E of Olive,44.047702,-123.093895
735,61,0,5,70,N/S of 11th W of Lawrence,44.047773,-123.099205
736,61,0,5,70,N/S of 11th E of Jefferson,44.047788,-123.101654
737,61,0,4,49,N/S of 11th W of Monroe,44.047774,-123.105275
738,61,0,4,49,N/S of 11th W of Jackson,44.047794,-123.108287
739,61,0,4,49,N/S of 11th W of Polk,44.047845,-123.112932
740,61,0,4,49,N/S of 11th W of Almaden,44.047802,-123.116129
741,61,0,4,49,N/S of 11th W of Chambers,44.0478,-123.118533
742,61,0,4,49,N/S of 11th W of Grant,44.047836,-123.120826
743,61,0,4,49,N/S of 11th W of Arthur,44.047896,-123.125073
744,61,1,4,53,S/S of 11th W of Arthur,44.047737,-123.125082
745,61,0,4,49,N/S of 11th W of City View,44.047975,-123.12825
746,61,1,4,53,S/S of 11th W of City View,44.047784,-123.128329
747,61,0,4,49,N/S of 11th E of Wilson,44.04795,-123.13134
748,61,1,4,53,S/S of 11th E of Wilson,44.047813,-123.131213
749,61,0,3,37,N/S of 11th E of Oak Patch Rd,44.047951,-123.134551
750,61,1,4,53,S/S of 11th E of Oak Patch,44.047848,-123.134159
751,61,0,3,37,N/S of 11th W of Tyinn,44.048009,-123.137349
752,61,1,3,41,S/S of 11th W of Tyinn,44.047902,-123.137616
753,61,0,2,36,N/S of 11th W of West Drwy,44.04809,-123.144546
754,61,1,1,8,S/S of 11th W of Seneca,44.04789,-123.140846
755,61,0,2,36,N/S of 11th W of Bailey Hill,44.04809,-123.148466
756,61,1,2,39,S/S of 11th E of Bailey Hill,44.047955,-123.147281
757,61,0,2,36,N/S of 11th W of Obie,44.048114,-123.152085
758,61,1,2,39,S/S of 11th E of Obie,44.047906,-123.150983
759,61,1,2,39,S/S of 11th E of Wallis,44.047947,-123.153993
760,61,0,2,36,N/S of 11th E of Wallis,44.048102,-123.154903
761,61,1,2,39,S/S of 11th W of Wallis,44.048079,-123.157225
762,61,0,2,36,N/S of 11th E of Amazon Canal,44.048316,-123.159026
763,61,1,2,39,S/S of 11th E of Sam Reynolds Street,44.048207,-123.15941
764,61,0,3,66,N/S of 11th W of Bertelsen,44.048068,-123.16356
765,61,0,1,30,E/S of Bertelsen N of 13th,44.045425,-123.162382
766,61,0,1,30,E/S of Bertelsen S of Churchill,44.043623,-123.162314
767,61,1,1,31,W/S of Bertelsen S of 13th,44.043212,-123.162544
768,61,0,1,30,E/S of Bertelsen N of Aldron,44.040926,-123.162401
769,61,1,1,31,W/S of Bertelsen N of Aldron Ct,44.040712,-123.162547
770,61,1,1,31,W/S of Bertelsen N of 18th,44.039116,-123.162538
771,61,0,1,30,E/S of Bertelsen S of Langton,44.038747,-123.162392
772,61,1,4,53,W/S of Garfield S of 12th,44.046319,-123.123255
773,61,1,4,53,S/S of 13th E of Hayes,44.045517,-123.121345
774,61,1,4,53,S/S of 13th E of Chambers,44.045503,-123.116562
775,61,1,4,53,S/S of 13th E of Polk,44.045502,-123.112237
776,61,1,4,53,S/S of 13th W of Jackson,44.045496,-123.108018
777,61,1,4,53,S/S of 13th E of Monroe,44.045487,-123.103587
778,61,1,5,74,S/S of 13th W of Washington,44.045479,-123.100103
779,61,1,5,74,S/S of 13th E of Lincoln,44.045474,-123.09666
780,61,0,3,37,S/S of 13th E of High,44.045505,-123.087691
780,61,1,1,12,S/S of 13th E of High,44.045505,-123.087691
781,61,0,3,37,S/S of 13th E of Ferry,44.045574,-123.084606
781,61,1,1,12,S/S of 13th E of Ferry,44.045574,-123.084606
782,61,0,3,37,S/S of 13th E of Hilyard,44.045494,-123.081515
782,61,1,4,74,S/S of 13th E of Hilyard,44.045494,-123.081515
783,61,1,1,28,University of Oregon Station - Bay B,44.045922,-123.078617
786,61,1,2,10,N/S of 11th W of Alder,44.047758,-123.081304
789,61,0,1,10,N/S of 11th W of High,44.047782,-123.089149
789,61,1,4,54,N/S of 11th W of High,44.047782,-123.089149
790,61,1,4,38,N/S of 8th W of High,44.051013,-123.08854
791,61,1,6,82,N/S of 8th W of Oak,44.05105,-123.091897
792,61,0,2,55,N/S of 8th W of Olive,44.051005,-123.094706
793,61,0,2,55,N/S of 8th W of Lincoln,44.050977,-123.09769
794,61,0,2,55,N/S of 8th E of Washington,44.05092,-123.100188
795,61,1,3,74,S/S of 5th E of Washington,44.054391,-123.099666
796,61,0,2,48,N/S of 5th W of Lawrence,44.054332,-123.099347
797,61,0,1,31,N/S of 5th W of Olive,44.054369,-123.094528
798,61,0,1,31,N/S of 5th E of Willamette,44.054398,-123.092032
8,61,0,1,75,S/S of Thurston W of 67th,44.053635,-122.907987
800,61,0,2,18,S/S of 2nd W of Mill,44.057601,-123.087285
800,61,1,1,11,S/S of 2nd W of Mill,44.057601,-123.087285
801,61,0,1,7,N/S of 3rd E of High,44.056479,-123.087953
801,61,1,3,45,N/S of 3rd E of High,44.056479,-123.087953
802,61,0,1,7,W/S of Pearl N of 4th,44.055875,-123.089674
802,61,1,3,45,W/S of Pearl N of 4th,44.055875,-123.089674
803,61,1,3,45,W/S of Pearl N of 5th,44.054627,-123.089723
804,61,1,4,108,W/S of Pearl N of 8th,44.051591,-123.089764
805,61,0,2,9,S/S of Franklin Blvd E of Onyx,44.047005,-123.072794
806,61,1,2,10,N/S of Franklin Blvd W of Agate,44.046811,-123.070456
810,61,1,1,9,N/S of Franklin Blvd W of Walnut,44.045074,-123.062021
811,61,0,1,8,S/S of Franklin Blvd E of Walnut,44.044646,-123.061114
812,61,0,1,13,W/S of Orchard S of Franklin,44.044755,-123.063202
812,61,1,1,13,W/S of Orchard S of Franklin,44.044755,-123.063202
813,61,1,6,135,W/S of Coburg S of Club Rd,44.059746,-123.082609
815,61,0,3,38,W/S of Pearl S of 13th,44.045194,-123.089693
816,61,0,3,38,W/S of Pearl S of 15th,44.043062,-123.089701
817,61,0,3,38,W/S of Pearl S of 17th,44.040818,-123.089729
818,61,0,2,25,W/S of Amazon Pkwy S of 19th,44.038274,-123.089743
819,61,0,2,25,W/S of Amazon Pkwy S of 24th,44.03303,-123.088479
821,61,0,1,18,N/S of 29th W of Mill,44.026252,-123.08714
822,61,1,1,18,S/S of 29th W of Mill,44.026165,-123.087195
823,61,0,1,18,N/S of 29th E of Oak,44.026252,-123.089482
824,61,1,1,18,S/S of 29th E of Willamette,44.026137,-123.089889
825,61,1,2,25,N/S of 30th W of Alder,44.024254,-123.080924
826,61,0,2,25,S/S of 30th E of Alder,44.024093,-123.079709
827,61,0,2,25,S/S of 30th E of Harris,44.024116,-123.077408
828,61,1,3,41,N/S of 30th E of University,44.024283,-123.074845
829,61,0,3,41,S/S of 30th E of University,44.024071,-123.074761
830,61,0,2,30,N/S of 30th E of Eldon Schafer,44.01383,-123.027883
830,61,1,2,7,N/S of 30th E of Eldon Schafer,44.01383,-123.027883
831,61,0,2,8,S/S of 30th W of Eldon Schafer,44.013726,-123.029708
831,61,1,1,25,S/S of 30th W of Eldon Schafer,44.013726,-123.029708
832,61,0,1,28,W/S of Hilyard N of 33rd,44.021192,-123.081706
833,61,0,1,16,W/S of Harris N of 30th,44.024445,-123.07784
834,61,1,1,16,E/S of Harris N of 30th,44.02452,-123.077752
835,61,1,1,16,E/S of Harris S of 28th,44.026893,-123.077762
836,61,0,1,16,W/S of Harris N of 28th,44.027267,-123.077845
837,61,0,1,16,W/S of Harris S of 26th,44.03018,-123.077875
838,61,1,1,16,E/S of Harris N of 26th,44.030678,-123.077773
839,61,0,1,16,W/S of Harris S of 24th,44.033157,-123.077854
840,61,1,1,16,E/S of Harris N of 24th,44.033797,-123.077715
841,61,1,1,16,E/S of Harris S of 22nd,44.035443,-123.077744
842,61,0,1,16,W/S of Harris N of 22nd,44.03578,-123.077792
843,61,0,1,16,W/S of Harris S of 20th,44.037596,-123.077782
844,61,1,1,16,E/S of Harris N of 20th,44.038112,-123.077708
847,61,1,1,13,W/S of Walnut S of E17th,44.040753,-123.061609
848,61,1,1,13,N/S of 24th W of Agate,44.033517,-123.070336
849,61,1,1,13,N/S of 24th E of Onyx,44.033461,-123.07297
850,61,1,1,13,N/S of 24th W of Potter,44.033459,-123.076302
851,61,1,1,13,N/S of 24th E of Kincaid,44.033509,-123.079058
852,61,1,1,13,N/S of 24th E of Hilyard,44.033491,-123.081706
853,61,0,3,59,S/S of 24th W of Hilyard,44.033379,-123.082676
854,61,0,1,13,S/S of 19th E of Amazon Pkwy,44.038902,-123.08911
855,61,1,1,13,N/S of 19th E of Mill,44.039,-123.086486
856,61,0,1,13,S/S of 19th E of Mill,44.038918,-123.085841
857,61,1,1,13,N/S of 19th E of Patterson,44.039007,-123.083438
858,61,0,1,16,S/S of 19th E of Patterson,44.038896,-123.083241
859,61,1,1,16,N/S of 19th W of Alder,44.038973,-123.080585
860,61,0,1,16,S/S of 19th E of Alder,44.038844,-123.079982
861,61,1,1,16,N/S of 19th W of Harris,44.03898,-123.078448
863,61,0,1,13,E/S of Agate S of 20th,44.037796,-123.069596
864,61,1,1,13,W/S of Agate N of 20th,44.037926,-123.069715
865,61,1,1,13,N/S of 19th W of Columbia,44.038963,-123.06827
866,61,0,1,13,S/S of 19th E of Moss,44.038914,-123.06568
867,61,1,1,13,N/S of 19th W of Orchard,44.039012,-123.063402
868,61,0,1,13,S/S of 19th W of Orchard,44.038888,-123.063598
878,61,0,1,25,W/S of Old Franklin N of 19th,44.042243,-123.029666
879,61,1,1,25,E/S of Old Franklin S of 19th,44.0414,-123.02921
880,61,0,1,25,W/S of Old Franklin S of 20th,44.03807,-123.027662
881,61,1,1,25,E/S of Old Franklin S of 20th,44.03851,-123.027764
882,61,1,1,25,E/S of Old Franklin S of Nugget,44.035126,-123.02688
883,61,0,1,25,W/S of Old Franklin S of Nugget,44.0353,-123.027062
884,61,0,2,30,W/S of McVay Hwy N of Bloomberg,44.018388,-123.02585
885,61,1,2,28,E/S of McVay Hwy N of Fir Cove Ave,44.017618,-123.0254
886,61,1,1,31,E/S of Olive S of 16th,44.041955,-123.094201
887,61,1,1,31,E/S of Olive N of 15th,44.043672,-123.094225
888,61,1,3,62,E/S of Hilyard N of 15th,44.043644,-123.082108
890,61,0,1,16,W/S of Patterson N of 12th,44.046835,-123.083727
891,61,0,1,16,W/S of Patterson S of 13th,44.045129,-123.083695
892,61,0,1,16,W/S of Patterson S of 15th,44.042997,-123.083699
893,61,0,1,16,W/S of Patterson N of 17th,44.041274,-123.083713
895,61,1,1,13,E/S of High S of 17th,44.040957,-123.088163
896,61,1,1,13,E/S of High N of 15th,44.043498,-123.088103
897,61,1,1,13,E/S of High N of 13th,44.045686,-123.088123
898,61,0,3,65,E/S of High S of 8th,44.050618,-123.088049
899,61,0,1,7,E/S of High N of 7th,44.052628,-123.088074
9,61,0,1,75,S/S of Thurston E of 68th,44.053617,-122.905808
900,61,1,4,80,W/S of Charnelton S of 8th,44.050575,-123.095873
902,61,0,3,65,S/S of 10th W of Pearl,44.048749,-123.090238
903,61,0,5,106,E/S of Oak S of 7th,44.051435,-123.091127
904,61,1,1,6,S/S of 7th W of Washington,44.052102,-123.100604
905,61,1,1,6,S/S of 7th E of Lincoln,44.052099,-123.096681
907,61,1,1,31,S/S of 10th E of Lincoln,44.048777,-123.096688
909,61,1,2,46,E/S of Hilyard N of 26th,44.030815,-123.081424
91,61,0,1,25,E/S of 5th N of Q,44.063163,-123.019267
912,61,0,2,50,E/S of 5th S of B,44.047767,-123.01947
913,61,0,1,30,E/S of Bertelsen S of 11th,44.047086,-123.162377
914,61,1,1,26,E/S of Scenic N of Cinderella,44.11849,-123.129683
916,61,0,1,31,N/S of Green Acres E of Delta,44.093701,-123.096164
916,61,1,1,31,N/S of Green Acres E of Delta,44.093701,-123.096164
917,61,0,1,36,S/S of Green Acres E of Delta Hwy,44.093565,-123.096239
918,61,0,5,106,E/S of Oak S of Broadway,44.049635,-123.0912
919,61,1,1,16,N/S of 30th E of Spring,44.023054,-123.059776
920,61,0,1,29,Seneca Sta. (Fred Meyer),44.049079,-123.141283
920,61,1,1,31,Seneca Sta. (Fred Meyer),44.049079,-123.141283
921,61,0,3,41,S/S of 30th W of Forest Blvd,44.015128,-123.046456
922,61,0,1,12,W/S of Bailey Hill S of 18th,44.04022,-123.148453
923,61,1,1,12,E/S of Bailey Hill S of 18th,44.039981,-123.148442
924,61,0,1,21,W/S of Jefferson S of 12th,44.046366,-123.101858
925,61,1,2,25,E/S of Amazon Prkwy N of 24th,44.033937,-123.088763
926,61,0,1,25,W/S of Old Franklin S of 19th,44.041035,-123.029049
927,61,0,1,75,N/S of Main W of 59th,44.045747,-122.924669
927,61,1,1,4,N/S of Main W of 59th,44.045747,-122.924669
928,61,1,1,25,E/S of Old Franklin N of 19th,44.043101,-123.029928
93,61,0,1,25,E/S of 5th S of T,44.066077,-123.019248
930,61,0,1,34,E/S of Goodpstre Is S of VR Dr,44.070262,-123.108092
931,61,0,1,12,W/S of Warren S of Bible College,44.032593,-123.151869
934,61,1,1,31,S/S of 10th E of Washington,44.048766,-123.100111
935,61,0,2,18,E/S of High N of 4th,44.055623,-123.088081
939,61,0,2,42,E/S of River Rd N of Maynard,44.087319,-123.12441
940,61,0,1,26,E/S of Minnesota S of Cody,44.089062,-123.193982
95,61,0,1,25,E/S of 5th S of V,44.068765,-123.01925
950,61,1,1,32,E/S of Donald S of 40th,44.011108,-123.087097
951,61,1,1,32,E/S of Donald S of 43rd,44.008101,-123.087176
952,61,0,1,18,S/S of 40th W of Pearl,44.011396,-123.089988
953,61,0,1,18,S/S of 40th E of Willamette,44.011429,-123.09201
954,61,0,1,18,W/S of Willamette N of 39th,44.013855,-123.092626
955,61,0,1,18,W/S of Willamette S of 36th,44.016119,-123.09255
956,61,0,1,18,W/S of Willamette N of 34th,44.019735,-123.092214
958,61,1,1,36,S/S of Crescent E of Norkenzie,44.092907,-123.087133
959,61,1,1,36,S/S of Crescent E of Tulip,44.093201,-123.085174
960,61,1,1,36,S/S of Crescent W of Gilham,44.092839,-123.081455
963,61,1,2,40,W/S of Coburg N of Jeppesen,44.083538,-123.067691
965,61,1,1,31,W/S of Willagillespie S of VR Dr,44.068666,-123.100434
966,61,0,1,34,E/S of Willagillespie S of VR Dr,44.068664,-123.100269
967,61,1,1,31,W/S of Willagillespie N of Country Club,44.065229,-123.097567
968,61,0,1,34,N/S of Willagillespie W of Country Club (OML),44.065382,-123.097649
969,61,1,1,31,S/S of Country Club W of SAIF,44.064272,-123.094251
97,61,0,1,25,W/S of 19th N of Marcola,44.065644,-122.996678
97,61,1,1,25,W/S of 19th N of Marcola,44.065644,-122.996678
970,61,0,1,34,N/S of Country Club W of SAIF,44.064364,-123.093957
971,61,1,1,31,S/S of Country Club W of Eugene CC,44.063278,-123.088572
972,61,0,1,34,N/S of Country Club W of Eugene CC,44.063418,-123.088515
973,61,1,1,31,S/S of Country Club W of Southwood,44.062308,-123.085809
974,61,0,1,34,N/S of Country Club W of Southwood,44.062092,-123.085041
975,61,1,2,67,W/S of Pearl N of 10th,44.049333,-123.08981
978,61,1,3,56,E/S of Oak S of 16th,44.042034,-123.091147
979,61,1,3,56,E/S of Oak S of 14th,44.044243,-123.091176
98,61,1,1,25,N/S of Q E of 12th,44.062526,-123.005919
980,61,1,3,56,E/S of Oak S of 12th,44.046241,-123.091146
981,61,1,1,31,"VRC Sta, Bay A--inbound",44.067374,-123.106237
984,61,1,3,74,W/S of Charnelton N of 6th,44.053404,-123.095847
985,61,1,1,31,W/S of Goodpstre Is S of VR Dr,44.069539,-123.108259
986,61,1,1,31,E/S of VR Way N of VR Inn,44.065702,-123.102952
987,61,1,1,31,E/S of VR Way S of VR Dr,44.068609,-123.103054
988,61,1,1,19,S/S of Irving E of Newcastle,44.103425,-123.135896
989,61,1,3,56,E/S of Oak S of 17th,44.040546,-123.091272
99,61,1,1,25,N/S of Q W of 11th,44.062539,-123.009842
992,61,0,2,42,E/S of River Rd N of Santa Clara,44.100732,-123.130112
993,61,0,1,75,N/S of Main E of 63rd,44.045736,-122.915437
993,61,1,1,4,N/S of Main E of 63rd,44.045736,-122.915437
995,61,0,1,31,S/S of MLK Blvd E of Centennial Lp,44.059559,-123.078386
996,61,0,2,46,W/S of Alder N of 15th,44.043717,-123.080205
997,61,0,2,46,W/S of Alder N of 17th,44.0413,-123.080239
1,67,0,1,63,E/S of 58th N of Main,44.046335,-122.926726
10,67,0,1,63,W/S of 69th S of G,44.05265,-122.904238
100,67,1,1,14,N/S of Q W of 10th,44.062538,-123.01242
1007,67,1,1,28,W/S of Bertelsen S of 11th,44.047375,-123.162512
1009,67,1,1,15,E/S of Hilyard N of 30th,44.024788,-123.081466
101,67,1,1,14,N/S of Q W of 7th,44.062292,-123.016776
1010,67,0,1,14,W/S of Hilyard N of 30th,44.024618,-123.081724
1011,67,1,1,15,E/S of Hilyard N of 32nd,44.022461,-123.081458
1018,67,0,1,26,E/S of Goodpstre Is N of Alexander,44.079748,-123.10999
1019,67,1,1,22,W/S of Goodpstre Is S of Alexander,44.079292,-123.10917
102,67,0,1,25,E/S of 21st N of L,44.057605,-122.994275
1022,67,1,1,13,S/S of 24th W of Taylor,44.033037,-123.114769
1023,67,0,1,13,E/S of Chambers N of 28th,44.027831,-123.11777
1024,67,0,1,13,N/S of 28th E of Almaden,44.027738,-123.114032
1026,67,0,1,23,E/S of Washington S of 6th Ave,44.053096,-123.100324
1027,67,1,1,2,S/S of 11th W of Fred Meyer dwy,44.047929,-123.144288
1028,67,1,1,28,W/S of Bertelsen S of 13th,44.044943,-123.16258
1032,67,0,1,2,S/S of Main E of 69th,44.045534,-122.90331
1033,67,0,1,63,S/S of Main E of 48th,44.045646,-122.948948
1034,67,0,2,48,E/S of Coburg S of Oakmont,44.065332,-123.07464
1037,67,1,2,27,S/S of 2nd E of Chambers,44.057482,-123.116723
104,67,0,1,25,S/S of Centennial W of 21st,44.055985,-122.994691
1040,67,0,2,27,N/S of 2nd W of Blair,44.057508,-123.111803
1041,67,1,2,27,W/S of Blair S of 2nd,44.057202,-123.110947
1042,67,0,2,27,E/S of Blair N of 4th,44.055649,-123.109266
1043,67,1,2,27,W/S of Blair N of 4th,44.055571,-123.109371
1047,67,1,1,61,N/S of Main E of 8th,44.046222,-123.015077
1048,67,0,2,17,S/S of 13th W of Oak,44.045448,-123.09178
1051,67,0,1,26,E/S of Gateway S of North Access,44.076675,-123.042103
1052,67,0,1,25,W/S of Gateway S of North Access,44.075845,-123.042355
1053,67,0,1,25,Gateway Sta.-Bay B (to ES),44.073139,-123.042685
1053,67,1,1,26,Gateway Sta.-Bay B (to ES),44.073139,-123.042685
1054,67,0,1,26,Gateway Sta.-Bay A (to Spfd),44.073238,-123.042823
1055,67,0,2,27,E/S of Chambers N of 2nd,44.057957,-123.117248
106,67,0,1,25,S/S of Centennial E of 18th,44.056072,-122.997558
1066,67,1,1,2,W/S of Hwy 99 S of Fairfield,44.074198,-123.146871
1067,67,1,1,2,W/S of Hwy 99 S of Pattison,44.078043,-123.150119
1071,67,1,4,68,E/S of Olive S of 12th,44.046373,-123.094242
1072,67,0,3,56,N/S of 11th E of Commerce,44.048134,-123.166768
1073,67,1,3,55,S/S of 11th E of Commerce,44.047976,-123.166752
1074,67,0,1,25,E/S of Country Club S of Womenscare Clinic,44.064165,-123.091514
1075,67,0,2,34,E/S of River Rd S of Division,44.098112,-123.128903
1077,67,0,1,14,W/S of Kincaid N of 14th,44.044573,-123.078724
1078,67,0,1,16,N/S of Elmira E of Berntzen,44.066248,-123.157757
1079,67,1,1,16,S/S of Elmira W of Berntzen,44.066233,-123.158322
108,67,0,1,25,S/S of Centennial E of 16th,44.056118,-123.000167
1080,67,0,1,2,N/S of 11th W of Terry,44.048447,-123.188778
1081,67,1,2,29,S/S of 11th E of Terry,44.048233,-123.187728
1084,67,1,1,23,E/S of Donald S of Mill,44.01283,-123.087295
1085,67,1,1,23,E/S of Donald N of 37th,44.015769,-123.087723
1086,67,1,1,23,E/S of Pearl S of 34th Pl,44.017869,-123.088511
1087,67,1,1,23,N/S of 34th Pl E of Donald,44.019194,-123.089332
1088,67,1,1,23,E/S of Donald N of 33rd,44.021328,-123.090092
1094,67,0,1,16,N/S of Roosevelt W of Chambers,44.063421,-123.121357
1095,67,1,1,16,S/S of Roosevelt W of Chambers,44.06325,-123.12165
1096,67,1,1,16,S/S of Elmira W of Archie,44.06619,-123.154986
11,67,0,1,63,W/S of 69th N of D,44.049526,-122.904205
110,67,0,1,25,S/S of Centennial W of Market,44.056174,-123.003579
1103,67,1,1,22,W/S of Goodpstre Is Sof Boulders,44.081753,-123.111952
1104,67,0,1,26,E/S of Goodpasture Is N of Wimbledon,44.08183,-123.111739
111,67,1,1,25,N/S of Centennial W of Market,44.056257,-123.004076
112,67,0,1,25,S/S of Centennial E of 12th,44.056217,-123.00856
113,67,1,1,25,N/S of Centennial W of 12th,44.05627,-123.009352
1138,67,0,1,16,E/S of Echo Hollow S of Barger,44.084149,-123.168028
1139,67,0,1,15,N/S of Marcola Rd E of 19th,44.064541,-122.995208
1139,67,1,1,15,N/S of Marcola Rd E of 19th,44.064541,-122.995208
114,67,0,1,25,S/S of Centennial E of 10th,44.056193,-123.01155
1141,67,0,1,15,N/S of Marcola E of 22nd,44.064555,-122.992429
115,67,1,1,25,N/S of Centennial W of 10th,44.056289,-123.013805
1150,67,1,1,61,N/S of Main W of 30th,44.045931,-122.983486
1157,67,0,2,65,"Thurston Sta, Bay B (outb.)",44.045556,-122.929652
1158,67,0,1,61,"Thurston Sta, Bay A (inb.)",44.044772,-122.930139
1158,67,1,1,61,"Thurston Sta, Bay A (inb.)",44.044772,-122.930139
1159,67,0,1,63,S/S of Main E of 34th,44.045793,-122.97818
116,67,0,1,25,S/S of Centennial E of 7th,44.056204,-123.016373
117,67,1,1,25,N/S of Centennial W of 7th,44.056318,-123.017037
1172,67,0,1,2,N/S of Irving W of Prairie Rd,44.10328,-123.164401
1173,67,1,1,2,S/S of Irving W of Prairie Rd,44.103171,-123.164177
1177,67,0,1,11,N/S of Irvington Rd W of Willowbrook,44.115846,-123.15366
1177,67,1,1,11,N/S of Irvington Rd W of Willowbrook,44.115846,-123.15366
118,67,1,1,25,N/S of Centennial W of 5th,44.056292,-123.020531
1181,67,1,1,2,W/S of Hwy 99 S of Prairie Rd,44.088115,-123.158095
1184,67,1,1,25,W/s of Danebo N of Roosevelt,44.066543,-123.178252
1185,67,0,3,55,N/S of W 11th E of Danebo,44.048306,-123.177698
1186,67,0,1,26,E/S of Terry S of Avalon,44.07722,-123.188149
1187,67,0,1,26,E/S of Terry S of Summerfield Estates,44.082125,-123.188144
1188,67,1,1,26,W/S of Terry S of Summerfield Estates,44.082146,-123.188299
1189,67,1,1,26,W/S of Terry S of Woodland Pk,44.080013,-123.188321
119,67,0,1,25,S/S of Centennial E of Custom,44.056303,-123.022529
1190,67,1,1,26,W/S of Terry S of Avalon,44.077014,-123.188305
1191,67,1,1,26,W/S of Terry S of Donohue (Kalapuya HS),44.073894,-123.188352
1192,67,1,1,25,W/S of Danebo S of Pacific St,44.05704,-123.178294
1193,67,1,1,25,W/S of Danebo N of Isabelle,44.051473,-123.178318
1194,67,0,1,26,E/S of Danebo S of Isabelle St,44.050806,-123.178134
1195,67,0,1,26,E/S of Danebo N of Pacific St,44.057432,-123.178144
1199,67,1,1,11,W/S of Arrowhead N of Ginger,44.111636,-123.156568
120,67,1,1,25,N/S of Centennial E of 1st,44.057148,-123.025587
1200,67,1,1,11,W/S of Arrowhead N of Cinnamon,44.107963,-123.155718
1201,67,1,1,11,W/S of Arrowhead N of Dry Crk,44.106239,-123.155033
1202,67,1,1,11,S/S of Irving E of Arrowhead,44.103227,-123.152624
1203,67,1,3,55,S/S of 11th W of Commerce (Wal Mart),44.047987,-123.170315
1209,67,0,1,22,E/S of Shadowview S of Crescent,44.09174,-123.060007
121,67,0,1,25,S/S of Centennial W of Pioneer Pkwy W,44.056916,-123.02525
1218,67,1,1,26,W/S of Shadowview S of Crescent,44.09171,-123.060156
122,67,1,1,25,N/S of Centennial W of Prescott,44.057254,-123.034035
1220,67,0,1,26,E/S of Danebo N of Roosevelt,44.065447,-123.178075
1221,67,0,1,16,E/S of Echo Hollow north of Royal,44.071076,-123.168086
1223,67,1,1,25,W/S of Danebo S of Royal,44.068662,-123.178252
1227,67,1,2,29,W/S of Hwy 99 S of Barger,44.084011,-123.154421
1228,67,1,1,21,S/S of Country Club E of 520 dw,44.063998,-123.091341
123,67,0,1,25,S/S of Centennial E of Prescott,44.057195,-123.032894
1233,67,1,1,24,N/S of Spring Crk W of Spring Meadows,44.124278,-123.13866
124,67,1,1,25,N/S of Centennial W of Rainbow,44.056201,-123.038282
125,67,0,1,25,S/S of Centennial W of Rainbow Dr,44.056001,-123.038232
1253,67,0,1,26,E/S of Terry S of Woodland Park,44.080024,-123.188136
1254,67,0,1,2,E/S of Hwy 99 N of Royal,44.070544,-123.143151
1255,67,1,1,16,W/S of Echo Hollow N of Knoop,44.072782,-123.168186
1256,67,0,1,16,E/S of Echo Hollow N of Knoop,44.072686,-123.168051
1257,67,1,1,16,S/S of Elmira E of Hope,44.066257,-123.161426
126,67,0,1,25,S/S of Centennial E of Aspen,44.055643,-123.042238
1260,67,0,1,22,S/S of Chad E of Coburg Rd,44.09008,-123.065276
1261,67,0,1,22,E/S of Shadowview N of Chad,44.09025,-123.06084
1262,67,1,1,26,S/S of Crescent E/S of Coburg Rd,44.092895,-123.065713
1263,67,1,1,26,N/S of Chad W of Shadowview,44.090116,-123.063133
1264,67,1,1,26,N/S of Chad E of Coburg Rd,44.09022,-123.065372
1267,67,1,1,26,S/S of Crescent W of Shadowview,44.092169,-123.061364
127,67,1,1,25,N/S of Centennial W of Aspen,44.055858,-123.043046
1270,67,1,3,54,S/S of 11th E of Willow Crk,44.048085,-123.177236
128,67,0,1,25,S/S of Centennial E of Anderson,44.055796,-123.047316
1288,67,1,2,43,S/S of Aerial W of N Clarey,44.086101,-123.162208
1289,67,0,1,16,S/S of Wagner E of Cubit,44.086064,-123.167434
1289,67,1,2,44,S/S of Wagner E of Cubit,44.086064,-123.167434
129,67,1,1,25,N/S of Centennial E of Anderson,44.05591,-123.047617
1290,67,0,3,56,N/S of 11th W of Commerce,44.048208,-123.170272
1291,67,0,1,2,"Eugene Station, Bay A",44.048128,-123.094019
1292,67,0,1,13,"Eugene Station, Bay B",44.047941,-123.093824
1293,67,0,1,26,"Eugene Station, Bay C",44.047858,-123.093715
1295,67,0,2,34,"Eugene Station, Bay E",44.048067,-123.093796
1296,67,0,1,25,"Eugene Station, Bay F",44.048236,-123.093942
1297,67,0,2,4,"Eugene Station, Bay G",44.04829,-123.094098
13,67,0,1,63,W/S of 69th N of Main St,44.046242,-122.903942
130,67,1,2,40,W/S of Mohawk S of Olympic,44.059073,-123.000145
1300,67,0,1,11,"Eugene Station, Bay J",44.048276,-123.09374
1301,67,0,1,14,"Eugene Station, Bay K",44.048124,-123.093638
1302,67,0,1,23,"Eugene Station, Bay L",44.048138,-123.093399
1303,67,0,1,28,"Eugene Station, Bay M",44.047971,-123.093164
1304,67,0,1,3,"Eugene Station, Bay N",44.048047,-123.092976
1305,67,0,1,25,"Eugene Station, Bay O",44.048133,-123.092989
1306,67,0,1,22,"Eugene Station, Bay P",44.048117,-123.093256
1307,67,0,1,16,"Eugene Station, Bay Q",44.048265,-123.093449
1308,67,0,1,25,"Eugene Station, Bay R",44.048392,-123.093664
1309,67,0,1,26,"Eugene Station, Bay S",44.048653,-123.093744
131,67,1,2,40,W/S of Mohawk S of M,44.056844,-123.001897
1310,67,0,2,58,"Eugene Station, Bay T",44.048747,-123.093362
1310,67,1,2,59,"Eugene Station, Bay T",44.048747,-123.093362
1311,67,0,2,22,E/S of Olive N of 8th,44.051306,-123.094199
1312,67,0,1,11,S/S of 5th E of Olive,44.054329,-123.093453
1313,67,0,1,11,S/S of 5th W of Pearl,44.054244,-123.090008
1321,67,0,2,50,S/S of MLK Blvd W of Centennial Lp,44.059479,-123.080922
1322,67,0,1,25,E/S of Club Rd S of Country Club Rd,44.060157,-123.084437
1323,67,0,1,26,W/S of Terry S of Barger,44.083928,-123.188283
1323,67,1,1,26,W/S of Terry S of Barger,44.083928,-123.188283
1329,67,1,1,2,N/S of Hwy 126 (MP 12.7) E of Thriftway,44.066042,-122.810337
133,67,0,1,15,E/S of Mohawk N of G,44.053562,-123.004197
1330,67,0,1,1,E/S of Territorial (MP 19.6) N of Broadway,44.051885,-123.351464
