route_id,stop_id,service_id,direction_id,avghdwy,stdev_hdwy,stop_name,stop_lat,stop_lon,route_short_name,route_long_name
2,1,9,1,,,30TH ST. PHL.,39.956565,-75.182327,"",Atlantic City Rail Line
2,1,9,0,,,30TH ST. PHL.,39.956565,-75.182327,"",Atlantic City Rail Line
2,1,8,1,64.2,12.0,30TH ST. PHL.,39.956565,-75.182327,"",Atlantic City Rail Line
2,1,8,0,64.0,8.3,30TH ST. PHL.,39.956565,-75.182327,"",Atlantic City Rail Line
2,1,7,0,,,30TH ST. PHL.,39.956565,-75.182327,"",Atlantic City Rail Line
2,1,6,1,69.5,20.8,30TH ST. PHL.,39.956565,-75.182327,"",Atlantic City Rail Line
2,1,6,0,65.0,8.6,30TH ST. PHL.,39.956565,-75.182327,"",Atlantic City Rail Line
2,1,4,0,,,30TH ST. PHL.,39.956565,-75.182327,"",Atlantic City Rail Line
2,1,3,1,,,30TH ST. PHL.,39.956565,-75.182327,"",Atlantic City Rail Line
2,1,3,0,,,30TH ST. PHL.,39.956565,-75.182327,"",Atlantic City Rail Line
2,10,8,1,62.2,14.7,ATLANTIC CITY,39.363299,-74.441486,"",Atlantic City Rail Line
2,10,8,0,63.6,5.7,ATLANTIC CITY,39.363299,-74.441486,"",Atlantic City Rail Line
2,10,7,0,,,ATLANTIC CITY,39.363299,-74.441486,"",Atlantic City Rail Line
2,10,6,1,60.0,20.9,ATLANTIC CITY,39.363299,-74.441486,"",Atlantic City Rail Line
2,10,6,0,64.2,9.7,ATLANTIC CITY,39.363299,-74.441486,"",Atlantic City Rail Line
2,10,5,1,,,ATLANTIC CITY,39.363299,-74.441486,"",Atlantic City Rail Line
2,10,5,0,,,ATLANTIC CITY,39.363299,-74.441486,"",Atlantic City Rail Line
2,10,4,0,,,ATLANTIC CITY,39.363299,-74.441486,"",Atlantic City Rail Line
2,10,3,1,,,ATLANTIC CITY,39.363299,-74.441486,"",Atlantic City Rail Line
2,10,3,0,,,ATLANTIC CITY,39.363299,-74.441486,"",Atlantic City Rail Line
2,10,2,1,81.0,,ATLANTIC CITY,39.363299,-74.441486,"",Atlantic City Rail Line
2,10,2,0,,,ATLANTIC CITY,39.363299,-74.441486,"",Atlantic City Rail Line
14,100,8,1,58.4,21.9,NANUET,41.090015,-74.014794,"",Pascack Valley Line
14,100,8,0,62.2,17.3,NANUET,41.090015,-74.014794,"",Pascack Valley Line
14,100,6,1,46.1,24.6,NANUET,41.090015,-74.014794,"",Pascack Valley Line
14,100,6,0,39.0,26.5,NANUET,41.090015,-74.014794,"",Pascack Valley Line
14,100,4,1,,,NANUET,41.090015,-74.014794,"",Pascack Valley Line
14,100,13,1,,,NANUET,41.090015,-74.014794,"",Pascack Valley Line
8,101,6,1,63.5,27.5,NETCONG,40.897554,-74.707317,"",Morris & Essex Line
8,101,6,0,66.6,7.7,NETCONG,40.897554,-74.707317,"",Morris & Essex Line
3,101,6,1,71.0,,NETCONG,40.897554,-74.707317,"",Montclair-Boonton Line
3,101,6,0,53.0,,NETCONG,40.897554,-74.707317,"",Montclair-Boonton Line
16,102,9,1,,,NETHERWOOD,40.629148,-74.403455,"",Raritan Valley Line
16,102,8,1,60.0,1.0,NETHERWOOD,40.629148,-74.403455,"",Raritan Valley Line
16,102,8,0,61.3,5.1,NETHERWOOD,40.629148,-74.403455,"",Raritan Valley Line
16,102,6,1,48.6,16.2,NETHERWOOD,40.629148,-74.403455,"",Raritan Valley Line
16,102,6,0,46.7,17.8,NETHERWOOD,40.629148,-74.403455,"",Raritan Valley Line
16,102,14,1,,,NETHERWOOD,40.629148,-74.403455,"",Raritan Valley Line
10,103,8,1,38.7,15.0,NEW BRUNSWICK,40.497278,-74.445751,"",Northeast Corridor
10,103,8,0,38.0,13.3,NEW BRUNSWICK,40.497278,-74.445751,"",Northeast Corridor
10,103,6,1,20.3,9.5,NEW BRUNSWICK,40.497278,-74.445751,"",Northeast Corridor
10,103,6,0,21.8,14.1,NEW BRUNSWICK,40.497278,-74.445751,"",Northeast Corridor
10,103,4,1,41.0,,NEW BRUNSWICK,40.497278,-74.445751,"",Northeast Corridor
10,103,4,0,,,NEW BRUNSWICK,40.497278,-74.445751,"",Northeast Corridor
10,103,13,1,,,NEW BRUNSWICK,40.497278,-74.445751,"",Northeast Corridor
10,103,13,0,,,NEW BRUNSWICK,40.497278,-74.445751,"",Northeast Corridor
9,104,9,1,,,NEW PROVIDENCE,40.712022,-74.386501,"",Gladstone Branch
9,104,8,1,60.0,0.0,NEW PROVIDENCE,40.712022,-74.386501,"",Gladstone Branch
9,104,8,0,60.0,0.0,NEW PROVIDENCE,40.712022,-74.386501,"",Gladstone Branch
9,104,6,1,41.3,19.2,NEW PROVIDENCE,40.712022,-74.386501,"",Gladstone Branch
9,104,6,0,47.3,21.8,NEW PROVIDENCE,40.712022,-74.386501,"",Gladstone Branch
9,104,14,1,,,NEW PROVIDENCE,40.712022,-74.386501,"",Gladstone Branch
9,104,10,1,65.5,23.3,NEW PROVIDENCE,40.712022,-74.386501,"",Gladstone Branch
9,104,10,0,,,NEW PROVIDENCE,40.712022,-74.386501,"",Gladstone Branch
8,105,9,0,,,NEW YORK PENN STATION,40.750046,-73.992358,"",Morris & Essex Line
8,105,8,1,60.0,0.0,NEW YORK PENN STATION,40.750046,-73.992358,"",Morris & Essex Line
8,105,8,0,59.8,2.0,NEW YORK PENN STATION,40.750046,-73.992358,"",Morris & Essex Line
11,105,8,1,60.0,0.3,NEW YORK PENN STATION,40.750046,-73.992358,"",North Jersey Coast Line
11,105,8,0,60.2,2.0,NEW YORK PENN STATION,40.750046,-73.992358,"",North Jersey Coast Line
10,105,8,1,29.5,16.7,NEW YORK PENN STATION,40.750046,-73.992358,"",Northeast Corridor
10,105,8,0,34.1,18.5,NEW YORK PENN STATION,40.750046,-73.992358,"",Northeast Corridor
9,105,6,1,37.0,,NEW YORK PENN STATION,40.750046,-73.992358,"",Gladstone Branch
9,105,6,0,27.0,,NEW YORK PENN STATION,40.750046,-73.992358,"",Gladstone Branch
8,105,6,1,34.2,17.1,NEW YORK PENN STATION,40.750046,-73.992358,"",Morris & Essex Line
8,105,6,0,32.3,18.8,NEW YORK PENN STATION,40.750046,-73.992358,"",Morris & Essex Line
4,105,6,1,52.8,11.5,NEW YORK PENN STATION,40.750046,-73.992358,"",Montclair-Boonton Line
4,105,6,0,55.4,14.2,NEW YORK PENN STATION,40.750046,-73.992358,"",Montclair-Boonton Line
11,105,6,1,29.1,17.8,NEW YORK PENN STATION,40.750046,-73.992358,"",North Jersey Coast Line
11,105,6,0,33.5,22.6,NEW YORK PENN STATION,40.750046,-73.992358,"",North Jersey Coast Line
10,105,6,1,18.8,10.2,NEW YORK PENN STATION,40.750046,-73.992358,"",Northeast Corridor
10,105,6,0,18.4,13.2,NEW YORK PENN STATION,40.750046,-73.992358,"",Northeast Corridor
8,105,4,1,,,NEW YORK PENN STATION,40.750046,-73.992358,"",Morris & Essex Line
11,105,4,1,55.0,,NEW YORK PENN STATION,40.750046,-73.992358,"",North Jersey Coast Line
11,105,4,0,,,NEW YORK PENN STATION,40.750046,-73.992358,"",North Jersey Coast Line
10,105,4,1,39.0,,NEW YORK PENN STATION,40.750046,-73.992358,"",Northeast Corridor
10,105,4,0,,,NEW YORK PENN STATION,40.750046,-73.992358,"",Northeast Corridor
11,105,18,1,,,NEW YORK PENN STATION,40.750046,-73.992358,"",North Jersey Coast Line
11,105,17,1,60.0,0.5,NEW YORK PENN STATION,40.750046,-73.992358,"",North Jersey Coast Line
11,105,17,0,60.0,0.0,NEW YORK PENN STATION,40.750046,-73.992358,"",North Jersey Coast Line
11,105,16,1,60.1,3.5,NEW YORK PENN STATION,40.750046,-73.992358,"",North Jersey Coast Line
11,105,16,0,48.6,14.4,NEW YORK PENN STATION,40.750046,-73.992358,"",North Jersey Coast Line
8,105,15,1,,,NEW YORK PENN STATION,40.750046,-73.992358,"",Morris & Essex Line
8,105,13,1,45.0,,NEW YORK PENN STATION,40.750046,-73.992358,"",Morris & Essex Line
11,105,13,1,55.0,,NEW YORK PENN STATION,40.750046,-73.992358,"",North Jersey Coast Line
11,105,13,0,,,NEW YORK PENN STATION,40.750046,-73.992358,"",North Jersey Coast Line
10,105,13,1,,,NEW YORK PENN STATION,40.750046,-73.992358,"",Northeast Corridor
10,105,13,0,,,NEW YORK PENN STATION,40.750046,-73.992358,"",Northeast Corridor
9,106,9,1,,,NEWARK BROAD ST,40.747621,-74.171943,"",Gladstone Branch
8,106,9,0,,,NEWARK BROAD ST,40.747621,-74.171943,"",Morris & Essex Line
8,106,8,1,60.0,0.0,NEWARK BROAD ST,40.747621,-74.171943,"",Morris & Essex Line
8,106,8,0,59.6,1.6,NEWARK BROAD ST,40.747621,-74.171943,"",Morris & Essex Line
4,106,8,1,,,NEWARK BROAD ST,40.747621,-74.171943,"",Montclair-Boonton Line
4,106,8,0,,,NEWARK BROAD ST,40.747621,-74.171943,"",Montclair-Boonton Line
9,106,6,1,45.2,17.2,NEWARK BROAD ST,40.747621,-74.171943,"",Gladstone Branch
9,106,6,0,51.7,17.6,NEWARK BROAD ST,40.747621,-74.171943,"",Gladstone Branch
8,106,6,1,25.6,17.6,NEWARK BROAD ST,40.747621,-74.171943,"",Morris & Essex Line
8,106,6,0,27.2,17.6,NEWARK BROAD ST,40.747621,-74.171943,"",Morris & Essex Line
4,106,6,1,46.2,16.7,NEWARK BROAD ST,40.747621,-74.171943,"",Montclair-Boonton Line
4,106,6,0,47.9,18.5,NEWARK BROAD ST,40.747621,-74.171943,"",Montclair-Boonton Line
3,106,6,1,54.1,19.5,NEWARK BROAD ST,40.747621,-74.171943,"",Montclair-Boonton Line
3,106,6,0,47.7,24.3,NEWARK BROAD ST,40.747621,-74.171943,"",Montclair-Boonton Line
8,106,4,1,,,NEWARK BROAD ST,40.747621,-74.171943,"",Morris & Essex Line
8,106,15,1,,,NEWARK BROAD ST,40.747621,-74.171943,"",Morris & Essex Line
9,106,14,1,,,NEWARK BROAD ST,40.747621,-74.171943,"",Gladstone Branch
8,106,14,1,,,NEWARK BROAD ST,40.747621,-74.171943,"",Morris & Essex Line
8,106,14,0,,,NEWARK BROAD ST,40.747621,-74.171943,"",Morris & Essex Line
8,106,13,1,45.0,,NEWARK BROAD ST,40.747621,-74.171943,"",Morris & Essex Line
4,106,10,1,,,NEWARK BROAD ST,40.747621,-74.171943,"",Montclair-Boonton Line
4,106,10,0,,,NEWARK BROAD ST,40.747621,-74.171943,"",Montclair-Boonton Line
16,107,9,1,,,NEWARK PENN STATION,40.734221,-74.164554,"",Raritan Valley Line
16,107,8,1,60.0,0.0,NEWARK PENN STATION,40.734221,-74.164554,"",Raritan Valley Line
16,107,8,0,61.4,5.5,NEWARK PENN STATION,40.734221,-74.164554,"",Raritan Valley Line
11,107,8,1,60.0,0.0,NEWARK PENN STATION,40.734221,-74.164554,"",North Jersey Coast Line
11,107,8,0,61.9,6.9,NEWARK PENN STATION,40.734221,-74.164554,"",North Jersey Coast Line
10,107,8,1,33.0,19.9,NEWARK PENN STATION,40.734221,-74.164554,"",Northeast Corridor
10,107,8,0,33.5,17.6,NEWARK PENN STATION,40.734221,-74.164554,"",Northeast Corridor
16,107,6,1,44.4,20.1,NEWARK PENN STATION,40.734221,-74.164554,"",Raritan Valley Line
16,107,6,0,41.2,21.8,NEWARK PENN STATION,40.734221,-74.164554,"",Raritan Valley Line
12,107,6,1,32.0,,NEWARK PENN STATION,40.734221,-74.164554,"",North Jersey Coast Line
12,107,6,0,46.3,18.5,NEWARK PENN STATION,40.734221,-74.164554,"",North Jersey Coast Line
11,107,6,1,30.3,17.8,NEWARK PENN STATION,40.734221,-74.164554,"",North Jersey Coast Line
11,107,6,0,36.0,21.2,NEWARK PENN STATION,40.734221,-74.164554,"",North Jersey Coast Line
10,107,6,1,18.8,10.0,NEWARK PENN STATION,40.734221,-74.164554,"",Northeast Corridor
10,107,6,0,18.6,13.1,NEWARK PENN STATION,40.734221,-74.164554,"",Northeast Corridor
11,107,4,1,55.0,,NEWARK PENN STATION,40.734221,-74.164554,"",North Jersey Coast Line
11,107,4,0,,,NEWARK PENN STATION,40.734221,-74.164554,"",North Jersey Coast Line
10,107,4,1,39.0,,NEWARK PENN STATION,40.734221,-74.164554,"",Northeast Corridor
10,107,4,0,,,NEWARK PENN STATION,40.734221,-74.164554,"",Northeast Corridor
11,107,18,1,,,NEWARK PENN STATION,40.734221,-74.164554,"",North Jersey Coast Line
11,107,17,1,60.0,0.0,NEWARK PENN STATION,40.734221,-74.164554,"",North Jersey Coast Line
11,107,17,0,60.0,0.0,NEWARK PENN STATION,40.734221,-74.164554,"",North Jersey Coast Line
12,107,16,1,35.0,,NEWARK PENN STATION,40.734221,-74.164554,"",North Jersey Coast Line
12,107,16,0,,,NEWARK PENN STATION,40.734221,-74.164554,"",North Jersey Coast Line
11,107,16,1,59.8,3.8,NEWARK PENN STATION,40.734221,-74.164554,"",North Jersey Coast Line
11,107,16,0,48.6,13.9,NEWARK PENN STATION,40.734221,-74.164554,"",North Jersey Coast Line
16,107,14,1,,,NEWARK PENN STATION,40.734221,-74.164554,"",Raritan Valley Line
11,107,13,1,55.0,,NEWARK PENN STATION,40.734221,-74.164554,"",North Jersey Coast Line
11,107,13,0,,,NEWARK PENN STATION,40.734221,-74.164554,"",North Jersey Coast Line
10,107,13,1,,,NEWARK PENN STATION,40.734221,-74.164554,"",Northeast Corridor
10,107,13,0,,,NEWARK PENN STATION,40.734221,-74.164554,"",Northeast Corridor
16,108,6,1,51.0,14.7,NORTH BRANCH,40.59202,-74.683802,"",Raritan Valley Line
16,108,6,0,25.5,3.5,NORTH BRANCH,40.59202,-74.683802,"",Raritan Valley Line
11,109,8,0,60.0,,NORTH ELIZABETH,40.680265,-74.206165,"",North Jersey Coast Line
10,109,8,1,60.0,,NORTH ELIZABETH,40.680265,-74.206165,"",Northeast Corridor
11,109,6,1,44.9,15.6,NORTH ELIZABETH,40.680265,-74.206165,"",North Jersey Coast Line
11,109,6,0,34.6,11.3,NORTH ELIZABETH,40.680265,-74.206165,"",North Jersey Coast Line
10,109,6,1,49.2,18.3,NORTH ELIZABETH,40.680265,-74.206165,"",Northeast Corridor
10,109,6,0,53.6,21.5,NORTH ELIZABETH,40.680265,-74.206165,"",Northeast Corridor
11,109,16,1,61.0,5.2,NORTH ELIZABETH,40.680265,-74.206165,"",North Jersey Coast Line
11,109,16,0,59.0,,NORTH ELIZABETH,40.680265,-74.206165,"",North Jersey Coast Line
11,11,6,1,43.4,20.2,AVENEL,40.57762,-74.27753,"",North Jersey Coast Line
11,11,6,0,45.7,27.2,AVENEL,40.57762,-74.27753,"",North Jersey Coast Line
14,110,8,1,60.0,14.1,NEW BRIDGE LANDING,40.910856,-74.035044,"",Pascack Valley Line
14,110,8,0,58.2,4.0,NEW BRIDGE LANDING,40.910856,-74.035044,"",Pascack Valley Line
14,110,6,1,48.3,20.3,NEW BRIDGE LANDING,40.910856,-74.035044,"",Pascack Valley Line
14,110,6,0,44.8,27.3,NEW BRIDGE LANDING,40.910856,-74.035044,"",Pascack Valley Line
14,110,4,1,,,NEW BRIDGE LANDING,40.910856,-74.035044,"",Pascack Valley Line
14,110,13,1,,,NEW BRIDGE LANDING,40.910856,-74.035044,"",Pascack Valley Line
14,111,8,1,60.0,14.1,ORADELL,40.953478,-74.029983,"",Pascack Valley Line
14,111,8,0,58.2,4.0,ORADELL,40.953478,-74.029983,"",Pascack Valley Line
14,111,6,1,49.5,23.4,ORADELL,40.953478,-74.029983,"",Pascack Valley Line
14,111,6,0,35.5,23.2,ORADELL,40.953478,-74.029983,"",Pascack Valley Line
14,111,4,1,,,ORADELL,40.953478,-74.029983,"",Pascack Valley Line
14,111,13,1,,,ORADELL,40.953478,-74.029983,"",Pascack Valley Line
9,112,9,1,,,ORANGE,40.771883,-74.233103,"",Gladstone Branch
8,112,8,1,60.0,0.2,ORANGE,40.771883,-74.233103,"",Morris & Essex Line
8,112,8,0,59.5,1.8,ORANGE,40.771883,-74.233103,"",Morris & Essex Line
9,112,6,1,49.6,14.2,ORANGE,40.771883,-74.233103,"",Gladstone Branch
9,112,6,0,58.7,17.1,ORANGE,40.771883,-74.233103,"",Gladstone Branch
8,112,6,1,35.2,18.6,ORANGE,40.771883,-74.233103,"",Morris & Essex Line
8,112,6,0,41.4,15.1,ORANGE,40.771883,-74.233103,"",Morris & Essex Line
8,112,4,1,,,ORANGE,40.771883,-74.233103,"",Morris & Essex Line
8,112,15,1,,,ORANGE,40.771883,-74.233103,"",Morris & Essex Line
9,112,14,1,,,ORANGE,40.771883,-74.233103,"",Gladstone Branch
8,112,14,1,,,ORANGE,40.771883,-74.233103,"",Morris & Essex Line
8,112,13,1,44.0,,ORANGE,40.771883,-74.233103,"",Morris & Essex Line
14,114,8,1,60.0,14.1,PARK RIDGE,41.032305,-74.036164,"",Pascack Valley Line
14,114,8,0,58.5,6.4,PARK RIDGE,41.032305,-74.036164,"",Pascack Valley Line
14,114,6,1,46.2,21.1,PARK RIDGE,41.032305,-74.036164,"",Pascack Valley Line
14,114,6,0,35.6,23.1,PARK RIDGE,41.032305,-74.036164,"",Pascack Valley Line
14,114,4,1,,,PARK RIDGE,41.032305,-74.036164,"",Pascack Valley Line
14,114,13,1,,,PARK RIDGE,41.032305,-74.036164,"",Pascack Valley Line
7,115,8,0,,,PASSAIC,40.849413,-74.13393,"",Port Jervis Line
6,115,8,1,62.3,5.9,PASSAIC,40.849413,-74.13393,"",Main/Bergen County Line
6,115,8,0,60.2,1.3,PASSAIC,40.849413,-74.13393,"",Main/Bergen County Line
7,115,6,1,,,PASSAIC,40.849413,-74.13393,"",Port Jervis Line
7,115,6,0,,,PASSAIC,40.849413,-74.13393,"",Port Jervis Line
6,115,6,1,48.4,16.4,PASSAIC,40.849413,-74.13393,"",Main/Bergen County Line
6,115,6,0,47.7,19.4,PASSAIC,40.849413,-74.13393,"",Main/Bergen County Line
6,115,4,1,,,PASSAIC,40.849413,-74.13393,"",Main/Bergen County Line
6,115,13,1,,,PASSAIC,40.849413,-74.13393,"",Main/Bergen County Line
7,116,8,0,,,PATERSON,40.914887,-74.16733,"",Port Jervis Line
6,116,8,1,62.3,5.2,PATERSON,40.914887,-74.16733,"",Main/Bergen County Line
6,116,8,0,60.1,0.7,PATERSON,40.914887,-74.16733,"",Main/Bergen County Line
7,116,6,1,,,PATERSON,40.914887,-74.16733,"",Port Jervis Line
7,116,6,0,,,PATERSON,40.914887,-74.16733,"",Port Jervis Line
6,116,6,1,48.4,16.2,PATERSON,40.914887,-74.16733,"",Main/Bergen County Line
6,116,6,0,45.6,19.3,PATERSON,40.914887,-74.16733,"",Main/Bergen County Line
6,116,4,1,,,PATERSON,40.914887,-74.16733,"",Main/Bergen County Line
6,116,13,1,,,PATERSON,40.914887,-74.16733,"",Main/Bergen County Line
9,117,9,1,,,PEAPACK,40.708794,-74.658469,"",Gladstone Branch
9,117,8,1,58.6,5.2,PEAPACK,40.708794,-74.658469,"",Gladstone Branch
9,117,8,0,59.7,1.2,PEAPACK,40.708794,-74.658469,"",Gladstone Branch
9,117,6,1,42.2,16.8,PEAPACK,40.708794,-74.658469,"",Gladstone Branch
9,117,6,0,45.5,21.9,PEAPACK,40.708794,-74.658469,"",Gladstone Branch
9,117,14,1,,,PEAPACK,40.708794,-74.658469,"",Gladstone Branch
9,117,10,1,66.0,24.0,PEAPACK,40.708794,-74.658469,"",Gladstone Branch
9,117,10,0,,,PEAPACK,40.708794,-74.658469,"",Gladstone Branch
14,118,8,1,57.4,22.4,PEARL RIVER,41.058181,-74.022317,"",Pascack Valley Line
14,118,8,0,61.5,17.7,PEARL RIVER,41.058181,-74.022317,"",Pascack Valley Line
14,118,6,1,43.0,23.0,PEARL RIVER,41.058181,-74.022317,"",Pascack Valley Line
14,118,6,0,39.0,26.8,PEARL RIVER,41.058181,-74.022317,"",Pascack Valley Line
14,118,4,1,,,PEARL RIVER,41.058181,-74.022317,"",Pascack Valley Line
14,118,13,1,,,PEARL RIVER,41.058181,-74.022317,"",Pascack Valley Line
11,119,8,1,60.0,0.0,PERTH AMBOY,40.509398,-74.273752,"",North Jersey Coast Line
11,119,8,0,61.7,6.4,PERTH AMBOY,40.509398,-74.273752,"",North Jersey Coast Line
12,119,6,0,,,PERTH AMBOY,40.509398,-74.273752,"",North Jersey Coast Line
11,119,6,1,40.3,15.1,PERTH AMBOY,40.509398,-74.273752,"",North Jersey Coast Line
11,119,6,0,42.3,21.8,PERTH AMBOY,40.509398,-74.273752,"",North Jersey Coast Line
11,119,4,1,55.0,,PERTH AMBOY,40.509398,-74.273752,"",North Jersey Coast Line
11,119,4,0,,,PERTH AMBOY,40.509398,-74.273752,"",North Jersey Coast Line
11,119,17,1,60.0,0.0,PERTH AMBOY,40.509398,-74.273752,"",North Jersey Coast Line
11,119,17,0,60.0,0.0,PERTH AMBOY,40.509398,-74.273752,"",North Jersey Coast Line
12,119,16,1,,,PERTH AMBOY,40.509398,-74.273752,"",North Jersey Coast Line
11,119,16,1,60.8,4.3,PERTH AMBOY,40.509398,-74.273752,"",North Jersey Coast Line
11,119,16,0,55.6,15.4,PERTH AMBOY,40.509398,-74.273752,"",North Jersey Coast Line
11,119,13,1,55.0,,PERTH AMBOY,40.509398,-74.273752,"",North Jersey Coast Line
11,119,13,0,,,PERTH AMBOY,40.509398,-74.273752,"",North Jersey Coast Line
9,12,9,1,,,BASKING RIDGE,40.711378,-74.55527,"",Gladstone Branch
9,12,8,1,60.0,0.0,BASKING RIDGE,40.711378,-74.55527,"",Gladstone Branch
9,12,8,0,59.7,1.2,BASKING RIDGE,40.711378,-74.55527,"",Gladstone Branch
9,12,6,1,42.4,16.8,BASKING RIDGE,40.711378,-74.55527,"",Gladstone Branch
9,12,6,0,47.1,21.7,BASKING RIDGE,40.711378,-74.55527,"",Gladstone Branch
9,12,14,1,,,BASKING RIDGE,40.711378,-74.55527,"",Gladstone Branch
9,12,10,1,65.5,23.3,BASKING RIDGE,40.711378,-74.55527,"",Gladstone Branch
9,12,10,0,,,BASKING RIDGE,40.711378,-74.55527,"",Gladstone Branch
16,120,9,1,,,PLAINFIELD,40.618425,-74.420163,"",Raritan Valley Line
16,120,8,1,60.0,1.0,PLAINFIELD,40.618425,-74.420163,"",Raritan Valley Line
16,120,8,0,61.4,5.4,PLAINFIELD,40.618425,-74.420163,"",Raritan Valley Line
16,120,6,1,44.3,20.1,PLAINFIELD,40.618425,-74.420163,"",Raritan Valley Line
16,120,6,0,46.7,17.9,PLAINFIELD,40.618425,-74.420163,"",Raritan Valley Line
16,120,14,1,,,PLAINFIELD,40.618425,-74.420163,"",Raritan Valley Line
6,121,8,1,60.6,4.7,PLAUDERVILLE,40.886988,-74.102235,"",Main/Bergen County Line
6,121,8,0,62.6,3.6,PLAUDERVILLE,40.886988,-74.102235,"",Main/Bergen County Line
7,121,6,0,,,PLAUDERVILLE,40.886988,-74.102235,"",Port Jervis Line
6,121,6,1,51.6,15.9,PLAUDERVILLE,40.886988,-74.102235,"",Main/Bergen County Line
6,121,6,0,40.0,14.9,PLAUDERVILLE,40.886988,-74.102235,"",Main/Bergen County Line
7,121,4,1,,,PLAUDERVILLE,40.886988,-74.102235,"",Port Jervis Line
7,121,13,1,,,PLAUDERVILLE,40.886988,-74.102235,"",Port Jervis Line
12,122,9,1,53.0,,POINT PLEASANT,40.092718,-74.048191,"",North Jersey Coast Line
12,122,8,1,60.0,0.0,POINT PLEASANT,40.092718,-74.048191,"",North Jersey Coast Line
12,122,8,0,60.0,0.0,POINT PLEASANT,40.092718,-74.048191,"",North Jersey Coast Line
12,122,6,1,52.1,19.4,POINT PLEASANT,40.092718,-74.048191,"",North Jersey Coast Line
12,122,6,0,49.1,17.4,POINT PLEASANT,40.092718,-74.048191,"",North Jersey Coast Line
12,122,4,1,,,POINT PLEASANT,40.092718,-74.048191,"",North Jersey Coast Line
12,122,20,1,,,POINT PLEASANT,40.092718,-74.048191,"",North Jersey Coast Line
12,122,19,1,,,POINT PLEASANT,40.092718,-74.048191,"",North Jersey Coast Line
12,122,19,0,,,POINT PLEASANT,40.092718,-74.048191,"",North Jersey Coast Line
12,122,16,1,35.0,,POINT PLEASANT,40.092718,-74.048191,"",North Jersey Coast Line
12,122,16,0,,,POINT PLEASANT,40.092718,-74.048191,"",North Jersey Coast Line
12,122,15,1,,,POINT PLEASANT,40.092718,-74.048191,"",North Jersey Coast Line
12,122,14,1,52.0,,POINT PLEASANT,40.092718,-74.048191,"",North Jersey Coast Line
12,122,13,1,,,POINT PLEASANT,40.092718,-74.048191,"",North Jersey Coast Line
15,124,8,1,32.9,13.8,PRINCETON,40.342625,-74.659091,"",Princeton Shuttle
15,124,8,0,30.8,8.0,PRINCETON,40.342625,-74.659091,"",Princeton Shuttle
15,124,6,1,30.6,9.6,PRINCETON,40.342625,-74.659091,"",Princeton Shuttle
15,124,6,0,30.6,8.9,PRINCETON,40.342625,-74.659091,"",Princeton Shuttle
15,124,10,1,26.0,,PRINCETON,40.342625,-74.659091,"",Princeton Shuttle
15,124,10,0,26.0,,PRINCETON,40.342625,-74.659091,"",Princeton Shuttle
15,125,8,1,32.9,13.8,PRINCETON JCT.,40.316316,-74.623753,"",Princeton Shuttle
15,125,8,0,30.8,8.0,PRINCETON JCT.,40.316316,-74.623753,"",Princeton Shuttle
10,125,8,1,38.7,15.1,PRINCETON JCT.,40.316316,-74.623753,"",Northeast Corridor
10,125,8,0,38.0,13.3,PRINCETON JCT.,40.316316,-74.623753,"",Northeast Corridor
15,125,6,1,30.6,9.6,PRINCETON JCT.,40.316316,-74.623753,"",Princeton Shuttle
15,125,6,0,30.6,8.9,PRINCETON JCT.,40.316316,-74.623753,"",Princeton Shuttle
10,125,6,1,23.1,10.5,PRINCETON JCT.,40.316316,-74.623753,"",Northeast Corridor
10,125,6,0,25.0,13.3,PRINCETON JCT.,40.316316,-74.623753,"",Northeast Corridor
10,125,4,1,42.0,,PRINCETON JCT.,40.316316,-74.623753,"",Northeast Corridor
10,125,4,0,,,PRINCETON JCT.,40.316316,-74.623753,"",Northeast Corridor
10,125,13,1,,,PRINCETON JCT.,40.316316,-74.623753,"",Northeast Corridor
10,125,13,0,,,PRINCETON JCT.,40.316316,-74.623753,"",Northeast Corridor
15,125,10,1,26.0,,PRINCETON JCT.,40.316316,-74.623753,"",Princeton Shuttle
15,125,10,0,26.0,,PRINCETON JCT.,40.316316,-74.623753,"",Princeton Shuttle
7,126,8,1,,,RADBURN,40.939916,-74.121614,"",Port Jervis Line
7,126,8,0,,,RADBURN,40.939916,-74.121614,"",Port Jervis Line
6,126,8,1,60.6,3.9,RADBURN,40.939916,-74.121614,"",Main/Bergen County Line
6,126,8,0,62.4,3.7,RADBURN,40.939916,-74.121614,"",Main/Bergen County Line
7,126,6,1,,,RADBURN,40.939916,-74.121614,"",Port Jervis Line
7,126,6,0,,,RADBURN,40.939916,-74.121614,"",Port Jervis Line
6,126,6,1,43.0,22.7,RADBURN,40.939916,-74.121614,"",Main/Bergen County Line
6,126,6,0,34.0,18.9,RADBURN,40.939916,-74.121614,"",Main/Bergen County Line
7,126,4,1,,,RADBURN,40.939916,-74.121614,"",Port Jervis Line
7,126,13,1,,,RADBURN,40.939916,-74.121614,"",Port Jervis Line
11,127,8,1,60.0,0.3,RAHWAY,40.606338,-74.276692,"",North Jersey Coast Line
11,127,8,0,61.7,6.6,RAHWAY,40.606338,-74.276692,"",North Jersey Coast Line
10,127,8,1,46.8,16.4,RAHWAY,40.606338,-74.276692,"",Northeast Corridor
10,127,8,0,49.5,20.2,RAHWAY,40.606338,-74.276692,"",Northeast Corridor
11,127,6,1,42.9,12.8,RAHWAY,40.606338,-74.276692,"",North Jersey Coast Line
11,127,6,0,49.1,17.2,RAHWAY,40.606338,-74.276692,"",North Jersey Coast Line
10,127,6,1,29.3,11.4,RAHWAY,40.606338,-74.276692,"",Northeast Corridor
10,127,6,0,40.0,14.0,RAHWAY,40.606338,-74.276692,"",Northeast Corridor
11,127,4,1,55.0,,RAHWAY,40.606338,-74.276692,"",North Jersey Coast Line
11,127,4,0,,,RAHWAY,40.606338,-74.276692,"",North Jersey Coast Line
10,127,4,1,39.0,,RAHWAY,40.606338,-74.276692,"",Northeast Corridor
10,127,4,0,,,RAHWAY,40.606338,-74.276692,"",Northeast Corridor
11,127,17,1,60.0,0.5,RAHWAY,40.606338,-74.276692,"",North Jersey Coast Line
11,127,17,0,60.0,0.0,RAHWAY,40.606338,-74.276692,"",North Jersey Coast Line
11,127,16,1,60.8,4.3,RAHWAY,40.606338,-74.276692,"",North Jersey Coast Line
11,127,16,0,58.4,2.3,RAHWAY,40.606338,-74.276692,"",North Jersey Coast Line
11,127,13,1,55.0,,RAHWAY,40.606338,-74.276692,"",North Jersey Coast Line
11,127,13,0,,,RAHWAY,40.606338,-74.276692,"",North Jersey Coast Line
10,127,13,1,,,RAHWAY,40.606338,-74.276692,"",Northeast Corridor
10,127,13,0,,,RAHWAY,40.606338,-74.276692,"",Northeast Corridor
7,128,8,1,,,RAMSEY,41.056422,-74.141877,"",Port Jervis Line
7,128,8,0,,,RAMSEY,41.056422,-74.141877,"",Port Jervis Line
6,128,8,1,62.5,5.0,RAMSEY,41.056422,-74.141877,"",Main/Bergen County Line
6,128,8,0,60.0,0.0,RAMSEY,41.056422,-74.141877,"",Main/Bergen County Line
7,128,6,1,,,RAMSEY,41.056422,-74.141877,"",Port Jervis Line
7,128,6,0,,,RAMSEY,41.056422,-74.141877,"",Port Jervis Line
6,128,6,1,37.9,15.5,RAMSEY,41.056422,-74.141877,"",Main/Bergen County Line
6,128,6,0,36.5,17.9,RAMSEY,41.056422,-74.141877,"",Main/Bergen County Line
7,128,4,1,,,RAMSEY,41.056422,-74.141877,"",Port Jervis Line
6,128,4,1,,,RAMSEY,41.056422,-74.141877,"",Main/Bergen County Line
7,128,13,1,,,RAMSEY,41.056422,-74.141877,"",Port Jervis Line
6,128,13,1,,,RAMSEY,41.056422,-74.141877,"",Main/Bergen County Line
16,129,9,1,,,RARITAN,40.571007,-74.634364,"",Raritan Valley Line
16,129,8,1,60.0,1.0,RARITAN,40.571007,-74.634364,"",Raritan Valley Line
16,129,8,0,61.4,5.4,RARITAN,40.571007,-74.634364,"",Raritan Valley Line
16,129,6,1,44.3,21.6,RARITAN,40.571007,-74.634364,"",Raritan Valley Line
16,129,6,0,42.8,22.6,RARITAN,40.571007,-74.634364,"",Raritan Valley Line
16,129,14,1,,,RARITAN,40.571007,-74.634364,"",Raritan Valley Line
12,13,9,1,54.0,,BAY HEAD,40.07584,-74.046934,"",North Jersey Coast Line
12,13,8,1,60.0,0.0,BAY HEAD,40.07584,-74.046934,"",North Jersey Coast Line
12,13,8,0,60.0,0.0,BAY HEAD,40.07584,-74.046934,"",North Jersey Coast Line
12,13,6,1,53.3,22.5,BAY HEAD,40.07584,-74.046934,"",North Jersey Coast Line
12,13,6,0,49.0,17.5,BAY HEAD,40.07584,-74.046934,"",North Jersey Coast Line
12,13,4,1,,,BAY HEAD,40.07584,-74.046934,"",North Jersey Coast Line
12,13,20,1,,,BAY HEAD,40.07584,-74.046934,"",North Jersey Coast Line
12,13,19,1,,,BAY HEAD,40.07584,-74.046934,"",North Jersey Coast Line
12,13,19,0,,,BAY HEAD,40.07584,-74.046934,"",North Jersey Coast Line
12,13,16,1,30.0,,BAY HEAD,40.07584,-74.046934,"",North Jersey Coast Line
12,13,16,0,,,BAY HEAD,40.07584,-74.046934,"",North Jersey Coast Line
12,13,15,1,,,BAY HEAD,40.07584,-74.046934,"",North Jersey Coast Line
12,13,14,1,53.0,,BAY HEAD,40.07584,-74.046934,"",North Jersey Coast Line
12,13,13,1,,,BAY HEAD,40.07584,-74.046934,"",North Jersey Coast Line
11,130,8,1,60.0,0.0,RED BANK,40.348284,-74.074538,"",North Jersey Coast Line
11,130,8,0,61.7,6.4,RED BANK,40.348284,-74.074538,"",North Jersey Coast Line
12,130,6,1,34.0,,RED BANK,40.348284,-74.074538,"",North Jersey Coast Line
12,130,6,0,47.3,17.9,RED BANK,40.348284,-74.074538,"",North Jersey Coast Line
11,130,6,1,41.5,15.7,RED BANK,40.348284,-74.074538,"",North Jersey Coast Line
11,130,6,0,39.4,20.6,RED BANK,40.348284,-74.074538,"",North Jersey Coast Line
11,130,4,1,55.0,,RED BANK,40.348284,-74.074538,"",North Jersey Coast Line
11,130,4,0,,,RED BANK,40.348284,-74.074538,"",North Jersey Coast Line
11,130,18,1,,,RED BANK,40.348284,-74.074538,"",North Jersey Coast Line
11,130,17,1,60.0,0.0,RED BANK,40.348284,-74.074538,"",North Jersey Coast Line
11,130,17,0,60.0,0.0,RED BANK,40.348284,-74.074538,"",North Jersey Coast Line
12,130,16,1,31.0,,RED BANK,40.348284,-74.074538,"",North Jersey Coast Line
12,130,16,0,,,RED BANK,40.348284,-74.074538,"",North Jersey Coast Line
11,130,16,1,57.6,8.5,RED BANK,40.348284,-74.074538,"",North Jersey Coast Line
11,130,16,0,49.4,12.8,RED BANK,40.348284,-74.074538,"",North Jersey Coast Line
11,130,13,1,55.0,,RED BANK,40.348284,-74.074538,"",North Jersey Coast Line
11,130,13,0,,,RED BANK,40.348284,-74.074538,"",North Jersey Coast Line
7,131,8,1,,,RIDGEWOOD,40.980629,-74.120592,"",Port Jervis Line
7,131,8,0,,,RIDGEWOOD,40.980629,-74.120592,"",Port Jervis Line
6,131,8,1,41.6,22.3,RIDGEWOOD,40.980629,-74.120592,"",Main/Bergen County Line
6,131,8,0,32.2,23.1,RIDGEWOOD,40.980629,-74.120592,"",Main/Bergen County Line
7,131,6,1,,,RIDGEWOOD,40.980629,-74.120592,"",Port Jervis Line
7,131,6,0,,,RIDGEWOOD,40.980629,-74.120592,"",Port Jervis Line
6,131,6,1,24.7,19.1,RIDGEWOOD,40.980629,-74.120592,"",Main/Bergen County Line
6,131,6,0,25.1,17.5,RIDGEWOOD,40.980629,-74.120592,"",Main/Bergen County Line
7,131,4,1,,,RIDGEWOOD,40.980629,-74.120592,"",Port Jervis Line
6,131,4,1,,,RIDGEWOOD,40.980629,-74.120592,"",Main/Bergen County Line
7,131,13,1,,,RIDGEWOOD,40.980629,-74.120592,"",Port Jervis Line
6,131,13,1,,,RIDGEWOOD,40.980629,-74.120592,"",Main/Bergen County Line
14,132,8,1,60.0,14.1,RIVER EDGE,40.935146,-74.02914,"",Pascack Valley Line
14,132,8,0,58.2,4.0,RIVER EDGE,40.935146,-74.02914,"",Pascack Valley Line
14,132,6,1,46.3,21.0,RIVER EDGE,40.935146,-74.02914,"",Pascack Valley Line
14,132,6,0,35.5,23.2,RIVER EDGE,40.935146,-74.02914,"",Pascack Valley Line
14,132,4,1,,,RIVER EDGE,40.935146,-74.02914,"",Pascack Valley Line
14,132,13,1,,,RIVER EDGE,40.935146,-74.02914,"",Pascack Valley Line
7,134,8,1,,,RUTHERFORD,40.828248,-74.100563,"",Port Jervis Line
7,134,8,0,,,RUTHERFORD,40.828248,-74.100563,"",Port Jervis Line
6,134,8,1,60.5,4.2,RUTHERFORD,40.828248,-74.100563,"",Main/Bergen County Line
6,134,8,0,62.6,3.7,RUTHERFORD,40.828248,-74.100563,"",Main/Bergen County Line
7,134,6,1,,,RUTHERFORD,40.828248,-74.100563,"",Port Jervis Line
7,134,6,0,,,RUTHERFORD,40.828248,-74.100563,"",Port Jervis Line
6,134,6,1,51.4,15.9,RUTHERFORD,40.828248,-74.100563,"",Main/Bergen County Line
6,134,6,0,40.8,15.7,RUTHERFORD,40.828248,-74.100563,"",Main/Bergen County Line
7,134,4,1,,,RUTHERFORD,40.828248,-74.100563,"",Port Jervis Line
7,134,13,1,,,RUTHERFORD,40.828248,-74.100563,"",Port Jervis Line
9,136,9,1,,,SHORT HILLS,40.725249,-74.323754,"",Gladstone Branch
8,136,8,1,60.0,0.0,SHORT HILLS,40.725249,-74.323754,"",Morris & Essex Line
8,136,8,0,59.5,2.0,SHORT HILLS,40.725249,-74.323754,"",Morris & Essex Line
9,136,6,1,49.7,18.4,SHORT HILLS,40.725249,-74.323754,"",Gladstone Branch
9,136,6,0,53.6,17.6,SHORT HILLS,40.725249,-74.323754,"",Gladstone Branch
8,136,6,1,33.1,17.4,SHORT HILLS,40.725249,-74.323754,"",Morris & Essex Line
8,136,6,0,35.7,18.8,SHORT HILLS,40.725249,-74.323754,"",Morris & Essex Line
8,136,4,1,,,SHORT HILLS,40.725249,-74.323754,"",Morris & Essex Line
8,136,15,1,,,SHORT HILLS,40.725249,-74.323754,"",Morris & Essex Line
9,136,14,1,,,SHORT HILLS,40.725249,-74.323754,"",Gladstone Branch
8,136,14,1,,,SHORT HILLS,40.725249,-74.323754,"",Morris & Essex Line
8,136,13,1,45.0,,SHORT HILLS,40.725249,-74.323754,"",Morris & Essex Line
16,138,9,1,,,SOMERVILLE,40.566075,-74.61397,"",Raritan Valley Line
16,138,8,1,60.0,1.0,SOMERVILLE,40.566075,-74.61397,"",Raritan Valley Line
16,138,8,0,61.4,5.4,SOMERVILLE,40.566075,-74.61397,"",Raritan Valley Line
16,138,6,1,44.3,20.1,SOMERVILLE,40.566075,-74.61397,"",Raritan Valley Line
16,138,6,0,42.8,22.6,SOMERVILLE,40.566075,-74.61397,"",Raritan Valley Line
16,138,14,1,,,SOMERVILLE,40.566075,-74.61397,"",Raritan Valley Line
11,139,8,1,60.0,0.0,SOUTH AMBOY,40.484308,-74.28014,"",North Jersey Coast Line
11,139,8,0,61.7,6.4,SOUTH AMBOY,40.484308,-74.28014,"",North Jersey Coast Line
12,139,6,1,34.0,,SOUTH AMBOY,40.484308,-74.28014,"",North Jersey Coast Line
12,139,6,0,34.0,,SOUTH AMBOY,40.484308,-74.28014,"",North Jersey Coast Line
11,139,6,1,28.9,17.7,SOUTH AMBOY,40.484308,-74.28014,"",North Jersey Coast Line
11,139,6,0,36.0,21.6,SOUTH AMBOY,40.484308,-74.28014,"",North Jersey Coast Line
11,139,4,1,55.0,,SOUTH AMBOY,40.484308,-74.28014,"",North Jersey Coast Line
11,139,4,0,,,SOUTH AMBOY,40.484308,-74.28014,"",North Jersey Coast Line
11,139,18,1,,,SOUTH AMBOY,40.484308,-74.28014,"",North Jersey Coast Line
11,139,17,1,60.0,0.0,SOUTH AMBOY,40.484308,-74.28014,"",North Jersey Coast Line
11,139,17,0,60.0,0.0,SOUTH AMBOY,40.484308,-74.28014,"",North Jersey Coast Line
12,139,16,1,,,SOUTH AMBOY,40.484308,-74.28014,"",North Jersey Coast Line
11,139,16,1,57.6,8.5,SOUTH AMBOY,40.484308,-74.28014,"",North Jersey Coast Line
11,139,16,0,49.4,12.6,SOUTH AMBOY,40.484308,-74.28014,"",North Jersey Coast Line
11,139,13,1,55.0,,SOUTH AMBOY,40.484308,-74.28014,"",North Jersey Coast Line
11,139,13,0,,,SOUTH AMBOY,40.484308,-74.28014,"",North Jersey Coast Line
4,14,8,1,,,BAY STREET,40.808178,-74.208681,"",Montclair-Boonton Line
4,14,8,0,,,BAY STREET,40.808178,-74.208681,"",Montclair-Boonton Line
4,14,6,1,46.3,16.5,BAY STREET,40.808178,-74.208681,"",Montclair-Boonton Line
4,14,6,0,45.8,20.4,BAY STREET,40.808178,-74.208681,"",Montclair-Boonton Line
3,14,6,1,54.0,18.3,BAY STREET,40.808178,-74.208681,"",Montclair-Boonton Line
3,14,6,0,47.5,24.1,BAY STREET,40.808178,-74.208681,"",Montclair-Boonton Line
4,14,10,1,,,BAY STREET,40.808178,-74.208681,"",Montclair-Boonton Line
4,14,10,0,,,BAY STREET,40.808178,-74.208681,"",Montclair-Boonton Line
9,140,9,1,,,SOUTH ORANGE,40.745952,-74.260538,"",Gladstone Branch
8,140,9,0,,,SOUTH ORANGE,40.745952,-74.260538,"",Morris & Essex Line
8,140,8,1,60.0,0.0,SOUTH ORANGE,40.745952,-74.260538,"",Morris & Essex Line
8,140,8,0,59.5,1.8,SOUTH ORANGE,40.745952,-74.260538,"",Morris & Essex Line
9,140,6,1,47.3,18.4,SOUTH ORANGE,40.745952,-74.260538,"",Gladstone Branch
9,140,6,0,67.0,13.1,SOUTH ORANGE,40.745952,-74.260538,"",Gladstone Branch
8,140,6,1,32.2,17.4,SOUTH ORANGE,40.745952,-74.260538,"",Morris & Essex Line
8,140,6,0,30.4,17.8,SOUTH ORANGE,40.745952,-74.260538,"",Morris & Essex Line
8,140,4,1,,,SOUTH ORANGE,40.745952,-74.260538,"",Morris & Essex Line
8,140,15,1,,,SOUTH ORANGE,40.745952,-74.260538,"",Morris & Essex Line
9,140,14,1,,,SOUTH ORANGE,40.745952,-74.260538,"",Gladstone Branch
8,140,14,1,,,SOUTH ORANGE,40.745952,-74.260538,"",Morris & Essex Line
8,140,14,0,,,SOUTH ORANGE,40.745952,-74.260538,"",Morris & Essex Line
8,140,13,1,45.0,,SOUTH ORANGE,40.745952,-74.260538,"",Morris & Essex Line
12,141,9,1,53.0,,SPRING LAKE,40.150557,-74.035481,"",North Jersey Coast Line
12,141,8,1,60.0,0.0,SPRING LAKE,40.150557,-74.035481,"",North Jersey Coast Line
12,141,8,0,60.0,0.0,SPRING LAKE,40.150557,-74.035481,"",North Jersey Coast Line
12,141,6,1,52.1,19.5,SPRING LAKE,40.150557,-74.035481,"",North Jersey Coast Line
12,141,6,0,49.0,17.5,SPRING LAKE,40.150557,-74.035481,"",North Jersey Coast Line
12,141,4,1,,,SPRING LAKE,40.150557,-74.035481,"",North Jersey Coast Line
12,141,20,1,,,SPRING LAKE,40.150557,-74.035481,"",North Jersey Coast Line
12,141,19,1,,,SPRING LAKE,40.150557,-74.035481,"",North Jersey Coast Line
12,141,19,0,,,SPRING LAKE,40.150557,-74.035481,"",North Jersey Coast Line
12,141,16,1,31.0,,SPRING LAKE,40.150557,-74.035481,"",North Jersey Coast Line
12,141,16,0,,,SPRING LAKE,40.150557,-74.035481,"",North Jersey Coast Line
12,141,15,1,,,SPRING LAKE,40.150557,-74.035481,"",North Jersey Coast Line
12,141,14,1,52.0,,SPRING LAKE,40.150557,-74.035481,"",North Jersey Coast Line
12,141,13,1,,,SPRING LAKE,40.150557,-74.035481,"",North Jersey Coast Line
14,142,8,1,58.4,21.9,SPRING VALLEY,41.111978,-74.043991,"",Pascack Valley Line
14,142,8,0,62.2,17.3,SPRING VALLEY,41.111978,-74.043991,"",Pascack Valley Line
14,142,6,1,46.1,24.7,SPRING VALLEY,41.111978,-74.043991,"",Pascack Valley Line
14,142,6,0,39.0,26.5,SPRING VALLEY,41.111978,-74.043991,"",Pascack Valley Line
14,142,4,1,,,SPRING VALLEY,41.111978,-74.043991,"",Pascack Valley Line
14,142,13,1,,,SPRING VALLEY,41.111978,-74.043991,"",Pascack Valley Line
9,143,9,1,,,STIRLING,40.674581,-74.493723,"",Gladstone Branch
9,143,8,1,60.0,0.0,STIRLING,40.674581,-74.493723,"",Gladstone Branch
9,143,8,0,59.8,0.4,STIRLING,40.674581,-74.493723,"",Gladstone Branch
9,143,6,1,42.9,17.2,STIRLING,40.674581,-74.493723,"",Gladstone Branch
9,143,6,0,47.1,21.6,STIRLING,40.674581,-74.493723,"",Gladstone Branch
9,143,14,1,,,STIRLING,40.674581,-74.493723,"",Gladstone Branch
9,143,10,1,65.5,23.3,STIRLING,40.674581,-74.493723,"",Gladstone Branch
9,143,10,0,,,STIRLING,40.674581,-74.493723,"",Gladstone Branch
7,144,8,1,,,SUFFERN,41.11354,-74.153442,"",Port Jervis Line
7,144,8,0,,,SUFFERN,41.11354,-74.153442,"",Port Jervis Line
6,144,8,1,62.7,5.3,SUFFERN,41.11354,-74.153442,"",Main/Bergen County Line
6,144,8,0,60.0,0.0,SUFFERN,41.11354,-74.153442,"",Main/Bergen County Line
7,144,6,1,,,SUFFERN,41.11354,-74.153442,"",Port Jervis Line
7,144,6,0,,,SUFFERN,41.11354,-74.153442,"",Port Jervis Line
6,144,6,1,37.3,16.6,SUFFERN,41.11354,-74.153442,"",Main/Bergen County Line
6,144,6,0,32.7,18.1,SUFFERN,41.11354,-74.153442,"",Main/Bergen County Line
7,144,4,1,,,SUFFERN,41.11354,-74.153442,"",Port Jervis Line
6,144,4,1,,,SUFFERN,41.11354,-74.153442,"",Main/Bergen County Line
7,144,13,1,,,SUFFERN,41.11354,-74.153442,"",Port Jervis Line
6,144,13,1,,,SUFFERN,41.11354,-74.153442,"",Main/Bergen County Line
9,145,9,1,,,SUMMIT,40.716549,-74.357807,"",Gladstone Branch
8,145,9,0,,,SUMMIT,40.716549,-74.357807,"",Morris & Essex Line
9,145,8,1,60.0,0.0,SUMMIT,40.716549,-74.357807,"",Gladstone Branch
9,145,8,0,60.0,0.0,SUMMIT,40.716549,-74.357807,"",Gladstone Branch
8,145,8,1,60.0,0.0,SUMMIT,40.716549,-74.357807,"",Morris & Essex Line
8,145,8,0,59.5,2.0,SUMMIT,40.716549,-74.357807,"",Morris & Essex Line
9,145,6,1,41.3,19.2,SUMMIT,40.716549,-74.357807,"",Gladstone Branch
9,145,6,0,51.6,21.2,SUMMIT,40.716549,-74.357807,"",Gladstone Branch
8,145,6,1,25.6,16.7,SUMMIT,40.716549,-74.357807,"",Morris & Essex Line
8,145,6,0,26.2,17.0,SUMMIT,40.716549,-74.357807,"",Morris & Essex Line
8,145,4,1,,,SUMMIT,40.716549,-74.357807,"",Morris & Essex Line
8,145,15,1,,,SUMMIT,40.716549,-74.357807,"",Morris & Essex Line
9,145,14,1,,,SUMMIT,40.716549,-74.357807,"",Gladstone Branch
8,145,14,1,,,SUMMIT,40.716549,-74.357807,"",Morris & Essex Line
8,145,14,0,,,SUMMIT,40.716549,-74.357807,"",Morris & Essex Line
8,145,13,1,45.0,,SUMMIT,40.716549,-74.357807,"",Morris & Essex Line
9,145,10,1,65.5,23.3,SUMMIT,40.716549,-74.357807,"",Gladstone Branch
9,145,10,0,,,SUMMIT,40.716549,-74.357807,"",Gladstone Branch
14,146,6,1,45.5,19.5,TETERBORO,40.864858,-74.062676,"",Pascack Valley Line
14,146,6,0,39.1,23.2,TETERBORO,40.864858,-74.062676,"",Pascack Valley Line
14,146,4,1,,,TETERBORO,40.864858,-74.062676,"",Pascack Valley Line
14,146,13,1,,,TETERBORO,40.864858,-74.062676,"",Pascack Valley Line
3,147,6,1,54.2,17.7,TOWACO,40.922809,-74.343842,"",Montclair-Boonton Line
3,147,6,0,47.0,24.4,TOWACO,40.922809,-74.343842,"",Montclair-Boonton Line
10,148,8,1,38.8,15.1,TRENTON TRANSIT CENTER,40.218515,-74.753926,"",Northeast Corridor
10,148,8,0,38.0,13.3,TRENTON TRANSIT CENTER,40.218515,-74.753926,"",Northeast Corridor
10,148,6,1,23.1,10.4,TRENTON TRANSIT CENTER,40.218515,-74.753926,"",Northeast Corridor
10,148,6,0,25.0,13.3,TRENTON TRANSIT CENTER,40.218515,-74.753926,"",Northeast Corridor
10,148,4,1,35.0,,TRENTON TRANSIT CENTER,40.218515,-74.753926,"",Northeast Corridor
10,148,4,0,,,TRENTON TRANSIT CENTER,40.218515,-74.753926,"",Northeast Corridor
10,148,13,1,,,TRENTON TRANSIT CENTER,40.218515,-74.753926,"",Northeast Corridor
10,148,13,0,,,TRENTON TRANSIT CENTER,40.218515,-74.753926,"",Northeast Corridor
12,15,9,1,53.0,,BELMAR,40.18059,-74.027301,"",North Jersey Coast Line
12,15,8,1,60.0,0.0,BELMAR,40.18059,-74.027301,"",North Jersey Coast Line
12,15,8,0,60.0,0.0,BELMAR,40.18059,-74.027301,"",North Jersey Coast Line
12,15,6,1,52.1,19.5,BELMAR,40.18059,-74.027301,"",North Jersey Coast Line
12,15,6,0,49.0,17.5,BELMAR,40.18059,-74.027301,"",North Jersey Coast Line
12,15,4,1,,,BELMAR,40.18059,-74.027301,"",North Jersey Coast Line
12,15,20,1,,,BELMAR,40.18059,-74.027301,"",North Jersey Coast Line
12,15,19,1,,,BELMAR,40.18059,-74.027301,"",North Jersey Coast Line
12,15,19,0,,,BELMAR,40.18059,-74.027301,"",North Jersey Coast Line
12,15,16,1,30.0,,BELMAR,40.18059,-74.027301,"",North Jersey Coast Line
12,15,16,0,,,BELMAR,40.18059,-74.027301,"",North Jersey Coast Line
12,15,15,1,,,BELMAR,40.18059,-74.027301,"",North Jersey Coast Line
12,15,14,1,52.0,,BELMAR,40.18059,-74.027301,"",North Jersey Coast Line
12,15,13,1,,,BELMAR,40.18059,-74.027301,"",North Jersey Coast Line
4,150,6,1,48.2,15.5,UPPER MONTCLAIR,40.842004,-74.209368,"",Montclair-Boonton Line
4,150,6,0,46.8,20.2,UPPER MONTCLAIR,40.842004,-74.209368,"",Montclair-Boonton Line
3,150,6,1,66.5,6.3,UPPER MONTCLAIR,40.842004,-74.209368,"",Montclair-Boonton Line
3,150,6,0,81.0,,UPPER MONTCLAIR,40.842004,-74.209368,"",Montclair-Boonton Line
7,151,8,1,,,WALDWICK,41.012734,-74.123412,"",Port Jervis Line
7,151,8,0,,,WALDWICK,41.012734,-74.123412,"",Port Jervis Line
6,151,8,1,41.5,22.5,WALDWICK,41.012734,-74.123412,"",Main/Bergen County Line
6,151,8,0,32.2,23.0,WALDWICK,41.012734,-74.123412,"",Main/Bergen County Line
7,151,6,1,,,WALDWICK,41.012734,-74.123412,"",Port Jervis Line
7,151,6,0,,,WALDWICK,41.012734,-74.123412,"",Port Jervis Line
6,151,6,1,26.9,19.8,WALDWICK,41.012734,-74.123412,"",Main/Bergen County Line
6,151,6,0,27.6,18.5,WALDWICK,41.012734,-74.123412,"",Main/Bergen County Line
7,151,4,1,,,WALDWICK,41.012734,-74.123412,"",Port Jervis Line
6,151,4,1,,,WALDWICK,41.012734,-74.123412,"",Main/Bergen County Line
7,151,13,1,,,WALDWICK,41.012734,-74.123412,"",Port Jervis Line
6,151,13,1,,,WALDWICK,41.012734,-74.123412,"",Main/Bergen County Line
4,152,6,1,48.2,15.7,WALNUT STREET,40.817218,-74.20963,"",Montclair-Boonton Line
4,152,6,0,45.8,20.3,WALNUT STREET,40.817218,-74.20963,"",Montclair-Boonton Line
3,152,6,1,63.0,19.1,WALNUT STREET,40.817218,-74.20963,"",Montclair-Boonton Line
3,152,6,0,81.0,,WALNUT STREET,40.817218,-74.20963,"",Montclair-Boonton Line
4,153,6,1,48.2,15.5,WATCHUNG AVENUE,40.829516,-74.206934,"",Montclair-Boonton Line
4,153,6,0,49.0,18.5,WATCHUNG AVENUE,40.829516,-74.206934,"",Montclair-Boonton Line
3,153,6,1,62.7,18.8,WATCHUNG AVENUE,40.829516,-74.206934,"",Montclair-Boonton Line
3,153,6,0,63.3,31.4,WATCHUNG AVENUE,40.829516,-74.206934,"",Montclair-Boonton Line
4,154,8,1,,,WATSESSING AVENUE,40.782743,-74.198451,"",Montclair-Boonton Line
4,154,8,0,,,WATSESSING AVENUE,40.782743,-74.198451,"",Montclair-Boonton Line
4,154,6,1,47.1,16.8,WATSESSING AVENUE,40.782743,-74.198451,"",Montclair-Boonton Line
4,154,6,0,45.3,20.1,WATSESSING AVENUE,40.782743,-74.198451,"",Montclair-Boonton Line
3,154,6,1,70.0,,WATSESSING AVENUE,40.782743,-74.198451,"",Montclair-Boonton Line
3,154,6,0,,,WATSESSING AVENUE,40.782743,-74.198451,"",Montclair-Boonton Line
4,154,10,1,,,WATSESSING AVENUE,40.782743,-74.198451,"",Montclair-Boonton Line
4,154,10,0,,,WATSESSING AVENUE,40.782743,-74.198451,"",Montclair-Boonton Line
16,155,9,1,,,WESTFIELD,40.649448,-74.347629,"",Raritan Valley Line
16,155,8,1,60.0,1.0,WESTFIELD,40.649448,-74.347629,"",Raritan Valley Line
16,155,8,0,61.3,5.1,WESTFIELD,40.649448,-74.347629,"",Raritan Valley Line
16,155,6,1,44.4,20.0,WESTFIELD,40.649448,-74.347629,"",Raritan Valley Line
16,155,6,0,44.7,19.4,WESTFIELD,40.649448,-74.347629,"",Raritan Valley Line
16,155,14,1,,,WESTFIELD,40.649448,-74.347629,"",Raritan Valley Line
14,156,8,1,60.0,14.1,WESTWOOD,40.990817,-74.032696,"",Pascack Valley Line
14,156,8,0,57.0,4.2,WESTWOOD,40.990817,-74.032696,"",Pascack Valley Line
14,156,6,1,46.1,21.0,WESTWOOD,40.990817,-74.032696,"",Pascack Valley Line
14,156,6,0,35.5,23.2,WESTWOOD,40.990817,-74.032696,"",Pascack Valley Line
14,156,4,1,,,WESTWOOD,40.990817,-74.032696,"",Pascack Valley Line
14,156,13,1,,,WESTWOOD,40.990817,-74.032696,"",Pascack Valley Line
16,157,6,1,51.0,14.7,WHITE HOUSE,40.615613,-74.77066,"",Raritan Valley Line
16,157,6,0,25.5,3.5,WHITE HOUSE,40.615613,-74.77066,"",Raritan Valley Line
11,158,8,1,60.0,0.0,WOODBRIDGE,40.553133,-74.276892,"",North Jersey Coast Line
11,158,8,0,61.7,6.4,WOODBRIDGE,40.553133,-74.276892,"",North Jersey Coast Line
12,158,6,1,,,WOODBRIDGE,40.553133,-74.276892,"",North Jersey Coast Line
12,158,6,0,,,WOODBRIDGE,40.553133,-74.276892,"",North Jersey Coast Line
11,158,6,1,29.0,18.2,WOODBRIDGE,40.553133,-74.276892,"",North Jersey Coast Line
11,158,6,0,34.5,22.3,WOODBRIDGE,40.553133,-74.276892,"",North Jersey Coast Line
11,158,4,1,55.0,,WOODBRIDGE,40.553133,-74.276892,"",North Jersey Coast Line
11,158,4,0,,,WOODBRIDGE,40.553133,-74.276892,"",North Jersey Coast Line
11,158,17,1,60.0,0.0,WOODBRIDGE,40.553133,-74.276892,"",North Jersey Coast Line
11,158,17,0,60.0,0.0,WOODBRIDGE,40.553133,-74.276892,"",North Jersey Coast Line
12,158,16,1,,,WOODBRIDGE,40.553133,-74.276892,"",North Jersey Coast Line
11,158,16,1,58.0,7.8,WOODBRIDGE,40.553133,-74.276892,"",North Jersey Coast Line
11,158,16,0,55.6,15.4,WOODBRIDGE,40.553133,-74.276892,"",North Jersey Coast Line
11,158,13,1,55.0,,WOODBRIDGE,40.553133,-74.276892,"",North Jersey Coast Line
11,158,13,0,,,WOODBRIDGE,40.553133,-74.276892,"",North Jersey Coast Line
14,159,6,1,42.4,19.7,WOODCLIFF LAKE,41.021078,-74.040775,"",Pascack Valley Line
14,159,6,0,32.0,15.8,WOODCLIFF LAKE,41.021078,-74.040775,"",Pascack Valley Line
14,159,4,1,,,WOODCLIFF LAKE,41.021078,-74.040775,"",Pascack Valley Line
14,159,13,1,,,WOODCLIFF LAKE,41.021078,-74.040775,"",Pascack Valley Line
14,160,8,1,63.0,9.8,WOOD RIDGE,40.843974,-74.078719,"",Pascack Valley Line
14,160,8,0,58.0,2.3,WOOD RIDGE,40.843974,-74.078719,"",Pascack Valley Line
14,160,6,1,48.4,21.3,WOOD RIDGE,40.843974,-74.078719,"",Pascack Valley Line
14,160,6,0,48.6,26.2,WOOD RIDGE,40.843974,-74.078719,"",Pascack Valley Line
14,160,4,1,,,WOOD RIDGE,40.843974,-74.078719,"",Pascack Valley Line
14,160,13,1,,,WOOD RIDGE,40.843974,-74.078719,"",Pascack Valley Line
9,17,9,1,,,BERKELEY HEIGHTS,40.682345,-74.442649,"",Gladstone Branch
9,17,8,1,60.0,0.0,BERKELEY HEIGHTS,40.682345,-74.442649,"",Gladstone Branch
9,17,8,0,60.0,0.0,BERKELEY HEIGHTS,40.682345,-74.442649,"",Gladstone Branch
9,17,6,1,43.0,17.4,BERKELEY HEIGHTS,40.682345,-74.442649,"",Gladstone Branch
9,17,6,0,47.1,21.6,BERKELEY HEIGHTS,40.682345,-74.442649,"",Gladstone Branch
9,17,14,1,,,BERKELEY HEIGHTS,40.682345,-74.442649,"",Gladstone Branch
9,17,10,1,65.5,23.3,BERKELEY HEIGHTS,40.682345,-74.442649,"",Gladstone Branch
9,17,10,0,,,BERKELEY HEIGHTS,40.682345,-74.442649,"",Gladstone Branch
9,18,9,1,,,BERNARDSVILLE,40.716845,-74.571023,"",Gladstone Branch
9,18,8,1,60.0,0.0,BERNARDSVILLE,40.716845,-74.571023,"",Gladstone Branch
9,18,8,0,59.7,1.2,BERNARDSVILLE,40.716845,-74.571023,"",Gladstone Branch
9,18,6,1,42.3,16.6,BERNARDSVILLE,40.716845,-74.571023,"",Gladstone Branch
9,18,6,0,47.0,21.7,BERNARDSVILLE,40.716845,-74.571023,"",Gladstone Branch
9,18,14,1,,,BERNARDSVILLE,40.716845,-74.571023,"",Gladstone Branch
9,18,10,1,65.5,23.3,BERNARDSVILLE,40.716845,-74.571023,"",Gladstone Branch
9,18,10,0,,,BERNARDSVILLE,40.716845,-74.571023,"",Gladstone Branch
4,19,8,1,,,BLOOMFIELD AVENUE,40.792709,-74.200043,"",Montclair-Boonton Line
4,19,8,0,,,BLOOMFIELD AVENUE,40.792709,-74.200043,"",Montclair-Boonton Line
4,19,6,1,46.3,16.5,BLOOMFIELD AVENUE,40.792709,-74.200043,"",Montclair-Boonton Line
4,19,6,0,45.9,20.2,BLOOMFIELD AVENUE,40.792709,-74.200043,"",Montclair-Boonton Line
3,19,6,1,71.0,9.5,BLOOMFIELD AVENUE,40.792709,-74.200043,"",Montclair-Boonton Line
3,19,6,0,81.0,,BLOOMFIELD AVENUE,40.792709,-74.200043,"",Montclair-Boonton Line
4,19,10,1,,,BLOOMFIELD AVENUE,40.792709,-74.200043,"",Montclair-Boonton Line
4,19,10,0,,,BLOOMFIELD AVENUE,40.792709,-74.200043,"",Montclair-Boonton Line
2,2,8,1,62.4,14.4,ABSECON,39.424333,-74.502094,"",Atlantic City Rail Line
2,2,8,0,63.6,5.7,ABSECON,39.424333,-74.502094,"",Atlantic City Rail Line
2,2,7,0,,,ABSECON,39.424333,-74.502094,"",Atlantic City Rail Line
2,2,6,1,60.0,23.0,ABSECON,39.424333,-74.502094,"",Atlantic City Rail Line
2,2,6,0,64.2,9.7,ABSECON,39.424333,-74.502094,"",Atlantic City Rail Line
2,2,5,1,,,ABSECON,39.424333,-74.502094,"",Atlantic City Rail Line
2,2,5,0,,,ABSECON,39.424333,-74.502094,"",Atlantic City Rail Line
2,2,4,0,,,ABSECON,39.424333,-74.502094,"",Atlantic City Rail Line
2,2,3,1,,,ABSECON,39.424333,-74.502094,"",Atlantic City Rail Line
2,2,3,0,,,ABSECON,39.424333,-74.502094,"",Atlantic City Rail Line
2,2,2,1,81.0,,ABSECON,39.424333,-74.502094,"",Atlantic City Rail Line
2,2,2,0,,,ABSECON,39.424333,-74.502094,"",Atlantic City Rail Line
3,20,6,1,54.2,17.7,BOONTON,40.903378,-74.407736,"",Montclair-Boonton Line
3,20,6,0,47.0,24.0,BOONTON,40.903378,-74.407736,"",Montclair-Boonton Line
16,21,9,1,,,BOUND BROOK,40.560929,-74.530617,"",Raritan Valley Line
16,21,8,1,60.0,1.0,BOUND BROOK,40.560929,-74.530617,"",Raritan Valley Line
16,21,8,0,61.4,5.4,BOUND BROOK,40.560929,-74.530617,"",Raritan Valley Line
16,21,6,1,44.4,20.2,BOUND BROOK,40.560929,-74.530617,"",Raritan Valley Line
16,21,6,0,44.6,21.3,BOUND BROOK,40.560929,-74.530617,"",Raritan Valley Line
16,21,14,1,,,BOUND BROOK,40.560929,-74.530617,"",Raritan Valley Line
12,22,9,1,53.0,,BRADLEY BEACH,40.203751,-74.018891,"",North Jersey Coast Line
12,22,8,1,60.0,0.0,BRADLEY BEACH,40.203751,-74.018891,"",North Jersey Coast Line
12,22,8,0,60.0,0.0,BRADLEY BEACH,40.203751,-74.018891,"",North Jersey Coast Line
12,22,6,1,52.1,19.6,BRADLEY BEACH,40.203751,-74.018891,"",North Jersey Coast Line
12,22,6,0,49.0,17.8,BRADLEY BEACH,40.203751,-74.018891,"",North Jersey Coast Line
12,22,4,1,,,BRADLEY BEACH,40.203751,-74.018891,"",North Jersey Coast Line
12,22,20,1,,,BRADLEY BEACH,40.203751,-74.018891,"",North Jersey Coast Line
12,22,19,1,,,BRADLEY BEACH,40.203751,-74.018891,"",North Jersey Coast Line
12,22,19,0,,,BRADLEY BEACH,40.203751,-74.018891,"",North Jersey Coast Line
12,22,16,1,31.0,,BRADLEY BEACH,40.203751,-74.018891,"",North Jersey Coast Line
12,22,16,0,,,BRADLEY BEACH,40.203751,-74.018891,"",North Jersey Coast Line
12,22,15,1,,,BRADLEY BEACH,40.203751,-74.018891,"",North Jersey Coast Line
12,22,14,1,52.0,,BRADLEY BEACH,40.203751,-74.018891,"",North Jersey Coast Line
12,22,13,1,,,BRADLEY BEACH,40.203751,-74.018891,"",North Jersey Coast Line
9,23,9,1,,,BRICK CHURCH,40.765134,-74.218612,"",Gladstone Branch
8,23,9,0,,,BRICK CHURCH,40.765134,-74.218612,"",Morris & Essex Line
8,23,8,1,60.0,0.2,BRICK CHURCH,40.765134,-74.218612,"",Morris & Essex Line
8,23,8,0,59.6,1.6,BRICK CHURCH,40.765134,-74.218612,"",Morris & Essex Line
9,23,6,1,49.7,17.4,BRICK CHURCH,40.765134,-74.218612,"",Gladstone Branch
9,23,6,0,58.9,17.9,BRICK CHURCH,40.765134,-74.218612,"",Gladstone Branch
8,23,6,1,34.1,16.8,BRICK CHURCH,40.765134,-74.218612,"",Morris & Essex Line
8,23,6,0,33.3,17.5,BRICK CHURCH,40.765134,-74.218612,"",Morris & Essex Line
8,23,4,1,,,BRICK CHURCH,40.765134,-74.218612,"",Morris & Essex Line
8,23,15,1,,,BRICK CHURCH,40.765134,-74.218612,"",Morris & Essex Line
9,23,14,1,,,BRICK CHURCH,40.765134,-74.218612,"",Gladstone Branch
8,23,14,1,,,BRICK CHURCH,40.765134,-74.218612,"",Morris & Essex Line
8,23,14,0,,,BRICK CHURCH,40.765134,-74.218612,"",Morris & Essex Line
8,23,13,1,44.0,,BRICK CHURCH,40.765134,-74.218612,"",Morris & Essex Line
16,24,9,1,,,BRIDGEWATER,40.559906,-74.551741,"",Raritan Valley Line
16,24,8,1,60.0,1.0,BRIDGEWATER,40.559906,-74.551741,"",Raritan Valley Line
16,24,8,0,61.4,5.4,BRIDGEWATER,40.559906,-74.551741,"",Raritan Valley Line
16,24,6,1,44.3,20.1,BRIDGEWATER,40.559906,-74.551741,"",Raritan Valley Line
16,24,6,0,46.7,20.1,BRIDGEWATER,40.559906,-74.551741,"",Raritan Valley Line
16,24,14,1,,,BRIDGEWATER,40.559906,-74.551741,"",Raritan Valley Line
1,24070,1,1,,,PRINCETON JUNCTION ON VAUGHN DRIVE,40.316239,-74.62435,"",Princeton Shuttle
7,25,8,1,,,BROADWAY,40.922505,-74.115236,"",Port Jervis Line
7,25,8,0,,,BROADWAY,40.922505,-74.115236,"",Port Jervis Line
6,25,8,1,60.6,4.3,BROADWAY,40.922505,-74.115236,"",Main/Bergen County Line
6,25,8,0,62.4,3.7,BROADWAY,40.922505,-74.115236,"",Main/Bergen County Line
7,25,6,1,,,BROADWAY,40.922505,-74.115236,"",Port Jervis Line
7,25,6,0,,,BROADWAY,40.922505,-74.115236,"",Port Jervis Line
6,25,6,1,51.5,15.8,BROADWAY,40.922505,-74.115236,"",Main/Bergen County Line
6,25,6,0,40.9,16.1,BROADWAY,40.922505,-74.115236,"",Main/Bergen County Line
7,25,4,1,,,BROADWAY,40.922505,-74.115236,"",Port Jervis Line
7,25,13,1,,,BROADWAY,40.922505,-74.115236,"",Port Jervis Line
8,27,9,0,,,CHATHAM,40.740137,-74.384812,"",Morris & Essex Line
8,27,8,1,60.0,0.0,CHATHAM,40.740137,-74.384812,"",Morris & Essex Line
8,27,8,0,59.5,2.0,CHATHAM,40.740137,-74.384812,"",Morris & Essex Line
8,27,6,1,31.9,16.2,CHATHAM,40.740137,-74.384812,"",Morris & Essex Line
8,27,6,0,30.6,17.6,CHATHAM,40.740137,-74.384812,"",Morris & Essex Line
8,27,4,1,,,CHATHAM,40.740137,-74.384812,"",Morris & Essex Line
8,27,15,1,,,CHATHAM,40.740137,-74.384812,"",Morris & Essex Line
8,27,14,1,,,CHATHAM,40.740137,-74.384812,"",Morris & Essex Line
8,27,14,0,,,CHATHAM,40.740137,-74.384812,"",Morris & Essex Line
8,27,13,1,46.0,,CHATHAM,40.740137,-74.384812,"",Morris & Essex Line
2,28,9,1,,,CHERRY HILL,39.928447,-75.041661,"",Atlantic City Rail Line
2,28,9,0,,,CHERRY HILL,39.928447,-75.041661,"",Atlantic City Rail Line
2,28,8,1,64.4,11.8,CHERRY HILL,39.928447,-75.041661,"",Atlantic City Rail Line
2,28,8,0,64.0,8.3,CHERRY HILL,39.928447,-75.041661,"",Atlantic City Rail Line
2,28,7,0,,,CHERRY HILL,39.928447,-75.041661,"",Atlantic City Rail Line
2,28,6,1,68.7,21.7,CHERRY HILL,39.928447,-75.041661,"",Atlantic City Rail Line
2,28,6,0,64.5,9.8,CHERRY HILL,39.928447,-75.041661,"",Atlantic City Rail Line
2,28,5,0,,,CHERRY HILL,39.928447,-75.041661,"",Atlantic City Rail Line
2,28,4,0,,,CHERRY HILL,39.928447,-75.041661,"",Atlantic City Rail Line
2,28,3,1,,,CHERRY HILL,39.928447,-75.041661,"",Atlantic City Rail Line
2,28,3,0,,,CHERRY HILL,39.928447,-75.041661,"",Atlantic City Rail Line
2,28,2,1,,,CHERRY HILL,39.928447,-75.041661,"",Atlantic City Rail Line
2,28,2,0,,,CHERRY HILL,39.928447,-75.041661,"",Atlantic City Rail Line
7,29,8,0,,,CLIFTON,40.867998,-74.153203,"",Port Jervis Line
6,29,8,1,62.3,5.9,CLIFTON,40.867998,-74.153203,"",Main/Bergen County Line
6,29,8,0,60.1,1.3,CLIFTON,40.867998,-74.153203,"",Main/Bergen County Line
7,29,6,1,,,CLIFTON,40.867998,-74.153203,"",Port Jervis Line
7,29,6,0,,,CLIFTON,40.867998,-74.153203,"",Port Jervis Line
6,29,6,1,48.4,16.3,CLIFTON,40.867998,-74.153203,"",Main/Bergen County Line
6,29,6,0,45.5,19.2,CLIFTON,40.867998,-74.153203,"",Main/Bergen County Line
6,29,4,1,,,CLIFTON,40.867998,-74.153203,"",Main/Bergen County Line
6,29,13,1,,,CLIFTON,40.867998,-74.153203,"",Main/Bergen County Line
7,3,8,1,,,ALLENDALE,41.030902,-74.130957,"",Port Jervis Line
7,3,8,0,,,ALLENDALE,41.030902,-74.130957,"",Port Jervis Line
6,3,8,1,62.4,4.7,ALLENDALE,41.030902,-74.130957,"",Main/Bergen County Line
6,3,8,0,60.0,0.0,ALLENDALE,41.030902,-74.130957,"",Main/Bergen County Line
7,3,6,1,,,ALLENDALE,41.030902,-74.130957,"",Port Jervis Line
7,3,6,0,,,ALLENDALE,41.030902,-74.130957,"",Port Jervis Line
6,3,6,1,39.7,14.7,ALLENDALE,41.030902,-74.130957,"",Main/Bergen County Line
6,3,6,0,41.5,17.9,ALLENDALE,41.030902,-74.130957,"",Main/Bergen County Line
7,3,4,1,,,ALLENDALE,41.030902,-74.130957,"",Port Jervis Line
6,3,4,1,,,ALLENDALE,41.030902,-74.130957,"",Main/Bergen County Line
7,3,13,1,,,ALLENDALE,41.030902,-74.130957,"",Port Jervis Line
6,3,13,1,,,ALLENDALE,41.030902,-74.130957,"",Main/Bergen County Line
8,30,9,0,,,CONVENT,40.77904,-74.443435,"",Morris & Essex Line
8,30,8,1,60.0,0.0,CONVENT,40.77904,-74.443435,"",Morris & Essex Line
8,30,8,0,59.4,2.2,CONVENT,40.77904,-74.443435,"",Morris & Essex Line
8,30,6,1,31.9,16.2,CONVENT,40.77904,-74.443435,"",Morris & Essex Line
8,30,6,0,30.5,17.7,CONVENT,40.77904,-74.443435,"",Morris & Essex Line
8,30,4,1,,,CONVENT,40.77904,-74.443435,"",Morris & Essex Line
8,30,15,1,,,CONVENT,40.77904,-74.443435,"",Morris & Essex Line
8,30,14,1,,,CONVENT,40.77904,-74.443435,"",Morris & Essex Line
8,30,14,0,,,CONVENT,40.77904,-74.443435,"",Morris & Essex Line
8,30,13,1,46.0,,CONVENT,40.77904,-74.443435,"",Morris & Essex Line
16,31,9,1,,,ROSELLE PARK,40.667152,-74.26632,"",Raritan Valley Line
16,31,8,1,60.0,0.0,ROSELLE PARK,40.667152,-74.26632,"",Raritan Valley Line
16,31,8,0,61.3,5.0,ROSELLE PARK,40.667152,-74.26632,"",Raritan Valley Line
16,31,6,1,48.7,16.1,ROSELLE PARK,40.667152,-74.26632,"",Raritan Valley Line
16,31,6,0,46.7,18.0,ROSELLE PARK,40.667152,-74.26632,"",Raritan Valley Line
16,31,14,1,,,ROSELLE PARK,40.667152,-74.26632,"",Raritan Valley Line
11,31696,8,1,60.0,0.0,MONMOUTH PARK,40.313425,-74.015172,"",North Jersey Coast Line
11,31696,8,0,60.0,0.0,MONMOUTH PARK,40.313425,-74.015172,"",North Jersey Coast Line
16,32,9,1,,,CRANFORD,40.655523,-74.303226,"",Raritan Valley Line
16,32,8,1,60.0,0.0,CRANFORD,40.655523,-74.303226,"",Raritan Valley Line
16,32,8,0,61.3,5.0,CRANFORD,40.655523,-74.303226,"",Raritan Valley Line
16,32,6,1,48.7,16.1,CRANFORD,40.655523,-74.303226,"",Raritan Valley Line
16,32,6,0,44.7,19.6,CRANFORD,40.655523,-74.303226,"",Raritan Valley Line
16,32,14,1,,,CRANFORD,40.655523,-74.303226,"",Raritan Valley Line
10,32905,8,1,38.7,15.1,HAMILTON,40.255309,-74.70412,"",Northeast Corridor
10,32905,8,0,38.0,13.3,HAMILTON,40.255309,-74.70412,"",Northeast Corridor
10,32905,6,1,23.1,10.5,HAMILTON,40.255309,-74.70412,"",Northeast Corridor
10,32905,6,0,25.0,13.2,HAMILTON,40.255309,-74.70412,"",Northeast Corridor
10,32905,4,1,43.0,,HAMILTON,40.255309,-74.70412,"",Northeast Corridor
10,32905,4,0,,,HAMILTON,40.255309,-74.70412,"",Northeast Corridor
10,32905,13,1,,,HAMILTON,40.255309,-74.70412,"",Northeast Corridor
10,32905,13,0,,,HAMILTON,40.255309,-74.70412,"",Northeast Corridor
10,32906,6,1,24.7,11.9,JERSEY AVE.,40.476912,-74.467363,"",Northeast Corridor
10,32906,6,0,23.3,4.7,JERSEY AVE.,40.476912,-74.467363,"",Northeast Corridor
10,32906,4,1,41.0,,JERSEY AVE.,40.476912,-74.467363,"",Northeast Corridor
10,32906,13,1,,,JERSEY AVE.,40.476912,-74.467363,"",Northeast Corridor
7,33,8,0,,,DELAWANNA,40.831369,-74.131262,"",Port Jervis Line
6,33,8,1,62.3,5.9,DELAWANNA,40.831369,-74.131262,"",Main/Bergen County Line
6,33,8,0,60.2,1.3,DELAWANNA,40.831369,-74.131262,"",Main/Bergen County Line
7,33,6,1,,,DELAWANNA,40.831369,-74.131262,"",Port Jervis Line
7,33,6,0,,,DELAWANNA,40.831369,-74.131262,"",Port Jervis Line
6,33,6,1,48.4,16.5,DELAWANNA,40.831369,-74.131262,"",Main/Bergen County Line
6,33,6,0,47.7,19.4,DELAWANNA,40.831369,-74.131262,"",Main/Bergen County Line
6,33,4,1,,,DELAWANNA,40.831369,-74.131262,"",Main/Bergen County Line
6,33,13,1,,,DELAWANNA,40.831369,-74.131262,"",Main/Bergen County Line
8,34,9,0,,,DENVILLE,40.8839,-74.481513,"",Morris & Essex Line
8,34,8,1,60.0,1.5,DENVILLE,40.8839,-74.481513,"",Morris & Essex Line
8,34,8,0,59.2,2.7,DENVILLE,40.8839,-74.481513,"",Morris & Essex Line
8,34,6,1,32.0,16.5,DENVILLE,40.8839,-74.481513,"",Morris & Essex Line
8,34,6,0,30.5,17.6,DENVILLE,40.8839,-74.481513,"",Morris & Essex Line
3,34,6,1,54.0,17.1,DENVILLE,40.8839,-74.481513,"",Montclair-Boonton Line
3,34,6,0,46.7,23.6,DENVILLE,40.8839,-74.481513,"",Montclair-Boonton Line
8,34,4,1,,,DENVILLE,40.8839,-74.481513,"",Morris & Essex Line
8,34,15,1,,,DENVILLE,40.8839,-74.481513,"",Morris & Essex Line
8,34,14,1,,,DENVILLE,40.8839,-74.481513,"",Morris & Essex Line
8,34,14,0,,,DENVILLE,40.8839,-74.481513,"",Morris & Essex Line
8,34,13,1,48.0,,DENVILLE,40.8839,-74.481513,"",Morris & Essex Line
8,35,9,0,,,DOVER,40.883415,-74.555887,"",Morris & Essex Line
8,35,8,1,60.0,1.5,DOVER,40.883415,-74.555887,"",Morris & Essex Line
8,35,8,0,59.1,2.9,DOVER,40.883415,-74.555887,"",Morris & Essex Line
8,35,6,1,32.1,16.4,DOVER,40.883415,-74.555887,"",Morris & Essex Line
8,35,6,0,30.5,17.4,DOVER,40.883415,-74.555887,"",Morris & Essex Line
3,35,6,1,50.4,17.6,DOVER,40.883415,-74.555887,"",Montclair-Boonton Line
3,35,6,0,62.3,13.6,DOVER,40.883415,-74.555887,"",Montclair-Boonton Line
8,35,4,1,,,DOVER,40.883415,-74.555887,"",Morris & Essex Line
8,35,15,1,,,DOVER,40.883415,-74.555887,"",Morris & Essex Line
8,35,14,1,,,DOVER,40.883415,-74.555887,"",Morris & Essex Line
8,35,14,0,,,DOVER,40.883415,-74.555887,"",Morris & Essex Line
8,35,13,1,49.0,,DOVER,40.883415,-74.555887,"",Morris & Essex Line
16,36,9,1,,,DUNELLEN,40.590869,-74.463043,"",Raritan Valley Line
16,36,8,1,60.0,1.0,DUNELLEN,40.590869,-74.463043,"",Raritan Valley Line
16,36,8,0,61.4,5.4,DUNELLEN,40.590869,-74.463043,"",Raritan Valley Line
16,36,6,1,44.4,20.1,DUNELLEN,40.590869,-74.463043,"",Raritan Valley Line
16,36,6,0,44.7,21.4,DUNELLEN,40.590869,-74.463043,"",Raritan Valley Line
16,36,14,1,,,DUNELLEN,40.590869,-74.463043,"",Raritan Valley Line
9,37,9,1,,,EAST ORANGE,40.760977,-74.210464,"",Gladstone Branch
8,37,8,1,60.0,0.0,EAST ORANGE,40.760977,-74.210464,"",Morris & Essex Line
8,37,8,0,59.6,1.6,EAST ORANGE,40.760977,-74.210464,"",Morris & Essex Line
9,37,6,1,52.3,16.1,EAST ORANGE,40.760977,-74.210464,"",Gladstone Branch
9,37,6,0,64.2,12.8,EAST ORANGE,40.760977,-74.210464,"",Gladstone Branch
8,37,6,1,37.7,22.5,EAST ORANGE,40.760977,-74.210464,"",Morris & Essex Line
8,37,6,0,66.0,15.2,EAST ORANGE,40.760977,-74.210464,"",Morris & Essex Line
8,37,4,1,,,EAST ORANGE,40.760977,-74.210464,"",Morris & Essex Line
8,37,15,1,,,EAST ORANGE,40.760977,-74.210464,"",Morris & Essex Line
9,37,14,1,,,EAST ORANGE,40.760977,-74.210464,"",Gladstone Branch
8,37,14,1,,,EAST ORANGE,40.760977,-74.210464,"",Morris & Essex Line
8,37,13,1,45.0,,EAST ORANGE,40.760977,-74.210464,"",Morris & Essex Line
11,37169,8,1,60.0,0.0,MATAWAN,40.420161,-74.223702,"",North Jersey Coast Line
11,37169,8,0,61.7,6.4,MATAWAN,40.420161,-74.223702,"",North Jersey Coast Line
12,37169,6,1,34.0,,MATAWAN,40.420161,-74.223702,"",North Jersey Coast Line
12,37169,6,0,47.3,18.1,MATAWAN,40.420161,-74.223702,"",North Jersey Coast Line
11,37169,6,1,37.0,18.5,MATAWAN,40.420161,-74.223702,"",North Jersey Coast Line
11,37169,6,0,39.5,20.7,MATAWAN,40.420161,-74.223702,"",North Jersey Coast Line
11,37169,4,1,55.0,,MATAWAN,40.420161,-74.223702,"",North Jersey Coast Line
11,37169,4,0,,,MATAWAN,40.420161,-74.223702,"",North Jersey Coast Line
11,37169,18,1,,,MATAWAN,40.420161,-74.223702,"",North Jersey Coast Line
11,37169,17,1,60.0,0.0,MATAWAN,40.420161,-74.223702,"",North Jersey Coast Line
11,37169,17,0,60.0,0.0,MATAWAN,40.420161,-74.223702,"",North Jersey Coast Line
12,37169,16,1,30.0,,MATAWAN,40.420161,-74.223702,"",North Jersey Coast Line
12,37169,16,0,,,MATAWAN,40.420161,-74.223702,"",North Jersey Coast Line
11,37169,16,1,57.5,8.9,MATAWAN,40.420161,-74.223702,"",North Jersey Coast Line
11,37169,16,0,49.4,12.7,MATAWAN,40.420161,-74.223702,"",North Jersey Coast Line
11,37169,13,1,55.0,,MATAWAN,40.420161,-74.223702,"",North Jersey Coast Line
11,37169,13,0,,,MATAWAN,40.420161,-74.223702,"",North Jersey Coast Line
11,37953,8,1,60.0,0.3,NEWARK AIRPORT RAILROAD STATION,40.704415,-74.190717,"",North Jersey Coast Line
11,37953,8,0,61.8,6.6,NEWARK AIRPORT RAILROAD STATION,40.704415,-74.190717,"",North Jersey Coast Line
10,37953,8,1,33.0,19.9,NEWARK AIRPORT RAILROAD STATION,40.704415,-74.190717,"",Northeast Corridor
10,37953,8,0,33.5,17.2,NEWARK AIRPORT RAILROAD STATION,40.704415,-74.190717,"",Northeast Corridor
12,37953,6,1,,,NEWARK AIRPORT RAILROAD STATION,40.704415,-74.190717,"",North Jersey Coast Line
11,37953,6,1,36.5,19.6,NEWARK AIRPORT RAILROAD STATION,40.704415,-74.190717,"",North Jersey Coast Line
11,37953,6,0,45.7,18.2,NEWARK AIRPORT RAILROAD STATION,40.704415,-74.190717,"",North Jersey Coast Line
10,37953,6,1,24.4,11.5,NEWARK AIRPORT RAILROAD STATION,40.704415,-74.190717,"",Northeast Corridor
10,37953,6,0,27.3,16.8,NEWARK AIRPORT RAILROAD STATION,40.704415,-74.190717,"",Northeast Corridor
11,37953,4,1,55.0,,NEWARK AIRPORT RAILROAD STATION,40.704415,-74.190717,"",North Jersey Coast Line
11,37953,4,0,,,NEWARK AIRPORT RAILROAD STATION,40.704415,-74.190717,"",North Jersey Coast Line
10,37953,4,1,39.0,,NEWARK AIRPORT RAILROAD STATION,40.704415,-74.190717,"",Northeast Corridor
10,37953,4,0,,,NEWARK AIRPORT RAILROAD STATION,40.704415,-74.190717,"",Northeast Corridor
11,37953,17,1,60.0,0.5,NEWARK AIRPORT RAILROAD STATION,40.704415,-74.190717,"",North Jersey Coast Line
11,37953,17,0,60.0,0.0,NEWARK AIRPORT RAILROAD STATION,40.704415,-74.190717,"",North Jersey Coast Line
12,37953,16,0,,,NEWARK AIRPORT RAILROAD STATION,40.704415,-74.190717,"",North Jersey Coast Line
11,37953,16,1,60.6,3.7,NEWARK AIRPORT RAILROAD STATION,40.704415,-74.190717,"",North Jersey Coast Line
11,37953,16,0,54.8,18.1,NEWARK AIRPORT RAILROAD STATION,40.704415,-74.190717,"",North Jersey Coast Line
11,37953,13,1,55.0,,NEWARK AIRPORT RAILROAD STATION,40.704415,-74.190717,"",North Jersey Coast Line
11,37953,13,0,,,NEWARK AIRPORT RAILROAD STATION,40.704415,-74.190717,"",North Jersey Coast Line
10,37953,13,1,,,NEWARK AIRPORT RAILROAD STATION,40.704415,-74.190717,"",Northeast Corridor
10,37953,13,0,,,NEWARK AIRPORT RAILROAD STATION,40.704415,-74.190717,"",Northeast Corridor
10,38,8,1,38.7,15.0,EDISON STATION,40.519148,-74.410972,"",Northeast Corridor
10,38,8,0,38.0,13.3,EDISON STATION,40.519148,-74.410972,"",Northeast Corridor
10,38,6,1,23.5,10.1,EDISON STATION,40.519148,-74.410972,"",Northeast Corridor
10,38,6,0,24.5,14.3,EDISON STATION,40.519148,-74.410972,"",Northeast Corridor
10,38,4,1,40.0,,EDISON STATION,40.519148,-74.410972,"",Northeast Corridor
10,38,4,0,,,EDISON STATION,40.519148,-74.410972,"",Northeast Corridor
10,38,13,1,,,EDISON STATION,40.519148,-74.410972,"",Northeast Corridor
10,38,13,0,,,EDISON STATION,40.519148,-74.410972,"",Northeast Corridor
4,38081,6,1,46.3,17.0,MSU,40.869782,-74.197439,"",Montclair-Boonton Line
4,38081,6,0,45.7,20.8,MSU,40.869782,-74.197439,"",Montclair-Boonton Line
3,38081,6,1,54.1,17.3,MSU,40.869782,-74.197439,"",Montclair-Boonton Line
3,38081,6,0,47.0,24.8,MSU,40.869782,-74.197439,"",Montclair-Boonton Line
16,38105,9,1,,,UNION,40.683663,-74.238605,"",Raritan Valley Line
16,38105,8,1,60.0,0.0,UNION,40.683663,-74.238605,"",Raritan Valley Line
16,38105,8,0,61.3,5.0,UNION,40.683663,-74.238605,"",Raritan Valley Line
16,38105,6,1,48.7,16.1,UNION,40.683663,-74.238605,"",Raritan Valley Line
16,38105,6,0,46.7,18.0,UNION,40.683663,-74.238605,"",Raritan Valley Line
16,38105,14,1,,,UNION,40.683663,-74.238605,"",Raritan Valley Line
7,38174,8,1,,,FRANK R LAUTENBERG SECAUCUS LOWER LEVEL,40.761188,-74.075821,"",Port Jervis Line
7,38174,8,0,,,FRANK R LAUTENBERG SECAUCUS LOWER LEVEL,40.761188,-74.075821,"",Port Jervis Line
6,38174,8,1,41.4,24.5,FRANK R LAUTENBERG SECAUCUS LOWER LEVEL,40.761188,-74.075821,"",Main/Bergen County Line
6,38174,8,0,33.4,25.8,FRANK R LAUTENBERG SECAUCUS LOWER LEVEL,40.761188,-74.075821,"",Main/Bergen County Line
14,38174,8,1,60.4,6.6,FRANK R LAUTENBERG SECAUCUS LOWER LEVEL,40.761188,-74.075821,"",Pascack Valley Line
14,38174,8,0,60.6,4.4,FRANK R LAUTENBERG SECAUCUS LOWER LEVEL,40.761188,-74.075821,"",Pascack Valley Line
7,38174,6,1,,,FRANK R LAUTENBERG SECAUCUS LOWER LEVEL,40.761188,-74.075821,"",Port Jervis Line
7,38174,6,0,,,FRANK R LAUTENBERG SECAUCUS LOWER LEVEL,40.761188,-74.075821,"",Port Jervis Line
6,38174,6,1,23.2,18.9,FRANK R LAUTENBERG SECAUCUS LOWER LEVEL,40.761188,-74.075821,"",Main/Bergen County Line
6,38174,6,0,25.0,18.0,FRANK R LAUTENBERG SECAUCUS LOWER LEVEL,40.761188,-74.075821,"",Main/Bergen County Line
14,38174,6,1,45.5,24.4,FRANK R LAUTENBERG SECAUCUS LOWER LEVEL,40.761188,-74.075821,"",Pascack Valley Line
14,38174,6,0,42.1,28.3,FRANK R LAUTENBERG SECAUCUS LOWER LEVEL,40.761188,-74.075821,"",Pascack Valley Line
7,38174,4,1,,,FRANK R LAUTENBERG SECAUCUS LOWER LEVEL,40.761188,-74.075821,"",Port Jervis Line
6,38174,4,1,,,FRANK R LAUTENBERG SECAUCUS LOWER LEVEL,40.761188,-74.075821,"",Main/Bergen County Line
14,38174,4,1,,,FRANK R LAUTENBERG SECAUCUS LOWER LEVEL,40.761188,-74.075821,"",Pascack Valley Line
18,38174,27,0,,,FRANK R LAUTENBERG SECAUCUS LOWER LEVEL,40.761188,-74.075821,"",Meadowlands Rail Line
18,38174,26,1,17.4,12.7,FRANK R LAUTENBERG SECAUCUS LOWER LEVEL,40.761188,-74.075821,"",Meadowlands Rail Line
18,38174,26,0,25.8,24.1,FRANK R LAUTENBERG SECAUCUS LOWER LEVEL,40.761188,-74.075821,"",Meadowlands Rail Line
18,38174,25,0,15.0,0.0,FRANK R LAUTENBERG SECAUCUS LOWER LEVEL,40.761188,-74.075821,"",Meadowlands Rail Line
18,38174,24,1,21.2,16.8,FRANK R LAUTENBERG SECAUCUS LOWER LEVEL,40.761188,-74.075821,"",Meadowlands Rail Line
18,38174,24,0,26.4,22.8,FRANK R LAUTENBERG SECAUCUS LOWER LEVEL,40.761188,-74.075821,"",Meadowlands Rail Line
18,38174,23,1,21.7,11.4,FRANK R LAUTENBERG SECAUCUS LOWER LEVEL,40.761188,-74.075821,"",Meadowlands Rail Line
18,38174,23,0,23.0,19.7,FRANK R LAUTENBERG SECAUCUS LOWER LEVEL,40.761188,-74.075821,"",Meadowlands Rail Line
18,38174,22,1,65.0,20.5,FRANK R LAUTENBERG SECAUCUS LOWER LEVEL,40.761188,-74.075821,"",Meadowlands Rail Line
18,38174,22,0,62.0,,FRANK R LAUTENBERG SECAUCUS LOWER LEVEL,40.761188,-74.075821,"",Meadowlands Rail Line
18,38174,21,1,21.8,20.5,FRANK R LAUTENBERG SECAUCUS LOWER LEVEL,40.761188,-74.075821,"",Meadowlands Rail Line
18,38174,21,0,19.8,17.6,FRANK R LAUTENBERG SECAUCUS LOWER LEVEL,40.761188,-74.075821,"",Meadowlands Rail Line
7,38174,13,1,,,FRANK R LAUTENBERG SECAUCUS LOWER LEVEL,40.761188,-74.075821,"",Port Jervis Line
6,38174,13,1,,,FRANK R LAUTENBERG SECAUCUS LOWER LEVEL,40.761188,-74.075821,"",Main/Bergen County Line
14,38174,13,1,,,FRANK R LAUTENBERG SECAUCUS LOWER LEVEL,40.761188,-74.075821,"",Pascack Valley Line
8,38187,9,0,,,FRANK R LAUTENBERG SECAUCUS UPPER LEVEL,40.761188,-74.075821,"",Morris & Essex Line
8,38187,8,1,60.0,0.0,FRANK R LAUTENBERG SECAUCUS UPPER LEVEL,40.761188,-74.075821,"",Morris & Essex Line
8,38187,8,0,59.7,2.1,FRANK R LAUTENBERG SECAUCUS UPPER LEVEL,40.761188,-74.075821,"",Morris & Essex Line
11,38187,8,1,60.0,0.3,FRANK R LAUTENBERG SECAUCUS UPPER LEVEL,40.761188,-74.075821,"",North Jersey Coast Line
11,38187,8,0,61.9,7.1,FRANK R LAUTENBERG SECAUCUS UPPER LEVEL,40.761188,-74.075821,"",North Jersey Coast Line
10,38187,8,1,35.0,17.7,FRANK R LAUTENBERG SECAUCUS UPPER LEVEL,40.761188,-74.075821,"",Northeast Corridor
10,38187,8,0,29.8,19.8,FRANK R LAUTENBERG SECAUCUS UPPER LEVEL,40.761188,-74.075821,"",Northeast Corridor
9,38187,6,0,,,FRANK R LAUTENBERG SECAUCUS UPPER LEVEL,40.761188,-74.075821,"",Gladstone Branch
8,38187,6,1,42.2,14.4,FRANK R LAUTENBERG SECAUCUS UPPER LEVEL,40.761188,-74.075821,"",Morris & Essex Line
8,38187,6,0,47.5,21.1,FRANK R LAUTENBERG SECAUCUS UPPER LEVEL,40.761188,-74.075821,"",Morris & Essex Line
4,38187,6,1,52.8,11.5,FRANK R LAUTENBERG SECAUCUS UPPER LEVEL,40.761188,-74.075821,"",Montclair-Boonton Line
4,38187,6,0,59.2,12.3,FRANK R LAUTENBERG SECAUCUS UPPER LEVEL,40.761188,-74.075821,"",Montclair-Boonton Line
11,38187,6,1,33.3,15.7,FRANK R LAUTENBERG SECAUCUS UPPER LEVEL,40.761188,-74.075821,"",North Jersey Coast Line
11,38187,6,0,41.4,19.7,FRANK R LAUTENBERG SECAUCUS UPPER LEVEL,40.761188,-74.075821,"",North Jersey Coast Line
10,38187,6,1,22.1,11.3,FRANK R LAUTENBERG SECAUCUS UPPER LEVEL,40.761188,-74.075821,"",Northeast Corridor
10,38187,6,0,19.6,13.1,FRANK R LAUTENBERG SECAUCUS UPPER LEVEL,40.761188,-74.075821,"",Northeast Corridor
8,38187,4,1,,,FRANK R LAUTENBERG SECAUCUS UPPER LEVEL,40.761188,-74.075821,"",Morris & Essex Line
11,38187,4,1,55.0,,FRANK R LAUTENBERG SECAUCUS UPPER LEVEL,40.761188,-74.075821,"",North Jersey Coast Line
11,38187,4,0,,,FRANK R LAUTENBERG SECAUCUS UPPER LEVEL,40.761188,-74.075821,"",North Jersey Coast Line
10,38187,4,1,39.0,,FRANK R LAUTENBERG SECAUCUS UPPER LEVEL,40.761188,-74.075821,"",Northeast Corridor
10,38187,4,0,,,FRANK R LAUTENBERG SECAUCUS UPPER LEVEL,40.761188,-74.075821,"",Northeast Corridor
11,38187,17,1,60.0,0.5,FRANK R LAUTENBERG SECAUCUS UPPER LEVEL,40.761188,-74.075821,"",North Jersey Coast Line
11,38187,17,0,60.0,0.0,FRANK R LAUTENBERG SECAUCUS UPPER LEVEL,40.761188,-74.075821,"",North Jersey Coast Line
11,38187,16,1,60.6,3.7,FRANK R LAUTENBERG SECAUCUS UPPER LEVEL,40.761188,-74.075821,"",North Jersey Coast Line
11,38187,16,0,48.6,14.4,FRANK R LAUTENBERG SECAUCUS UPPER LEVEL,40.761188,-74.075821,"",North Jersey Coast Line
8,38187,15,1,,,FRANK R LAUTENBERG SECAUCUS UPPER LEVEL,40.761188,-74.075821,"",Morris & Essex Line
8,38187,14,1,,,FRANK R LAUTENBERG SECAUCUS UPPER LEVEL,40.761188,-74.075821,"",Morris & Essex Line
8,38187,14,0,,,FRANK R LAUTENBERG SECAUCUS UPPER LEVEL,40.761188,-74.075821,"",Morris & Essex Line
8,38187,13,1,45.0,,FRANK R LAUTENBERG SECAUCUS UPPER LEVEL,40.761188,-74.075821,"",Morris & Essex Line
11,38187,13,1,55.0,,FRANK R LAUTENBERG SECAUCUS UPPER LEVEL,40.761188,-74.075821,"",North Jersey Coast Line
11,38187,13,0,,,FRANK R LAUTENBERG SECAUCUS UPPER LEVEL,40.761188,-74.075821,"",North Jersey Coast Line
10,38187,13,1,,,FRANK R LAUTENBERG SECAUCUS UPPER LEVEL,40.761188,-74.075821,"",Northeast Corridor
10,38187,13,0,,,FRANK R LAUTENBERG SECAUCUS UPPER LEVEL,40.761188,-74.075821,"",Northeast Corridor
7,38417,8,1,,,RAMSEY ROUTE 17 STATION,41.07513,-74.145485,"",Port Jervis Line
7,38417,8,0,,,RAMSEY ROUTE 17 STATION,41.07513,-74.145485,"",Port Jervis Line
6,38417,8,1,62.6,5.1,RAMSEY ROUTE 17 STATION,41.07513,-74.145485,"",Main/Bergen County Line
6,38417,8,0,60.0,0.0,RAMSEY ROUTE 17 STATION,41.07513,-74.145485,"",Main/Bergen County Line
7,38417,6,1,,,RAMSEY ROUTE 17 STATION,41.07513,-74.145485,"",Port Jervis Line
7,38417,6,0,,,RAMSEY ROUTE 17 STATION,41.07513,-74.145485,"",Port Jervis Line
6,38417,6,1,37.3,16.6,RAMSEY ROUTE 17 STATION,41.07513,-74.145485,"",Main/Bergen County Line
6,38417,6,0,32.6,18.0,RAMSEY ROUTE 17 STATION,41.07513,-74.145485,"",Main/Bergen County Line
7,38417,4,1,,,RAMSEY ROUTE 17 STATION,41.07513,-74.145485,"",Port Jervis Line
6,38417,4,1,,,RAMSEY ROUTE 17 STATION,41.07513,-74.145485,"",Main/Bergen County Line
7,38417,13,1,,,RAMSEY ROUTE 17 STATION,41.07513,-74.145485,"",Port Jervis Line
6,38417,13,1,,,RAMSEY ROUTE 17 STATION,41.07513,-74.145485,"",Main/Bergen County Line
2,39,8,1,63.0,13.6,EGG HARBOR,39.526441,-74.648028,"",Atlantic City Rail Line
2,39,8,0,63.6,5.7,EGG HARBOR,39.526441,-74.648028,"",Atlantic City Rail Line
2,39,7,0,,,EGG HARBOR,39.526441,-74.648028,"",Atlantic City Rail Line
2,39,6,1,62.3,21.2,EGG HARBOR,39.526441,-74.648028,"",Atlantic City Rail Line
2,39,6,0,64.0,9.5,EGG HARBOR,39.526441,-74.648028,"",Atlantic City Rail Line
2,39,5,1,,,EGG HARBOR,39.526441,-74.648028,"",Atlantic City Rail Line
2,39,5,0,,,EGG HARBOR,39.526441,-74.648028,"",Atlantic City Rail Line
2,39,4,0,,,EGG HARBOR,39.526441,-74.648028,"",Atlantic City Rail Line
2,39,3,1,,,EGG HARBOR,39.526441,-74.648028,"",Atlantic City Rail Line
2,39,3,0,,,EGG HARBOR,39.526441,-74.648028,"",Atlantic City Rail Line
2,39,2,1,82.0,,EGG HARBOR,39.526441,-74.648028,"",Atlantic City Rail Line
2,39,2,0,,,EGG HARBOR,39.526441,-74.648028,"",Atlantic City Rail Line
8,39472,6,1,42.6,6.1,MOUNT ARLINGTON,40.89659,-74.632731,"",Morris & Essex Line
8,39472,6,0,58.5,17.7,MOUNT ARLINGTON,40.89659,-74.632731,"",Morris & Essex Line
3,39472,6,1,58.3,17.7,MOUNT ARLINGTON,40.89659,-74.632731,"",Montclair-Boonton Line
3,39472,6,0,62.3,13.7,MOUNT ARLINGTON,40.89659,-74.632731,"",Montclair-Boonton Line
3,39635,6,1,54.2,17.4,WAYNE/ROUTE 23 TRANSIT CENTER [RR],40.900254,-74.256971,"",Montclair-Boonton Line
3,39635,6,0,47.2,24.5,WAYNE/ROUTE 23 TRANSIT CENTER [RR],40.900254,-74.256971,"",Montclair-Boonton Line
12,4,9,1,54.0,,ALLENHURST,40.237659,-74.006769,"",North Jersey Coast Line
12,4,8,1,60.0,0.0,ALLENHURST,40.237659,-74.006769,"",North Jersey Coast Line
12,4,8,0,60.0,0.0,ALLENHURST,40.237659,-74.006769,"",North Jersey Coast Line
12,4,6,1,52.0,19.7,ALLENHURST,40.237659,-74.006769,"",North Jersey Coast Line
12,4,6,0,49.1,17.8,ALLENHURST,40.237659,-74.006769,"",North Jersey Coast Line
12,4,4,1,,,ALLENHURST,40.237659,-74.006769,"",North Jersey Coast Line
12,4,20,1,,,ALLENHURST,40.237659,-74.006769,"",North Jersey Coast Line
12,4,19,1,,,ALLENHURST,40.237659,-74.006769,"",North Jersey Coast Line
12,4,19,0,,,ALLENHURST,40.237659,-74.006769,"",North Jersey Coast Line
12,4,16,1,30.0,,ALLENHURST,40.237659,-74.006769,"",North Jersey Coast Line
12,4,16,0,,,ALLENHURST,40.237659,-74.006769,"",North Jersey Coast Line
12,4,15,1,,,ALLENHURST,40.237659,-74.006769,"",North Jersey Coast Line
12,4,14,1,53.0,,ALLENHURST,40.237659,-74.006769,"",North Jersey Coast Line
12,4,13,1,,,ALLENHURST,40.237659,-74.006769,"",North Jersey Coast Line
12,40,9,1,54.0,,ELBERON,40.265292,-73.99762,"",North Jersey Coast Line
12,40,8,1,60.0,0.0,ELBERON,40.265292,-73.99762,"",North Jersey Coast Line
12,40,8,0,60.0,0.0,ELBERON,40.265292,-73.99762,"",North Jersey Coast Line
12,40,6,1,52.0,19.7,ELBERON,40.265292,-73.99762,"",North Jersey Coast Line
12,40,6,0,49.1,17.8,ELBERON,40.265292,-73.99762,"",North Jersey Coast Line
12,40,4,1,,,ELBERON,40.265292,-73.99762,"",North Jersey Coast Line
12,40,20,1,,,ELBERON,40.265292,-73.99762,"",North Jersey Coast Line
12,40,19,1,,,ELBERON,40.265292,-73.99762,"",North Jersey Coast Line
12,40,19,0,,,ELBERON,40.265292,-73.99762,"",North Jersey Coast Line
12,40,16,1,30.0,,ELBERON,40.265292,-73.99762,"",North Jersey Coast Line
12,40,16,0,,,ELBERON,40.265292,-73.99762,"",North Jersey Coast Line
12,40,15,1,,,ELBERON,40.265292,-73.99762,"",North Jersey Coast Line
12,40,14,1,53.0,,ELBERON,40.265292,-73.99762,"",North Jersey Coast Line
12,40,13,1,,,ELBERON,40.265292,-73.99762,"",North Jersey Coast Line
18,40570,27,0,,,MEADOWLANDS SPORTS COMPLEX STATION,40.813053,-74.072114,"",Meadowlands Rail Line
18,40570,26,1,17.4,12.7,MEADOWLANDS SPORTS COMPLEX STATION,40.813053,-74.072114,"",Meadowlands Rail Line
18,40570,26,0,25.8,24.1,MEADOWLANDS SPORTS COMPLEX STATION,40.813053,-74.072114,"",Meadowlands Rail Line
18,40570,25,0,15.0,0.0,MEADOWLANDS SPORTS COMPLEX STATION,40.813053,-74.072114,"",Meadowlands Rail Line
18,40570,24,1,21.2,16.8,MEADOWLANDS SPORTS COMPLEX STATION,40.813053,-74.072114,"",Meadowlands Rail Line
18,40570,24,0,26.4,22.8,MEADOWLANDS SPORTS COMPLEX STATION,40.813053,-74.072114,"",Meadowlands Rail Line
18,40570,23,1,21.7,11.4,MEADOWLANDS SPORTS COMPLEX STATION,40.813053,-74.072114,"",Meadowlands Rail Line
18,40570,23,0,22.8,19.5,MEADOWLANDS SPORTS COMPLEX STATION,40.813053,-74.072114,"",Meadowlands Rail Line
18,40570,22,1,64.0,22.0,MEADOWLANDS SPORTS COMPLEX STATION,40.813053,-74.072114,"",Meadowlands Rail Line
18,40570,22,0,62.0,,MEADOWLANDS SPORTS COMPLEX STATION,40.813053,-74.072114,"",Meadowlands Rail Line
18,40570,21,1,21.8,20.5,MEADOWLANDS SPORTS COMPLEX STATION,40.813053,-74.072114,"",Meadowlands Rail Line
18,40570,21,0,19.8,17.6,MEADOWLANDS SPORTS COMPLEX STATION,40.813053,-74.072114,"",Meadowlands Rail Line
11,41,8,1,60.0,0.3,ELIZABETH,40.667857,-74.215174,"",North Jersey Coast Line
11,41,8,0,61.7,6.6,ELIZABETH,40.667857,-74.215174,"",North Jersey Coast Line
10,41,8,1,46.8,16.5,ELIZABETH,40.667857,-74.215174,"",Northeast Corridor
10,41,8,0,49.5,20.2,ELIZABETH,40.667857,-74.215174,"",Northeast Corridor
11,41,6,1,45.5,15.4,ELIZABETH,40.667857,-74.215174,"",North Jersey Coast Line
11,41,6,0,47.9,16.6,ELIZABETH,40.667857,-74.215174,"",North Jersey Coast Line
10,41,6,1,32.5,11.8,ELIZABETH,40.667857,-74.215174,"",Northeast Corridor
10,41,6,0,40.0,16.5,ELIZABETH,40.667857,-74.215174,"",Northeast Corridor
11,41,4,1,55.0,,ELIZABETH,40.667857,-74.215174,"",North Jersey Coast Line
11,41,4,0,,,ELIZABETH,40.667857,-74.215174,"",North Jersey Coast Line
10,41,4,1,39.0,,ELIZABETH,40.667857,-74.215174,"",Northeast Corridor
10,41,4,0,,,ELIZABETH,40.667857,-74.215174,"",Northeast Corridor
11,41,17,1,60.0,0.5,ELIZABETH,40.667857,-74.215174,"",North Jersey Coast Line
11,41,17,0,60.0,0.0,ELIZABETH,40.667857,-74.215174,"",North Jersey Coast Line
11,41,16,1,60.6,4.0,ELIZABETH,40.667857,-74.215174,"",North Jersey Coast Line
11,41,16,0,58.2,2.0,ELIZABETH,40.667857,-74.215174,"",North Jersey Coast Line
11,41,13,1,55.0,,ELIZABETH,40.667857,-74.215174,"",North Jersey Coast Line
11,41,13,0,,,ELIZABETH,40.667857,-74.215174,"",North Jersey Coast Line
10,41,13,1,,,ELIZABETH,40.667857,-74.215174,"",Northeast Corridor
10,41,13,0,,,ELIZABETH,40.667857,-74.215174,"",Northeast Corridor
1,41586,1,1,,,PRINCETON RAILROAD STATION,40.343398,-74.659872,"",Princeton Shuttle
14,42,8,1,60.0,14.1,EMERSON,40.975036,-74.027471,"",Pascack Valley Line
14,42,8,0,57.0,4.2,EMERSON,40.975036,-74.027471,"",Pascack Valley Line
14,42,6,1,46.1,21.0,EMERSON,40.975036,-74.027471,"",Pascack Valley Line
14,42,6,0,39.4,22.4,EMERSON,40.975036,-74.027471,"",Pascack Valley Line
14,42,4,1,,,EMERSON,40.975036,-74.027471,"",Pascack Valley Line
14,42,13,1,,,EMERSON,40.975036,-74.027471,"",Pascack Valley Line
14,43,8,1,63.0,9.8,ESSEX STREET,40.878973,-74.051893,"",Pascack Valley Line
14,43,8,0,58.0,2.3,ESSEX STREET,40.878973,-74.051893,"",Pascack Valley Line
14,43,6,1,45.6,18.8,ESSEX STREET,40.878973,-74.051893,"",Pascack Valley Line
14,43,6,0,48.6,26.1,ESSEX STREET,40.878973,-74.051893,"",Pascack Valley Line
14,43,4,1,,,ESSEX STREET,40.878973,-74.051893,"",Pascack Valley Line
14,43,13,1,,,ESSEX STREET,40.878973,-74.051893,"",Pascack Valley Line
16,44,9,1,,,FANWOOD,40.64106,-74.385003,"",Raritan Valley Line
16,44,8,1,60.0,1.0,FANWOOD,40.64106,-74.385003,"",Raritan Valley Line
16,44,8,0,61.3,5.1,FANWOOD,40.64106,-74.385003,"",Raritan Valley Line
16,44,6,1,48.6,16.2,FANWOOD,40.64106,-74.385003,"",Raritan Valley Line
16,44,6,0,46.7,17.8,FANWOOD,40.64106,-74.385003,"",Raritan Valley Line
16,44,14,1,,,FANWOOD,40.64106,-74.385003,"",Raritan Valley Line
9,45,9,1,,,FAR HILLS,40.685712,-74.633734,"",Gladstone Branch
9,45,8,1,59.9,0.2,FAR HILLS,40.685712,-74.633734,"",Gladstone Branch
9,45,8,0,59.7,1.2,FAR HILLS,40.685712,-74.633734,"",Gladstone Branch
9,45,6,1,42.2,16.8,FAR HILLS,40.685712,-74.633734,"",Gladstone Branch
9,45,6,0,45.3,21.4,FAR HILLS,40.685712,-74.633734,"",Gladstone Branch
9,45,14,1,,,FAR HILLS,40.685712,-74.633734,"",Gladstone Branch
9,45,10,1,66.0,24.0,FAR HILLS,40.685712,-74.633734,"",Gladstone Branch
9,45,10,0,,,FAR HILLS,40.685712,-74.633734,"",Gladstone Branch
7,46,8,1,,,GARFIELD,40.866669,-74.10556,"",Port Jervis Line
7,46,8,0,,,GARFIELD,40.866669,-74.10556,"",Port Jervis Line
6,46,8,1,60.5,4.2,GARFIELD,40.866669,-74.10556,"",Main/Bergen County Line
6,46,8,0,62.6,3.7,GARFIELD,40.866669,-74.10556,"",Main/Bergen County Line
7,46,6,0,,,GARFIELD,40.866669,-74.10556,"",Port Jervis Line
6,46,6,1,51.0,16.9,GARFIELD,40.866669,-74.10556,"",Main/Bergen County Line
6,46,6,0,43.6,14.7,GARFIELD,40.866669,-74.10556,"",Main/Bergen County Line
7,46,4,1,,,GARFIELD,40.866669,-74.10556,"",Port Jervis Line
7,46,13,1,,,GARFIELD,40.866669,-74.10556,"",Port Jervis Line
16,47,8,1,,,GARWOOD,40.652569,-74.324794,"",Raritan Valley Line
16,47,8,0,,,GARWOOD,40.652569,-74.324794,"",Raritan Valley Line
16,47,6,1,54.2,15.9,GARWOOD,40.652569,-74.324794,"",Raritan Valley Line
16,47,6,0,50.8,19.3,GARWOOD,40.652569,-74.324794,"",Raritan Valley Line
9,48,9,1,,,GILLETTE,40.678253,-74.468317,"",Gladstone Branch
9,48,8,1,60.0,0.0,GILLETTE,40.678253,-74.468317,"",Gladstone Branch
9,48,8,0,60.0,0.2,GILLETTE,40.678253,-74.468317,"",Gladstone Branch
9,48,6,1,43.0,17.4,GILLETTE,40.678253,-74.468317,"",Gladstone Branch
9,48,6,0,47.1,21.6,GILLETTE,40.678253,-74.468317,"",Gladstone Branch
9,48,14,1,,,GILLETTE,40.678253,-74.468317,"",Gladstone Branch
9,48,10,1,65.5,23.3,GILLETTE,40.678253,-74.468317,"",Gladstone Branch
9,48,10,0,,,GILLETTE,40.678253,-74.468317,"",Gladstone Branch
9,49,9,1,,,GLADSTONE,40.720284,-74.666371,"",Gladstone Branch
9,49,8,1,58.7,5.0,GLADSTONE,40.720284,-74.666371,"",Gladstone Branch
9,49,8,0,59.7,1.2,GLADSTONE,40.720284,-74.666371,"",Gladstone Branch
9,49,6,1,42.2,16.8,GLADSTONE,40.720284,-74.666371,"",Gladstone Branch
9,49,6,0,46.4,19.2,GLADSTONE,40.720284,-74.666371,"",Gladstone Branch
9,49,14,1,,,GLADSTONE,40.720284,-74.666371,"",Gladstone Branch
9,49,10,1,66.5,24.7,GLADSTONE,40.720284,-74.666371,"",Gladstone Branch
9,49,10,0,,,GLADSTONE,40.720284,-74.666371,"",Gladstone Branch
14,5,8,1,63.0,9.8,ANDERSON STREET,40.894458,-74.043781,"",Pascack Valley Line
14,5,8,0,58.0,2.3,ANDERSON STREET,40.894458,-74.043781,"",Pascack Valley Line
14,5,6,1,45.6,21.6,ANDERSON STREET,40.894458,-74.043781,"",Pascack Valley Line
14,5,6,0,48.6,26.1,ANDERSON STREET,40.894458,-74.043781,"",Pascack Valley Line
14,5,4,1,,,ANDERSON STREET,40.894458,-74.043781,"",Pascack Valley Line
14,5,13,1,,,ANDERSON STREET,40.894458,-74.043781,"",Pascack Valley Line
4,50,8,1,,,GLEN RIDGE,40.80059,-74.204655,"",Montclair-Boonton Line
4,50,8,0,,,GLEN RIDGE,40.80059,-74.204655,"",Montclair-Boonton Line
4,50,6,1,48.4,16.2,GLEN RIDGE,40.80059,-74.204655,"",Montclair-Boonton Line
4,50,6,0,49.0,18.6,GLEN RIDGE,40.80059,-74.204655,"",Montclair-Boonton Line
3,50,6,1,71.6,10.0,GLEN RIDGE,40.80059,-74.204655,"",Montclair-Boonton Line
3,50,6,0,80.0,,GLEN RIDGE,40.80059,-74.204655,"",Montclair-Boonton Line
4,50,10,1,,,GLEN RIDGE,40.80059,-74.204655,"",Montclair-Boonton Line
4,50,10,0,,,GLEN RIDGE,40.80059,-74.204655,"",Montclair-Boonton Line
7,51,8,1,,,GLEN ROCK BORO HALL,40.96137,-74.1293,"",Port Jervis Line
7,51,8,0,,,GLEN ROCK BORO HALL,40.96137,-74.1293,"",Port Jervis Line
6,51,8,1,60.6,3.9,GLEN ROCK BORO HALL,40.96137,-74.1293,"",Main/Bergen County Line
6,51,8,0,62.4,3.9,GLEN ROCK BORO HALL,40.96137,-74.1293,"",Main/Bergen County Line
7,51,6,1,,,GLEN ROCK BORO HALL,40.96137,-74.1293,"",Port Jervis Line
7,51,6,0,,,GLEN ROCK BORO HALL,40.96137,-74.1293,"",Port Jervis Line
6,51,6,1,42.9,22.7,GLEN ROCK BORO HALL,40.96137,-74.1293,"",Main/Bergen County Line
6,51,6,0,34.3,17.1,GLEN ROCK BORO HALL,40.96137,-74.1293,"",Main/Bergen County Line
7,51,4,1,,,GLEN ROCK BORO HALL,40.96137,-74.1293,"",Port Jervis Line
7,51,13,1,,,GLEN ROCK BORO HALL,40.96137,-74.1293,"",Port Jervis Line
7,52,8,0,,,GLEN ROCK MAIN LINE,40.962206,-74.133485,"",Port Jervis Line
6,52,8,1,62.4,5.2,GLEN ROCK MAIN LINE,40.962206,-74.133485,"",Main/Bergen County Line
6,52,8,0,60.1,0.7,GLEN ROCK MAIN LINE,40.962206,-74.133485,"",Main/Bergen County Line
7,52,6,1,,,GLEN ROCK MAIN LINE,40.962206,-74.133485,"",Port Jervis Line
7,52,6,0,,,GLEN ROCK MAIN LINE,40.962206,-74.133485,"",Port Jervis Line
6,52,6,1,48.4,16.1,GLEN ROCK MAIN LINE,40.962206,-74.133485,"",Main/Bergen County Line
6,52,6,0,47.7,19.6,GLEN ROCK MAIN LINE,40.962206,-74.133485,"",Main/Bergen County Line
6,52,4,1,,,GLEN ROCK MAIN LINE,40.962206,-74.133485,"",Main/Bergen County Line
6,52,13,1,,,GLEN ROCK MAIN LINE,40.962206,-74.133485,"",Main/Bergen County Line
8,54,6,1,,,HACKETTSTOWN,40.851444,-74.835352,"",Morris & Essex Line
8,54,6,0,74.0,,HACKETTSTOWN,40.851444,-74.835352,"",Morris & Essex Line
3,54,6,1,,,HACKETTSTOWN,40.851444,-74.835352,"",Montclair-Boonton Line
3,54,6,0,,,HACKETTSTOWN,40.851444,-74.835352,"",Montclair-Boonton Line
2,55,8,1,62.8,11.6,HAMMONTON,39.631673,-74.79946,"",Atlantic City Rail Line
2,55,8,0,63.6,5.7,HAMMONTON,39.631673,-74.79946,"",Atlantic City Rail Line
2,55,7,0,,,HAMMONTON,39.631673,-74.79946,"",Atlantic City Rail Line
2,55,6,1,62.3,20.9,HAMMONTON,39.631673,-74.79946,"",Atlantic City Rail Line
2,55,6,0,64.0,9.5,HAMMONTON,39.631673,-74.79946,"",Atlantic City Rail Line
2,55,5,1,,,HAMMONTON,39.631673,-74.79946,"",Atlantic City Rail Line
2,55,5,0,,,HAMMONTON,39.631673,-74.79946,"",Atlantic City Rail Line
2,55,4,0,,,HAMMONTON,39.631673,-74.79946,"",Atlantic City Rail Line
2,55,3,1,,,HAMMONTON,39.631673,-74.79946,"",Atlantic City Rail Line
2,55,3,0,,,HAMMONTON,39.631673,-74.79946,"",Atlantic City Rail Line
2,55,2,1,81.0,,HAMMONTON,39.631673,-74.79946,"",Atlantic City Rail Line
2,55,2,0,,,HAMMONTON,39.631673,-74.79946,"",Atlantic City Rail Line
7,58,8,0,,,HAWTHORNE,40.942539,-74.152411,"",Port Jervis Line
6,58,8,1,62.3,5.2,HAWTHORNE,40.942539,-74.152411,"",Main/Bergen County Line
6,58,8,0,60.1,0.7,HAWTHORNE,40.942539,-74.152411,"",Main/Bergen County Line
7,58,6,1,,,HAWTHORNE,40.942539,-74.152411,"",Port Jervis Line
7,58,6,0,,,HAWTHORNE,40.942539,-74.152411,"",Port Jervis Line
6,58,6,1,48.4,16.1,HAWTHORNE,40.942539,-74.152411,"",Main/Bergen County Line
6,58,6,0,47.7,19.6,HAWTHORNE,40.942539,-74.152411,"",Main/Bergen County Line
6,58,4,1,,,HAWTHORNE,40.942539,-74.152411,"",Main/Bergen County Line
6,58,13,1,,,HAWTHORNE,40.942539,-74.152411,"",Main/Bergen County Line
11,59,8,1,60.0,0.0,HAZLET,40.415385,-74.190393,"",North Jersey Coast Line
11,59,8,0,61.7,6.4,HAZLET,40.415385,-74.190393,"",North Jersey Coast Line
12,59,6,1,34.0,,HAZLET,40.415385,-74.190393,"",North Jersey Coast Line
12,59,6,0,71.0,4.2,HAZLET,40.415385,-74.190393,"",North Jersey Coast Line
11,59,6,1,41.3,15.3,HAZLET,40.415385,-74.190393,"",North Jersey Coast Line
11,59,6,0,39.5,20.7,HAZLET,40.415385,-74.190393,"",North Jersey Coast Line
11,59,4,1,55.0,,HAZLET,40.415385,-74.190393,"",North Jersey Coast Line
11,59,4,0,,,HAZLET,40.415385,-74.190393,"",North Jersey Coast Line
11,59,18,1,,,HAZLET,40.415385,-74.190393,"",North Jersey Coast Line
11,59,17,1,60.0,0.0,HAZLET,40.415385,-74.190393,"",North Jersey Coast Line
11,59,17,0,60.0,0.0,HAZLET,40.415385,-74.190393,"",North Jersey Coast Line
12,59,16,1,31.0,,HAZLET,40.415385,-74.190393,"",North Jersey Coast Line
11,59,16,1,57.5,8.9,HAZLET,40.415385,-74.190393,"",North Jersey Coast Line
11,59,16,0,49.4,12.8,HAZLET,40.415385,-74.190393,"",North Jersey Coast Line
11,59,13,1,55.0,,HAZLET,40.415385,-74.190393,"",North Jersey Coast Line
11,59,13,0,,,HAZLET,40.415385,-74.190393,"",North Jersey Coast Line
16,6,6,1,50.6,15.1,ANNANDALE,40.645173,-74.878569,"",Raritan Valley Line
16,6,6,0,25.5,3.5,ANNANDALE,40.645173,-74.878569,"",Raritan Valley Line
16,60,6,1,50.6,15.5,HIGH BRIDGE,40.666884,-74.895863,"",Raritan Valley Line
16,60,6,0,25.5,3.5,HIGH BRIDGE,40.666884,-74.895863,"",Raritan Valley Line
9,61,9,1,,,HIGHLAND AVENUE,40.766863,-74.243741,"",Gladstone Branch
8,61,8,1,61.0,,HIGHLAND AVENUE,40.766863,-74.243741,"",Morris & Essex Line
8,61,8,0,52.0,,HIGHLAND AVENUE,40.766863,-74.243741,"",Morris & Essex Line
9,61,6,1,49.6,14.2,HIGHLAND AVENUE,40.766863,-74.243741,"",Gladstone Branch
9,61,6,0,62.1,11.2,HIGHLAND AVENUE,40.766863,-74.243741,"",Gladstone Branch
8,61,6,1,34.0,21.1,HIGHLAND AVENUE,40.766863,-74.243741,"",Morris & Essex Line
8,61,6,0,57.7,14.3,HIGHLAND AVENUE,40.766863,-74.243741,"",Morris & Essex Line
8,61,15,1,,,HIGHLAND AVENUE,40.766863,-74.243741,"",Morris & Essex Line
9,61,14,1,,,HIGHLAND AVENUE,40.766863,-74.243741,"",Gladstone Branch
8,61,14,1,,,HIGHLAND AVENUE,40.766863,-74.243741,"",Morris & Essex Line
8,61,13,1,,,HIGHLAND AVENUE,40.766863,-74.243741,"",Morris & Essex Line
14,62,8,1,60.0,14.1,HILLSDALE,41.002414,-74.041033,"",Pascack Valley Line
14,62,8,0,58.2,6.7,HILLSDALE,41.002414,-74.041033,"",Pascack Valley Line
14,62,6,1,46.1,21.0,HILLSDALE,41.002414,-74.041033,"",Pascack Valley Line
14,62,6,0,35.5,23.2,HILLSDALE,41.002414,-74.041033,"",Pascack Valley Line
14,62,4,1,,,HILLSDALE,41.002414,-74.041033,"",Pascack Valley Line
14,62,13,1,,,HILLSDALE,41.002414,-74.041033,"",Pascack Valley Line
9,63,9,1,,,HOBOKEN,40.734843,-74.028046,"",Gladstone Branch
8,63,8,1,,,HOBOKEN,40.734843,-74.028046,"",Morris & Essex Line
8,63,8,0,,,HOBOKEN,40.734843,-74.028046,"",Morris & Essex Line
7,63,8,1,,,HOBOKEN,40.734843,-74.028046,"",Port Jervis Line
7,63,8,0,,,HOBOKEN,40.734843,-74.028046,"",Port Jervis Line
6,63,8,1,41.4,24.5,HOBOKEN,40.734843,-74.028046,"",Main/Bergen County Line
6,63,8,0,33.4,25.8,HOBOKEN,40.734843,-74.028046,"",Main/Bergen County Line
4,63,8,1,,,HOBOKEN,40.734843,-74.028046,"",Montclair-Boonton Line
4,63,8,0,,,HOBOKEN,40.734843,-74.028046,"",Montclair-Boonton Line
14,63,8,1,60.4,6.6,HOBOKEN,40.734843,-74.028046,"",Pascack Valley Line
14,63,8,0,60.6,4.4,HOBOKEN,40.734843,-74.028046,"",Pascack Valley Line
9,63,6,1,45.2,17.2,HOBOKEN,40.734843,-74.028046,"",Gladstone Branch
9,63,6,0,51.8,18.0,HOBOKEN,40.734843,-74.028046,"",Gladstone Branch
8,63,6,1,34.8,20.2,HOBOKEN,40.734843,-74.028046,"",Morris & Essex Line
8,63,6,0,51.3,23.9,HOBOKEN,40.734843,-74.028046,"",Morris & Essex Line
7,63,6,1,,,HOBOKEN,40.734843,-74.028046,"",Port Jervis Line
7,63,6,0,,,HOBOKEN,40.734843,-74.028046,"",Port Jervis Line
6,63,6,1,23.7,18.8,HOBOKEN,40.734843,-74.028046,"",Main/Bergen County Line
6,63,6,0,25.0,18.2,HOBOKEN,40.734843,-74.028046,"",Main/Bergen County Line
4,63,6,1,44.0,,HOBOKEN,40.734843,-74.028046,"",Montclair-Boonton Line
4,63,6,0,41.0,,HOBOKEN,40.734843,-74.028046,"",Montclair-Boonton Line
3,63,6,1,53.7,19.0,HOBOKEN,40.734843,-74.028046,"",Montclair-Boonton Line
3,63,6,0,48.2,24.1,HOBOKEN,40.734843,-74.028046,"",Montclair-Boonton Line
16,63,6,0,,,HOBOKEN,40.734843,-74.028046,"",Raritan Valley Line
14,63,6,1,45.5,24.4,HOBOKEN,40.734843,-74.028046,"",Pascack Valley Line
14,63,6,0,42.2,28.2,HOBOKEN,40.734843,-74.028046,"",Pascack Valley Line
12,63,6,1,34.0,,HOBOKEN,40.734843,-74.028046,"",North Jersey Coast Line
12,63,6,0,46.6,18.1,HOBOKEN,40.734843,-74.028046,"",North Jersey Coast Line
7,63,4,1,,,HOBOKEN,40.734843,-74.028046,"",Port Jervis Line
6,63,4,1,,,HOBOKEN,40.734843,-74.028046,"",Main/Bergen County Line
14,63,4,1,,,HOBOKEN,40.734843,-74.028046,"",Pascack Valley Line
18,63,27,0,,,HOBOKEN,40.734843,-74.028046,"",Meadowlands Rail Line
18,63,26,1,17.4,12.9,HOBOKEN,40.734843,-74.028046,"",Meadowlands Rail Line
18,63,26,0,25.8,24.1,HOBOKEN,40.734843,-74.028046,"",Meadowlands Rail Line
18,63,25,0,15.0,0.0,HOBOKEN,40.734843,-74.028046,"",Meadowlands Rail Line
18,63,24,1,21.2,16.8,HOBOKEN,40.734843,-74.028046,"",Meadowlands Rail Line
18,63,24,0,26.4,22.8,HOBOKEN,40.734843,-74.028046,"",Meadowlands Rail Line
18,63,23,1,52.2,21.9,HOBOKEN,40.734843,-74.028046,"",Meadowlands Rail Line
18,63,23,0,19.8,18.5,HOBOKEN,40.734843,-74.028046,"",Meadowlands Rail Line
18,63,22,1,65.0,20.0,HOBOKEN,40.734843,-74.028046,"",Meadowlands Rail Line
18,63,22,0,62.0,,HOBOKEN,40.734843,-74.028046,"",Meadowlands Rail Line
18,63,21,1,24.5,21.3,HOBOKEN,40.734843,-74.028046,"",Meadowlands Rail Line
18,63,21,0,19.8,17.6,HOBOKEN,40.734843,-74.028046,"",Meadowlands Rail Line
12,63,16,1,35.0,,HOBOKEN,40.734843,-74.028046,"",North Jersey Coast Line
12,63,16,0,,,HOBOKEN,40.734843,-74.028046,"",North Jersey Coast Line
9,63,14,1,,,HOBOKEN,40.734843,-74.028046,"",Gladstone Branch
7,63,13,1,,,HOBOKEN,40.734843,-74.028046,"",Port Jervis Line
6,63,13,1,,,HOBOKEN,40.734843,-74.028046,"",Main/Bergen County Line
14,63,13,1,,,HOBOKEN,40.734843,-74.028046,"",Pascack Valley Line
4,63,10,1,,,HOBOKEN,40.734843,-74.028046,"",Montclair-Boonton Line
4,63,10,0,,,HOBOKEN,40.734843,-74.028046,"",Montclair-Boonton Line
7,64,8,1,,,HOHOKUS,40.997369,-74.113521,"",Port Jervis Line
7,64,8,0,,,HOHOKUS,40.997369,-74.113521,"",Port Jervis Line
6,64,8,1,41.6,22.1,HOHOKUS,40.997369,-74.113521,"",Main/Bergen County Line
6,64,8,0,32.2,23.0,HOHOKUS,40.997369,-74.113521,"",Main/Bergen County Line
7,64,6,1,,,HOHOKUS,40.997369,-74.113521,"",Port Jervis Line
7,64,6,0,,,HOHOKUS,40.997369,-74.113521,"",Port Jervis Line
6,64,6,1,29.3,19.4,HOHOKUS,40.997369,-74.113521,"",Main/Bergen County Line
6,64,6,0,28.3,18.9,HOHOKUS,40.997369,-74.113521,"",Main/Bergen County Line
7,64,4,1,,,HOHOKUS,40.997369,-74.113521,"",Port Jervis Line
6,64,4,1,,,HOHOKUS,40.997369,-74.113521,"",Main/Bergen County Line
7,64,13,1,,,HOHOKUS,40.997369,-74.113521,"",Port Jervis Line
6,64,13,1,,,HOHOKUS,40.997369,-74.113521,"",Main/Bergen County Line
7,66,8,0,,,KINGSLAND,40.810121,-74.117334,"",Port Jervis Line
6,66,8,1,62.1,6.0,KINGSLAND,40.810121,-74.117334,"",Main/Bergen County Line
6,66,8,0,60.2,1.3,KINGSLAND,40.810121,-74.117334,"",Main/Bergen County Line
7,66,6,1,,,KINGSLAND,40.810121,-74.117334,"",Port Jervis Line
7,66,6,0,,,KINGSLAND,40.810121,-74.117334,"",Port Jervis Line
6,66,6,1,48.4,16.6,KINGSLAND,40.810121,-74.117334,"",Main/Bergen County Line
6,66,6,0,47.6,19.4,KINGSLAND,40.810121,-74.117334,"",Main/Bergen County Line
6,66,4,1,,,KINGSLAND,40.810121,-74.117334,"",Main/Bergen County Line
6,66,13,1,,,KINGSLAND,40.810121,-74.117334,"",Main/Bergen County Line
8,67,6,1,42.6,6.8,LAKE HOPATCONG,40.904219,-74.665697,"",Morris & Essex Line
8,67,6,0,58.5,17.7,LAKE HOPATCONG,40.904219,-74.665697,"",Morris & Essex Line
3,67,6,1,58.3,17.6,LAKE HOPATCONG,40.904219,-74.665697,"",Montclair-Boonton Line
3,67,6,0,62.3,12.8,LAKE HOPATCONG,40.904219,-74.665697,"",Montclair-Boonton Line
16,68,6,1,51.0,14.7,LEBANON,40.636905,-74.835766,"",Raritan Valley Line
16,68,6,0,25.5,3.5,LEBANON,40.636905,-74.835766,"",Raritan Valley Line
3,69,6,1,54.2,17.5,LINCOLN PARK,40.924138,-74.301826,"",Montclair-Boonton Line
3,69,6,0,47.0,24.4,LINCOLN PARK,40.924138,-74.301826,"",Montclair-Boonton Line
11,70,8,1,60.0,0.3,LINDEN,40.629485,-74.251772,"",North Jersey Coast Line
11,70,8,0,61.7,6.6,LINDEN,40.629485,-74.251772,"",North Jersey Coast Line
10,70,8,1,46.8,16.3,LINDEN,40.629485,-74.251772,"",Northeast Corridor
10,70,8,0,49.5,20.2,LINDEN,40.629485,-74.251772,"",Northeast Corridor
11,70,6,1,45.5,15.4,LINDEN,40.629485,-74.251772,"",North Jersey Coast Line
11,70,6,0,47.9,16.8,LINDEN,40.629485,-74.251772,"",North Jersey Coast Line
10,70,6,1,32.5,11.9,LINDEN,40.629485,-74.251772,"",Northeast Corridor
10,70,6,0,41.4,15.1,LINDEN,40.629485,-74.251772,"",Northeast Corridor
11,70,4,1,55.0,,LINDEN,40.629485,-74.251772,"",North Jersey Coast Line
11,70,4,0,,,LINDEN,40.629485,-74.251772,"",North Jersey Coast Line
10,70,4,1,39.0,,LINDEN,40.629485,-74.251772,"",Northeast Corridor
10,70,4,0,,,LINDEN,40.629485,-74.251772,"",Northeast Corridor
11,70,17,1,60.0,0.5,LINDEN,40.629485,-74.251772,"",North Jersey Coast Line
11,70,17,0,60.0,0.0,LINDEN,40.629485,-74.251772,"",North Jersey Coast Line
11,70,16,1,60.8,4.3,LINDEN,40.629485,-74.251772,"",North Jersey Coast Line
11,70,16,0,58.6,1.9,LINDEN,40.629485,-74.251772,"",North Jersey Coast Line
11,70,13,1,55.0,,LINDEN,40.629485,-74.251772,"",North Jersey Coast Line
11,70,13,0,,,LINDEN,40.629485,-74.251772,"",North Jersey Coast Line
10,70,13,1,,,LINDEN,40.629485,-74.251772,"",Northeast Corridor
10,70,13,0,,,LINDEN,40.629485,-74.251772,"",Northeast Corridor
2,71,9,1,,,LINDENWOLD,39.833809,-75.000314,"",Atlantic City Rail Line
2,71,9,0,,,LINDENWOLD,39.833809,-75.000314,"",Atlantic City Rail Line
2,71,8,1,64.6,11.6,LINDENWOLD,39.833809,-75.000314,"",Atlantic City Rail Line
2,71,8,0,63.8,8.3,LINDENWOLD,39.833809,-75.000314,"",Atlantic City Rail Line
2,71,7,0,,,LINDENWOLD,39.833809,-75.000314,"",Atlantic City Rail Line
2,71,6,1,68.7,21.7,LINDENWOLD,39.833809,-75.000314,"",Atlantic City Rail Line
2,71,6,0,65.2,8.6,LINDENWOLD,39.833809,-75.000314,"",Atlantic City Rail Line
2,71,5,1,,,LINDENWOLD,39.833809,-75.000314,"",Atlantic City Rail Line
2,71,5,0,,,LINDENWOLD,39.833809,-75.000314,"",Atlantic City Rail Line
2,71,4,0,,,LINDENWOLD,39.833809,-75.000314,"",Atlantic City Rail Line
2,71,3,1,,,LINDENWOLD,39.833809,-75.000314,"",Atlantic City Rail Line
2,71,3,0,,,LINDENWOLD,39.833809,-75.000314,"",Atlantic City Rail Line
2,71,2,1,,,LINDENWOLD,39.833809,-75.000314,"",Atlantic City Rail Line
2,71,2,0,,,LINDENWOLD,39.833809,-75.000314,"",Atlantic City Rail Line
3,72,6,1,54.2,17.4,LITTLE FALLS,40.880669,-74.235372,"",Montclair-Boonton Line
3,72,6,0,47.0,24.4,LITTLE FALLS,40.880669,-74.235372,"",Montclair-Boonton Line
11,73,8,1,60.0,0.0,LITTLE SILVER,40.326715,-74.041054,"",North Jersey Coast Line
11,73,8,0,61.7,6.1,LITTLE SILVER,40.326715,-74.041054,"",North Jersey Coast Line
12,73,6,1,34.0,,LITTLE SILVER,40.326715,-74.041054,"",North Jersey Coast Line
12,73,6,0,47.0,18.2,LITTLE SILVER,40.326715,-74.041054,"",North Jersey Coast Line
11,73,6,1,41.5,15.7,LITTLE SILVER,40.326715,-74.041054,"",North Jersey Coast Line
11,73,6,0,39.3,20.6,LITTLE SILVER,40.326715,-74.041054,"",North Jersey Coast Line
11,73,4,1,55.0,,LITTLE SILVER,40.326715,-74.041054,"",North Jersey Coast Line
11,73,4,0,,,LITTLE SILVER,40.326715,-74.041054,"",North Jersey Coast Line
11,73,18,1,,,LITTLE SILVER,40.326715,-74.041054,"",North Jersey Coast Line
11,73,17,1,60.0,0.0,LITTLE SILVER,40.326715,-74.041054,"",North Jersey Coast Line
11,73,17,0,60.0,0.0,LITTLE SILVER,40.326715,-74.041054,"",North Jersey Coast Line
12,73,16,1,31.0,,LITTLE SILVER,40.326715,-74.041054,"",North Jersey Coast Line
12,73,16,0,,,LITTLE SILVER,40.326715,-74.041054,"",North Jersey Coast Line
11,73,16,1,57.6,8.5,LITTLE SILVER,40.326715,-74.041054,"",North Jersey Coast Line
11,73,16,0,49.3,13.1,LITTLE SILVER,40.326715,-74.041054,"",North Jersey Coast Line
11,73,13,1,55.0,,LITTLE SILVER,40.326715,-74.041054,"",North Jersey Coast Line
11,73,13,0,,,LITTLE SILVER,40.326715,-74.041054,"",North Jersey Coast Line
12,74,9,1,54.0,,LONG BRANCH,40.297145,-73.988331,"",North Jersey Coast Line
12,74,8,1,60.0,0.0,LONG BRANCH,40.297145,-73.988331,"",North Jersey Coast Line
12,74,8,0,60.0,0.0,LONG BRANCH,40.297145,-73.988331,"",North Jersey Coast Line
11,74,8,1,60.0,0.0,LONG BRANCH,40.297145,-73.988331,"",North Jersey Coast Line
11,74,8,0,61.7,6.1,LONG BRANCH,40.297145,-73.988331,"",North Jersey Coast Line
12,74,6,1,52.0,19.6,LONG BRANCH,40.297145,-73.988331,"",North Jersey Coast Line
12,74,6,0,49.2,17.5,LONG BRANCH,40.297145,-73.988331,"",North Jersey Coast Line
11,74,6,1,42.4,16.3,LONG BRANCH,40.297145,-73.988331,"",North Jersey Coast Line
11,74,6,0,39.2,20.6,LONG BRANCH,40.297145,-73.988331,"",North Jersey Coast Line
12,74,4,1,,,LONG BRANCH,40.297145,-73.988331,"",North Jersey Coast Line
11,74,4,1,55.0,,LONG BRANCH,40.297145,-73.988331,"",North Jersey Coast Line
11,74,4,0,,,LONG BRANCH,40.297145,-73.988331,"",North Jersey Coast Line
12,74,20,1,,,LONG BRANCH,40.297145,-73.988331,"",North Jersey Coast Line
12,74,19,1,,,LONG BRANCH,40.297145,-73.988331,"",North Jersey Coast Line
12,74,19,0,,,LONG BRANCH,40.297145,-73.988331,"",North Jersey Coast Line
11,74,18,1,,,LONG BRANCH,40.297145,-73.988331,"",North Jersey Coast Line
11,74,17,1,60.0,0.0,LONG BRANCH,40.297145,-73.988331,"",North Jersey Coast Line
11,74,17,0,60.0,0.0,LONG BRANCH,40.297145,-73.988331,"",North Jersey Coast Line
12,74,16,1,30.0,,LONG BRANCH,40.297145,-73.988331,"",North Jersey Coast Line
12,74,16,0,,,LONG BRANCH,40.297145,-73.988331,"",North Jersey Coast Line
11,74,16,1,56.8,10.4,LONG BRANCH,40.297145,-73.988331,"",North Jersey Coast Line
11,74,16,0,49.4,13.2,LONG BRANCH,40.297145,-73.988331,"",North Jersey Coast Line
12,74,15,1,,,LONG BRANCH,40.297145,-73.988331,"",North Jersey Coast Line
12,74,14,1,53.0,,LONG BRANCH,40.297145,-73.988331,"",North Jersey Coast Line
12,74,13,1,,,LONG BRANCH,40.297145,-73.988331,"",North Jersey Coast Line
11,74,13,1,55.0,,LONG BRANCH,40.297145,-73.988331,"",North Jersey Coast Line
11,74,13,0,,,LONG BRANCH,40.297145,-73.988331,"",North Jersey Coast Line
7,75,8,0,,,LYNDHURST,40.816475,-74.124164,"",Port Jervis Line
6,75,8,1,62.1,5.6,LYNDHURST,40.816475,-74.124164,"",Main/Bergen County Line
6,75,8,0,60.2,1.1,LYNDHURST,40.816475,-74.124164,"",Main/Bergen County Line
7,75,6,1,,,LYNDHURST,40.816475,-74.124164,"",Port Jervis Line
7,75,6,0,,,LYNDHURST,40.816475,-74.124164,"",Port Jervis Line
6,75,6,1,51.0,17.4,LYNDHURST,40.816475,-74.124164,"",Main/Bergen County Line
6,75,6,0,47.7,19.4,LYNDHURST,40.816475,-74.124164,"",Main/Bergen County Line
6,75,4,1,,,LYNDHURST,40.816475,-74.124164,"",Main/Bergen County Line
6,75,13,1,,,LYNDHURST,40.816475,-74.124164,"",Main/Bergen County Line
9,76,9,1,,,LYONS,40.684844,-74.54947,"",Gladstone Branch
9,76,8,1,60.0,0.0,LYONS,40.684844,-74.54947,"",Gladstone Branch
9,76,8,0,59.7,1.2,LYONS,40.684844,-74.54947,"",Gladstone Branch
9,76,6,1,42.4,16.7,LYONS,40.684844,-74.54947,"",Gladstone Branch
9,76,6,0,47.1,21.7,LYONS,40.684844,-74.54947,"",Gladstone Branch
9,76,14,1,,,LYONS,40.684844,-74.54947,"",Gladstone Branch
9,76,10,1,65.5,23.3,LYONS,40.684844,-74.54947,"",Gladstone Branch
9,76,10,0,,,LYONS,40.684844,-74.54947,"",Gladstone Branch
8,77,9,0,,,MADISON,40.757028,-74.415105,"",Morris & Essex Line
8,77,8,1,60.0,0.0,MADISON,40.757028,-74.415105,"",Morris & Essex Line
8,77,8,0,59.4,2.2,MADISON,40.757028,-74.415105,"",Morris & Essex Line
8,77,6,1,31.9,16.3,MADISON,40.757028,-74.415105,"",Morris & Essex Line
8,77,6,0,30.6,17.6,MADISON,40.757028,-74.415105,"",Morris & Essex Line
8,77,4,1,,,MADISON,40.757028,-74.415105,"",Morris & Essex Line
8,77,15,1,,,MADISON,40.757028,-74.415105,"",Morris & Essex Line
8,77,14,1,,,MADISON,40.757028,-74.415105,"",Morris & Essex Line
8,77,14,0,,,MADISON,40.757028,-74.415105,"",Morris & Essex Line
8,77,13,1,46.0,,MADISON,40.757028,-74.415105,"",Morris & Essex Line
7,78,8,1,,,MAHWAH,41.094416,-74.14662,"",Port Jervis Line
7,78,8,0,,,MAHWAH,41.094416,-74.14662,"",Port Jervis Line
6,78,8,1,62.5,5.2,MAHWAH,41.094416,-74.14662,"",Main/Bergen County Line
6,78,8,0,60.0,0.0,MAHWAH,41.094416,-74.14662,"",Main/Bergen County Line
7,78,6,1,,,MAHWAH,41.094416,-74.14662,"",Port Jervis Line
7,78,6,0,,,MAHWAH,41.094416,-74.14662,"",Port Jervis Line
6,78,6,1,40.8,15.1,MAHWAH,41.094416,-74.14662,"",Main/Bergen County Line
6,78,6,0,38.0,19.3,MAHWAH,41.094416,-74.14662,"",Main/Bergen County Line
7,78,4,1,,,MAHWAH,41.094416,-74.14662,"",Port Jervis Line
6,78,4,1,,,MAHWAH,41.094416,-74.14662,"",Main/Bergen County Line
7,78,13,1,,,MAHWAH,41.094416,-74.14662,"",Port Jervis Line
6,78,13,1,,,MAHWAH,41.094416,-74.14662,"",Main/Bergen County Line
12,79,9,1,52.0,,MANASQUAN,40.120573,-74.047688,"",North Jersey Coast Line
12,79,8,1,60.0,0.0,MANASQUAN,40.120573,-74.047688,"",North Jersey Coast Line
12,79,8,0,60.0,0.0,MANASQUAN,40.120573,-74.047688,"",North Jersey Coast Line
12,79,6,1,52.1,19.5,MANASQUAN,40.120573,-74.047688,"",North Jersey Coast Line
12,79,6,0,49.0,17.5,MANASQUAN,40.120573,-74.047688,"",North Jersey Coast Line
12,79,4,1,,,MANASQUAN,40.120573,-74.047688,"",North Jersey Coast Line
12,79,20,1,,,MANASQUAN,40.120573,-74.047688,"",North Jersey Coast Line
12,79,19,1,,,MANASQUAN,40.120573,-74.047688,"",North Jersey Coast Line
12,79,19,0,,,MANASQUAN,40.120573,-74.047688,"",North Jersey Coast Line
12,79,16,1,31.0,,MANASQUAN,40.120573,-74.047688,"",North Jersey Coast Line
12,79,16,0,,,MANASQUAN,40.120573,-74.047688,"",North Jersey Coast Line
12,79,15,1,,,MANASQUAN,40.120573,-74.047688,"",North Jersey Coast Line
12,79,14,1,51.0,,MANASQUAN,40.120573,-74.047688,"",North Jersey Coast Line
12,79,13,1,,,MANASQUAN,40.120573,-74.047688,"",North Jersey Coast Line
12,8,9,1,54.0,,ASBURY PARK,40.215359,-74.014786,"",North Jersey Coast Line
12,8,8,1,60.0,0.0,ASBURY PARK,40.215359,-74.014786,"",North Jersey Coast Line
12,8,8,0,60.0,0.0,ASBURY PARK,40.215359,-74.014786,"",North Jersey Coast Line
12,8,6,1,52.1,19.5,ASBURY PARK,40.215359,-74.014786,"",North Jersey Coast Line
12,8,6,0,49.1,17.9,ASBURY PARK,40.215359,-74.014786,"",North Jersey Coast Line
12,8,4,1,,,ASBURY PARK,40.215359,-74.014786,"",North Jersey Coast Line
12,8,20,1,,,ASBURY PARK,40.215359,-74.014786,"",North Jersey Coast Line
12,8,19,1,,,ASBURY PARK,40.215359,-74.014786,"",North Jersey Coast Line
12,8,19,0,,,ASBURY PARK,40.215359,-74.014786,"",North Jersey Coast Line
12,8,16,1,30.0,,ASBURY PARK,40.215359,-74.014786,"",North Jersey Coast Line
12,8,16,0,,,ASBURY PARK,40.215359,-74.014786,"",North Jersey Coast Line
12,8,15,1,,,ASBURY PARK,40.215359,-74.014786,"",North Jersey Coast Line
12,8,14,1,53.0,,ASBURY PARK,40.215359,-74.014786,"",North Jersey Coast Line
12,8,13,1,,,ASBURY PARK,40.215359,-74.014786,"",North Jersey Coast Line
9,81,9,1,,,MAPLEWOOD,40.731149,-74.275427,"",Gladstone Branch
8,81,8,1,60.0,0.0,MAPLEWOOD,40.731149,-74.275427,"",Morris & Essex Line
8,81,8,0,59.5,1.8,MAPLEWOOD,40.731149,-74.275427,"",Morris & Essex Line
9,81,6,1,52.3,18.4,MAPLEWOOD,40.731149,-74.275427,"",Gladstone Branch
9,81,6,0,64.7,12.9,MAPLEWOOD,40.731149,-74.275427,"",Gladstone Branch
8,81,6,1,32.2,18.0,MAPLEWOOD,40.731149,-74.275427,"",Morris & Essex Line
8,81,6,0,31.3,17.4,MAPLEWOOD,40.731149,-74.275427,"",Morris & Essex Line
8,81,4,1,,,MAPLEWOOD,40.731149,-74.275427,"",Morris & Essex Line
8,81,15,1,,,MAPLEWOOD,40.731149,-74.275427,"",Morris & Essex Line
9,81,14,1,,,MAPLEWOOD,40.731149,-74.275427,"",Gladstone Branch
8,81,14,1,,,MAPLEWOOD,40.731149,-74.275427,"",Morris & Essex Line
8,81,13,1,45.0,,MAPLEWOOD,40.731149,-74.275427,"",Morris & Essex Line
10,83,8,1,38.7,15.0,METROPARK,40.56864,-74.329394,"",Northeast Corridor
10,83,8,0,38.0,13.3,METROPARK,40.56864,-74.329394,"",Northeast Corridor
10,83,6,1,23.0,10.4,METROPARK,40.56864,-74.329394,"",Northeast Corridor
10,83,6,0,23.5,14.0,METROPARK,40.56864,-74.329394,"",Northeast Corridor
10,83,4,1,40.0,,METROPARK,40.56864,-74.329394,"",Northeast Corridor
10,83,4,0,,,METROPARK,40.56864,-74.329394,"",Northeast Corridor
10,83,13,1,,,METROPARK,40.56864,-74.329394,"",Northeast Corridor
10,83,13,0,,,METROPARK,40.56864,-74.329394,"",Northeast Corridor
10,84,8,1,38.7,15.0,METUCHEN,40.540736,-74.360671,"",Northeast Corridor
10,84,8,0,38.0,13.3,METUCHEN,40.540736,-74.360671,"",Northeast Corridor
10,84,6,1,23.5,10.1,METUCHEN,40.540736,-74.360671,"",Northeast Corridor
10,84,6,0,24.5,14.3,METUCHEN,40.540736,-74.360671,"",Northeast Corridor
10,84,4,1,40.0,,METUCHEN,40.540736,-74.360671,"",Northeast Corridor
10,84,4,0,,,METUCHEN,40.540736,-74.360671,"",Northeast Corridor
10,84,13,1,,,METUCHEN,40.540736,-74.360671,"",Northeast Corridor
10,84,13,0,,,METUCHEN,40.540736,-74.360671,"",Northeast Corridor
11,85,8,1,60.0,0.0,MIDDLETOWN NJ,40.38978,-74.116131,"",North Jersey Coast Line
11,85,8,0,61.7,6.4,MIDDLETOWN NJ,40.38978,-74.116131,"",North Jersey Coast Line
12,85,6,1,34.0,,MIDDLETOWN NJ,40.38978,-74.116131,"",North Jersey Coast Line
12,85,6,0,47.3,17.9,MIDDLETOWN NJ,40.38978,-74.116131,"",North Jersey Coast Line
11,85,6,1,41.4,15.3,MIDDLETOWN NJ,40.38978,-74.116131,"",North Jersey Coast Line
11,85,6,0,39.4,20.6,MIDDLETOWN NJ,40.38978,-74.116131,"",North Jersey Coast Line
11,85,4,1,55.0,,MIDDLETOWN NJ,40.38978,-74.116131,"",North Jersey Coast Line
11,85,4,0,,,MIDDLETOWN NJ,40.38978,-74.116131,"",North Jersey Coast Line
11,85,18,1,,,MIDDLETOWN NJ,40.38978,-74.116131,"",North Jersey Coast Line
11,85,17,1,60.0,0.0,MIDDLETOWN NJ,40.38978,-74.116131,"",North Jersey Coast Line
11,85,17,0,60.0,0.0,MIDDLETOWN NJ,40.38978,-74.116131,"",North Jersey Coast Line
12,85,16,1,31.0,,MIDDLETOWN NJ,40.38978,-74.116131,"",North Jersey Coast Line
12,85,16,0,,,MIDDLETOWN NJ,40.38978,-74.116131,"",North Jersey Coast Line
11,85,16,1,57.5,8.9,MIDDLETOWN NJ,40.38978,-74.116131,"",North Jersey Coast Line
11,85,16,0,49.4,12.8,MIDDLETOWN NJ,40.38978,-74.116131,"",North Jersey Coast Line
11,85,13,1,55.0,,MIDDLETOWN NJ,40.38978,-74.116131,"",North Jersey Coast Line
11,85,13,0,,,MIDDLETOWN NJ,40.38978,-74.116131,"",North Jersey Coast Line
9,87,9,1,,,MILLBURN,40.725622,-74.303755,"",Gladstone Branch
8,87,9,0,,,MILLBURN,40.725622,-74.303755,"",Morris & Essex Line
8,87,8,1,60.0,0.0,MILLBURN,40.725622,-74.303755,"",Morris & Essex Line
8,87,8,0,59.5,2.0,MILLBURN,40.725622,-74.303755,"",Morris & Essex Line
9,87,6,1,47.2,18.0,MILLBURN,40.725622,-74.303755,"",Gladstone Branch
9,87,6,0,53.6,17.5,MILLBURN,40.725622,-74.303755,"",Gladstone Branch
8,87,6,1,34.1,17.1,MILLBURN,40.725622,-74.303755,"",Morris & Essex Line
8,87,6,0,35.4,17.2,MILLBURN,40.725622,-74.303755,"",Morris & Essex Line
8,87,4,1,,,MILLBURN,40.725622,-74.303755,"",Morris & Essex Line
8,87,15,1,,,MILLBURN,40.725622,-74.303755,"",Morris & Essex Line
9,87,14,1,,,MILLBURN,40.725622,-74.303755,"",Gladstone Branch
8,87,14,1,,,MILLBURN,40.725622,-74.303755,"",Morris & Essex Line
8,87,14,0,,,MILLBURN,40.725622,-74.303755,"",Morris & Essex Line
8,87,13,1,45.0,,MILLBURN,40.725622,-74.303755,"",Morris & Essex Line
9,88,9,1,,,MILLINGTON,40.673515,-74.523606,"",Gladstone Branch
9,88,8,1,60.0,0.0,MILLINGTON,40.673515,-74.523606,"",Gladstone Branch
9,88,8,0,59.7,1.2,MILLINGTON,40.673515,-74.523606,"",Gladstone Branch
9,88,6,1,42.4,16.7,MILLINGTON,40.673515,-74.523606,"",Gladstone Branch
9,88,6,0,47.1,21.6,MILLINGTON,40.673515,-74.523606,"",Gladstone Branch
9,88,14,1,,,MILLINGTON,40.673515,-74.523606,"",Gladstone Branch
9,88,10,1,65.5,23.3,MILLINGTON,40.673515,-74.523606,"",Gladstone Branch
9,88,10,0,,,MILLINGTON,40.673515,-74.523606,"",Gladstone Branch
4,89,6,1,46.4,16.5,MONTCLAIR HEIGHTS,40.857536,-74.2025,"",Montclair-Boonton Line
4,89,6,0,46.9,20.3,MONTCLAIR HEIGHTS,40.857536,-74.2025,"",Montclair-Boonton Line
3,89,6,1,75.0,4.2,MONTCLAIR HEIGHTS,40.857536,-74.2025,"",Montclair-Boonton Line
3,89,6,0,80.0,,MONTCLAIR HEIGHTS,40.857536,-74.2025,"",Montclair-Boonton Line
2,9,8,1,63.2,11.2,ATCO,39.783547,-74.907588,"",Atlantic City Rail Line
2,9,8,0,63.8,8.7,ATCO,39.783547,-74.907588,"",Atlantic City Rail Line
2,9,7,0,,,ATCO,39.783547,-74.907588,"",Atlantic City Rail Line
2,9,6,1,61.0,22.9,ATCO,39.783547,-74.907588,"",Atlantic City Rail Line
2,9,6,0,65.2,9.5,ATCO,39.783547,-74.907588,"",Atlantic City Rail Line
2,9,5,1,,,ATCO,39.783547,-74.907588,"",Atlantic City Rail Line
2,9,5,0,,,ATCO,39.783547,-74.907588,"",Atlantic City Rail Line
2,9,4,0,,,ATCO,39.783547,-74.907588,"",Atlantic City Rail Line
2,9,3,1,,,ATCO,39.783547,-74.907588,"",Atlantic City Rail Line
2,9,3,0,,,ATCO,39.783547,-74.907588,"",Atlantic City Rail Line
2,9,2,1,,,ATCO,39.783547,-74.907588,"",Atlantic City Rail Line
2,9,2,0,,,ATCO,39.783547,-74.907588,"",Atlantic City Rail Line
14,90,8,1,60.0,14.1,MONTVALE,41.040879,-74.029152,"",Pascack Valley Line
14,90,8,0,57.0,4.2,MONTVALE,41.040879,-74.029152,"",Pascack Valley Line
14,90,6,1,46.2,21.1,MONTVALE,41.040879,-74.029152,"",Pascack Valley Line
14,90,6,0,35.5,23.0,MONTVALE,41.040879,-74.029152,"",Pascack Valley Line
14,90,4,1,,,MONTVALE,41.040879,-74.029152,"",Pascack Valley Line
14,90,13,1,,,MONTVALE,41.040879,-74.029152,"",Pascack Valley Line
8,91,9,0,,,MORRIS PLAINS,40.828639,-74.478197,"",Morris & Essex Line
8,91,8,1,60.0,0.0,MORRIS PLAINS,40.828639,-74.478197,"",Morris & Essex Line
8,91,8,0,59.2,2.5,MORRIS PLAINS,40.828639,-74.478197,"",Morris & Essex Line
8,91,6,1,31.9,16.3,MORRIS PLAINS,40.828639,-74.478197,"",Morris & Essex Line
8,91,6,0,30.5,17.6,MORRIS PLAINS,40.828639,-74.478197,"",Morris & Essex Line
8,91,4,1,,,MORRIS PLAINS,40.828639,-74.478197,"",Morris & Essex Line
8,91,15,1,,,MORRIS PLAINS,40.828639,-74.478197,"",Morris & Essex Line
8,91,14,1,,,MORRIS PLAINS,40.828639,-74.478197,"",Morris & Essex Line
8,91,14,0,,,MORRIS PLAINS,40.828639,-74.478197,"",Morris & Essex Line
8,91,13,1,46.0,,MORRIS PLAINS,40.828639,-74.478197,"",Morris & Essex Line
8,92,9,0,,,MORRISTOWN,40.797113,-74.474086,"",Morris & Essex Line
8,92,8,1,60.0,0.0,MORRISTOWN,40.797113,-74.474086,"",Morris & Essex Line
8,92,8,0,59.4,2.5,MORRISTOWN,40.797113,-74.474086,"",Morris & Essex Line
8,92,6,1,31.9,16.2,MORRISTOWN,40.797113,-74.474086,"",Morris & Essex Line
8,92,6,0,30.5,17.7,MORRISTOWN,40.797113,-74.474086,"",Morris & Essex Line
8,92,4,1,,,MORRISTOWN,40.797113,-74.474086,"",Morris & Essex Line
8,92,15,1,,,MORRISTOWN,40.797113,-74.474086,"",Morris & Essex Line
8,92,14,1,,,MORRISTOWN,40.797113,-74.474086,"",Morris & Essex Line
8,92,14,0,,,MORRISTOWN,40.797113,-74.474086,"",Morris & Essex Line
8,92,13,1,46.0,,MORRISTOWN,40.797113,-74.474086,"",Morris & Essex Line
8,93,6,1,64.0,26.8,MOUNT OLIVE,40.907376,-74.730653,"",Morris & Essex Line
8,93,6,0,67.0,7.5,MOUNT OLIVE,40.907376,-74.730653,"",Morris & Essex Line
3,93,6,1,71.0,,MOUNT OLIVE,40.907376,-74.730653,"",Montclair-Boonton Line
3,93,6,0,53.0,,MOUNT OLIVE,40.907376,-74.730653,"",Montclair-Boonton Line
8,94,9,0,,,MOUNT TABOR,40.875904,-74.481915,"",Morris & Essex Line
8,94,8,1,60.0,0.0,MOUNT TABOR,40.875904,-74.481915,"",Morris & Essex Line
8,94,8,0,60.0,0.0,MOUNT TABOR,40.875904,-74.481915,"",Morris & Essex Line
8,94,6,1,44.4,22.6,MOUNT TABOR,40.875904,-74.481915,"",Morris & Essex Line
8,94,6,0,39.2,19.1,MOUNT TABOR,40.875904,-74.481915,"",Morris & Essex Line
8,94,15,1,,,MOUNT TABOR,40.875904,-74.481915,"",Morris & Essex Line
8,94,14,1,,,MOUNT TABOR,40.875904,-74.481915,"",Morris & Essex Line
8,94,14,0,,,MOUNT TABOR,40.875904,-74.481915,"",Morris & Essex Line
8,94,13,1,,,MOUNT TABOR,40.875904,-74.481915,"",Morris & Essex Line
4,95,6,1,50.9,18.5,MOUNTAIN AVENUE,40.848715,-74.205306,"",Montclair-Boonton Line
4,95,6,0,47.7,18.3,MOUNTAIN AVENUE,40.848715,-74.205306,"",Montclair-Boonton Line
3,95,6,1,71.0,,MOUNTAIN AVENUE,40.848715,-74.205306,"",Montclair-Boonton Line
3,95,6,0,,,MOUNTAIN AVENUE,40.848715,-74.205306,"",Montclair-Boonton Line
3,96,6,1,54.1,17.6,MOUNTAIN LAKES,40.885947,-74.433604,"",Montclair-Boonton Line
3,96,6,0,47.0,23.6,MOUNTAIN LAKES,40.885947,-74.433604,"",Montclair-Boonton Line
9,97,9,1,,,MOUNTAIN STATION,40.755367,-74.253024,"",Gladstone Branch
8,97,8,1,,,MOUNTAIN STATION,40.755367,-74.253024,"",Morris & Essex Line
8,97,8,0,,,MOUNTAIN STATION,40.755367,-74.253024,"",Morris & Essex Line
9,97,6,1,49.6,14.2,MOUNTAIN STATION,40.755367,-74.253024,"",Gladstone Branch
9,97,6,0,63.9,12.2,MOUNTAIN STATION,40.755367,-74.253024,"",Gladstone Branch
8,97,6,1,34.0,21.1,MOUNTAIN STATION,40.755367,-74.253024,"",Morris & Essex Line
8,97,6,0,57.6,14.5,MOUNTAIN STATION,40.755367,-74.253024,"",Morris & Essex Line
8,97,4,1,,,MOUNTAIN STATION,40.755367,-74.253024,"",Morris & Essex Line
8,97,15,1,,,MOUNTAIN STATION,40.755367,-74.253024,"",Morris & Essex Line
9,97,14,1,,,MOUNTAIN STATION,40.755367,-74.253024,"",Gladstone Branch
8,97,14,1,,,MOUNTAIN STATION,40.755367,-74.253024,"",Morris & Essex Line
8,97,13,1,45.0,,MOUNTAIN STATION,40.755367,-74.253024,"",Morris & Essex Line
3,98,6,1,54.2,17.4,MOUNTAIN VIEW,40.914402,-74.268158,"",Montclair-Boonton Line
3,98,6,0,47.0,24.0,MOUNTAIN VIEW,40.914402,-74.268158,"",Montclair-Boonton Line
9,99,9,1,,,MURRAY HILL,40.69507,-74.403134,"",Gladstone Branch
9,99,8,1,60.0,0.0,MURRAY HILL,40.69507,-74.403134,"",Gladstone Branch
9,99,8,0,60.0,0.0,MURRAY HILL,40.69507,-74.403134,"",Gladstone Branch
9,99,6,1,41.3,19.0,MURRAY HILL,40.69507,-74.403134,"",Gladstone Branch
9,99,6,0,48.8,22.5,MURRAY HILL,40.69507,-74.403134,"",Gladstone Branch
9,99,14,1,,,MURRAY HILL,40.69507,-74.403134,"",Gladstone Branch
9,99,10,1,65.5,23.3,MURRAY HILL,40.69507,-74.403134,"",Gladstone Branch
9,99,10,0,,,MURRAY HILL,40.69507,-74.403134,"",Gladstone Branch
