stop_id,service_id,direction_id,numroutes,TripsServingStop,stop_name,stop_lat,stop_lon
1,3,0,1,2,30TH ST. PHL.,39.956565,-75.182327
1,3,1,1,2,30TH ST. PHL.,39.956565,-75.182327
1,4,0,1,1,30TH ST. PHL.,39.956565,-75.182327
1,6,0,1,9,30TH ST. PHL.,39.956565,-75.182327
1,6,1,1,10,30TH ST. PHL.,39.956565,-75.182327
1,7,0,1,1,30TH ST. PHL.,39.956565,-75.182327
1,8,0,1,11,30TH ST. PHL.,39.956565,-75.182327
1,8,1,1,12,30TH ST. PHL.,39.956565,-75.182327
1,9,0,1,3,30TH ST. PHL.,39.956565,-75.182327
1,9,1,1,2,30TH ST. PHL.,39.956565,-75.182327
10,2,0,1,1,ATLANTIC CITY,39.363299,-74.441486
10,2,1,1,2,ATLANTIC CITY,39.363299,-74.441486
10,3,0,1,2,ATLANTIC CITY,39.363299,-74.441486
10,3,1,1,2,ATLANTIC CITY,39.363299,-74.441486
10,4,0,1,1,ATLANTIC CITY,39.363299,-74.441486
10,5,0,1,3,ATLANTIC CITY,39.363299,-74.441486
10,5,1,1,2,ATLANTIC CITY,39.363299,-74.441486
10,6,0,1,9,ATLANTIC CITY,39.363299,-74.441486
10,6,1,1,10,ATLANTIC CITY,39.363299,-74.441486
10,7,0,1,1,ATLANTIC CITY,39.363299,-74.441486
10,8,0,1,11,ATLANTIC CITY,39.363299,-74.441486
10,8,1,1,12,ATLANTIC CITY,39.363299,-74.441486
100,13,1,1,1,NANUET,41.090015,-74.014794
100,4,1,1,1,NANUET,41.090015,-74.014794
100,6,0,1,17,NANUET,41.090015,-74.014794
100,6,1,1,17,NANUET,41.090015,-74.014794
100,8,0,1,12,NANUET,41.090015,-74.014794
100,8,1,1,11,NANUET,41.090015,-74.014794
101,6,0,2,9,NETCONG,40.897554,-74.707317
101,6,1,2,10,NETCONG,40.897554,-74.707317
102,14,1,1,1,NETHERWOOD,40.629148,-74.403455
102,6,0,1,24,NETHERWOOD,40.629148,-74.403455
102,6,1,1,23,NETHERWOOD,40.629148,-74.403455
102,8,0,1,18,NETHERWOOD,40.629148,-74.403455
102,8,1,1,18,NETHERWOOD,40.629148,-74.403455
102,9,1,1,1,NETHERWOOD,40.629148,-74.403455
103,13,0,1,1,NEW BRUNSWICK,40.497278,-74.445751
103,13,1,1,1,NEW BRUNSWICK,40.497278,-74.445751
103,4,0,1,1,NEW BRUNSWICK,40.497278,-74.445751
103,4,1,1,2,NEW BRUNSWICK,40.497278,-74.445751
103,6,0,1,56,NEW BRUNSWICK,40.497278,-74.445751
103,6,1,1,59,NEW BRUNSWICK,40.497278,-74.445751
103,8,0,1,31,NEW BRUNSWICK,40.497278,-74.445751
103,8,1,1,30,NEW BRUNSWICK,40.497278,-74.445751
104,10,0,1,1,NEW PROVIDENCE,40.712022,-74.386501
104,10,1,1,3,NEW PROVIDENCE,40.712022,-74.386501
104,14,1,1,1,NEW PROVIDENCE,40.712022,-74.386501
104,6,0,1,22,NEW PROVIDENCE,40.712022,-74.386501
104,6,1,1,25,NEW PROVIDENCE,40.712022,-74.386501
104,8,0,1,18,NEW PROVIDENCE,40.712022,-74.386501
104,8,1,1,17,NEW PROVIDENCE,40.712022,-74.386501
104,9,1,1,1,NEW PROVIDENCE,40.712022,-74.386501
105,13,0,2,2,NEW YORK PENN STATION,40.750046,-73.992358
105,13,1,3,5,NEW YORK PENN STATION,40.750046,-73.992358
105,15,1,1,1,NEW YORK PENN STATION,40.750046,-73.992358
105,16,0,1,10,NEW YORK PENN STATION,40.750046,-73.992358
105,16,1,1,8,NEW YORK PENN STATION,40.750046,-73.992358
105,17,0,1,10,NEW YORK PENN STATION,40.750046,-73.992358
105,17,1,1,10,NEW YORK PENN STATION,40.750046,-73.992358
105,18,1,1,1,NEW YORK PENN STATION,40.750046,-73.992358
105,4,0,2,2,NEW YORK PENN STATION,40.750046,-73.992358
105,4,1,3,5,NEW YORK PENN STATION,40.750046,-73.992358
105,6,0,5,152,NEW YORK PENN STATION,40.750046,-73.992358
105,6,1,5,150,NEW YORK PENN STATION,40.750046,-73.992358
105,8,0,3,78,NEW YORK PENN STATION,40.750046,-73.992358
105,8,1,3,74,NEW YORK PENN STATION,40.750046,-73.992358
105,9,0,1,1,NEW YORK PENN STATION,40.750046,-73.992358
106,10,0,1,1,NEWARK BROAD ST,40.747621,-74.171943
106,10,1,1,1,NEWARK BROAD ST,40.747621,-74.171943
106,13,1,1,2,NEWARK BROAD ST,40.747621,-74.171943
106,14,0,1,1,NEWARK BROAD ST,40.747621,-74.171943
106,14,1,2,2,NEWARK BROAD ST,40.747621,-74.171943
106,15,1,1,1,NEWARK BROAD ST,40.747621,-74.171943
106,4,1,1,1,NEWARK BROAD ST,40.747621,-74.171943
106,6,0,4,91,NEWARK BROAD ST,40.747621,-74.171943
106,6,1,4,102,NEWARK BROAD ST,40.747621,-74.171943
106,8,0,2,28,NEWARK BROAD ST,40.747621,-74.171943
106,8,1,2,27,NEWARK BROAD ST,40.747621,-74.171943
106,9,0,1,1,NEWARK BROAD ST,40.747621,-74.171943
106,9,1,1,1,NEWARK BROAD ST,40.747621,-74.171943
107,13,0,2,2,NEWARK PENN STATION,40.734221,-74.164554
107,13,1,2,3,NEWARK PENN STATION,40.734221,-74.164554
107,14,1,1,1,NEWARK PENN STATION,40.734221,-74.164554
107,16,0,2,11,NEWARK PENN STATION,40.734221,-74.164554
107,16,1,2,10,NEWARK PENN STATION,40.734221,-74.164554
107,17,0,1,10,NEWARK PENN STATION,40.734221,-74.164554
107,17,1,1,10,NEWARK PENN STATION,40.734221,-74.164554
107,18,1,1,1,NEWARK PENN STATION,40.734221,-74.164554
107,4,0,2,2,NEWARK PENN STATION,40.734221,-74.164554
107,4,1,2,4,NEWARK PENN STATION,40.734221,-74.164554
107,6,0,4,127,NEWARK PENN STATION,40.734221,-74.164554
107,6,1,4,122,NEWARK PENN STATION,40.734221,-74.164554
107,8,0,3,72,NEWARK PENN STATION,40.734221,-74.164554
107,8,1,3,71,NEWARK PENN STATION,40.734221,-74.164554
107,9,1,1,1,NEWARK PENN STATION,40.734221,-74.164554
108,6,0,1,7,NORTH BRANCH,40.59202,-74.683802
108,6,1,1,10,NORTH BRANCH,40.59202,-74.683802
109,16,0,1,2,NORTH ELIZABETH,40.680265,-74.206165
109,16,1,1,5,NORTH ELIZABETH,40.680265,-74.206165
109,6,0,2,15,NORTH ELIZABETH,40.680265,-74.206165
109,6,1,2,31,NORTH ELIZABETH,40.680265,-74.206165
109,8,0,1,2,NORTH ELIZABETH,40.680265,-74.206165
109,8,1,1,2,NORTH ELIZABETH,40.680265,-74.206165
11,6,0,1,7,AVENEL,40.57762,-74.27753
11,6,1,1,14,AVENEL,40.57762,-74.27753
110,13,1,1,1,NEW BRIDGE LANDING,40.910856,-74.035044
110,4,1,1,1,NEW BRIDGE LANDING,40.910856,-74.035044
110,6,0,1,17,NEW BRIDGE LANDING,40.910856,-74.035044
110,6,1,1,17,NEW BRIDGE LANDING,40.910856,-74.035044
110,8,0,1,10,NEW BRIDGE LANDING,40.910856,-74.035044
110,8,1,1,9,NEW BRIDGE LANDING,40.910856,-74.035044
111,13,1,1,1,ORADELL,40.953478,-74.029983
111,4,1,1,1,ORADELL,40.953478,-74.029983
111,6,0,1,15,ORADELL,40.953478,-74.029983
111,6,1,1,16,ORADELL,40.953478,-74.029983
111,8,0,1,10,ORADELL,40.953478,-74.029983
111,8,1,1,9,ORADELL,40.953478,-74.029983
112,13,1,1,2,ORANGE,40.771883,-74.233103
112,14,1,2,2,ORANGE,40.771883,-74.233103
112,15,1,1,1,ORANGE,40.771883,-74.233103
112,4,1,1,1,ORANGE,40.771883,-74.233103
112,6,0,2,42,ORANGE,40.771883,-74.233103
112,6,1,2,52,ORANGE,40.771883,-74.233103
112,8,0,1,20,ORANGE,40.771883,-74.233103
112,8,1,1,18,ORANGE,40.771883,-74.233103
112,9,1,1,1,ORANGE,40.771883,-74.233103
114,13,1,1,1,PARK RIDGE,41.032305,-74.036164
114,4,1,1,1,PARK RIDGE,41.032305,-74.036164
114,6,0,1,15,PARK RIDGE,41.032305,-74.036164
114,6,1,1,16,PARK RIDGE,41.032305,-74.036164
114,8,0,1,10,PARK RIDGE,41.032305,-74.036164
114,8,1,1,9,PARK RIDGE,41.032305,-74.036164
115,13,1,1,1,PASSAIC,40.849413,-74.13393
115,4,1,1,1,PASSAIC,40.849413,-74.13393
115,6,0,2,24,PASSAIC,40.849413,-74.13393
115,6,1,2,23,PASSAIC,40.849413,-74.13393
115,8,0,2,17,PASSAIC,40.849413,-74.13393
115,8,1,1,14,PASSAIC,40.849413,-74.13393
116,13,1,1,1,PATERSON,40.914887,-74.16733
116,4,1,1,1,PATERSON,40.914887,-74.16733
116,6,0,2,25,PATERSON,40.914887,-74.16733
116,6,1,2,23,PATERSON,40.914887,-74.16733
116,8,0,2,17,PATERSON,40.914887,-74.16733
116,8,1,1,14,PATERSON,40.914887,-74.16733
117,10,0,1,1,PEAPACK,40.708794,-74.658469
117,10,1,1,3,PEAPACK,40.708794,-74.658469
117,14,1,1,1,PEAPACK,40.708794,-74.658469
117,6,0,1,21,PEAPACK,40.708794,-74.658469
117,6,1,1,23,PEAPACK,40.708794,-74.658469
117,8,0,1,18,PEAPACK,40.708794,-74.658469
117,8,1,1,17,PEAPACK,40.708794,-74.658469
117,9,1,1,1,PEAPACK,40.708794,-74.658469
118,13,1,1,1,PEARL RIVER,41.058181,-74.022317
118,4,1,1,1,PEARL RIVER,41.058181,-74.022317
118,6,0,1,17,PEARL RIVER,41.058181,-74.022317
118,6,1,1,17,PEARL RIVER,41.058181,-74.022317
118,8,0,1,12,PEARL RIVER,41.058181,-74.022317
118,8,1,1,11,PEARL RIVER,41.058181,-74.022317
119,13,0,1,1,PERTH AMBOY,40.509398,-74.273752
119,13,1,1,2,PERTH AMBOY,40.509398,-74.273752
119,16,0,1,9,PERTH AMBOY,40.509398,-74.273752
119,16,1,2,7,PERTH AMBOY,40.509398,-74.273752
119,17,0,1,10,PERTH AMBOY,40.509398,-74.273752
119,17,1,1,10,PERTH AMBOY,40.509398,-74.273752
119,4,0,1,1,PERTH AMBOY,40.509398,-74.273752
119,4,1,1,2,PERTH AMBOY,40.509398,-74.273752
119,6,0,2,22,PERTH AMBOY,40.509398,-74.273752
119,6,1,1,20,PERTH AMBOY,40.509398,-74.273752
119,8,0,1,19,PERTH AMBOY,40.509398,-74.273752
119,8,1,1,18,PERTH AMBOY,40.509398,-74.273752
12,10,0,1,1,BASKING RIDGE,40.711378,-74.55527
12,10,1,1,3,BASKING RIDGE,40.711378,-74.55527
12,14,1,1,1,BASKING RIDGE,40.711378,-74.55527
12,6,0,1,22,BASKING RIDGE,40.711378,-74.55527
12,6,1,1,24,BASKING RIDGE,40.711378,-74.55527
12,8,0,1,18,BASKING RIDGE,40.711378,-74.55527
12,8,1,1,17,BASKING RIDGE,40.711378,-74.55527
12,9,1,1,1,BASKING RIDGE,40.711378,-74.55527
120,14,1,1,1,PLAINFIELD,40.618425,-74.420163
120,6,0,1,24,PLAINFIELD,40.618425,-74.420163
120,6,1,1,25,PLAINFIELD,40.618425,-74.420163
120,8,0,1,18,PLAINFIELD,40.618425,-74.420163
120,8,1,1,18,PLAINFIELD,40.618425,-74.420163
120,9,1,1,1,PLAINFIELD,40.618425,-74.420163
121,13,1,1,1,PLAUDERVILLE,40.886988,-74.102235
121,4,1,1,1,PLAUDERVILLE,40.886988,-74.102235
121,6,0,2,15,PLAUDERVILLE,40.886988,-74.102235
121,6,1,1,18,PLAUDERVILLE,40.886988,-74.102235
121,8,0,1,12,PLAUDERVILLE,40.886988,-74.102235
121,8,1,1,11,PLAUDERVILLE,40.886988,-74.102235
122,13,1,1,1,POINT PLEASANT,40.092718,-74.048191
122,14,1,1,2,POINT PLEASANT,40.092718,-74.048191
122,15,1,1,1,POINT PLEASANT,40.092718,-74.048191
122,16,0,1,1,POINT PLEASANT,40.092718,-74.048191
122,16,1,1,2,POINT PLEASANT,40.092718,-74.048191
122,19,0,1,6,POINT PLEASANT,40.092718,-74.048191
122,19,1,1,6,POINT PLEASANT,40.092718,-74.048191
122,20,1,1,1,POINT PLEASANT,40.092718,-74.048191
122,4,1,1,1,POINT PLEASANT,40.092718,-74.048191
122,6,0,1,17,POINT PLEASANT,40.092718,-74.048191
122,6,1,1,14,POINT PLEASANT,40.092718,-74.048191
122,8,0,1,11,POINT PLEASANT,40.092718,-74.048191
122,8,1,1,9,POINT PLEASANT,40.092718,-74.048191
122,9,1,1,2,POINT PLEASANT,40.092718,-74.048191
124,10,0,1,2,PRINCETON,40.342625,-74.659091
124,10,1,1,2,PRINCETON,40.342625,-74.659091
124,6,0,1,41,PRINCETON,40.342625,-74.659091
124,6,1,1,41,PRINCETON,40.342625,-74.659091
124,8,0,1,27,PRINCETON,40.342625,-74.659091
124,8,1,1,27,PRINCETON,40.342625,-74.659091
125,10,0,1,2,PRINCETON JCT.,40.316316,-74.623753
125,10,1,1,2,PRINCETON JCT.,40.316316,-74.623753
125,13,0,1,1,PRINCETON JCT.,40.316316,-74.623753
125,13,1,1,1,PRINCETON JCT.,40.316316,-74.623753
125,4,0,1,1,PRINCETON JCT.,40.316316,-74.623753
125,4,1,1,2,PRINCETON JCT.,40.316316,-74.623753
125,6,0,2,90,PRINCETON JCT.,40.316316,-74.623753
125,6,1,2,93,PRINCETON JCT.,40.316316,-74.623753
125,8,0,2,58,PRINCETON JCT.,40.316316,-74.623753
125,8,1,2,57,PRINCETON JCT.,40.316316,-74.623753
126,13,1,1,1,RADBURN,40.939916,-74.121614
126,4,1,1,1,RADBURN,40.939916,-74.121614
126,6,0,2,25,RADBURN,40.939916,-74.121614
126,6,1,2,22,RADBURN,40.939916,-74.121614
126,8,0,2,13,RADBURN,40.939916,-74.121614
126,8,1,2,14,RADBURN,40.939916,-74.121614
127,13,0,2,2,RAHWAY,40.606338,-74.276692
127,13,1,2,3,RAHWAY,40.606338,-74.276692
127,16,0,1,7,RAHWAY,40.606338,-74.276692
127,16,1,1,6,RAHWAY,40.606338,-74.276692
127,17,0,1,10,RAHWAY,40.606338,-74.276692
127,17,1,1,10,RAHWAY,40.606338,-74.276692
127,4,0,2,2,RAHWAY,40.606338,-74.276692
127,4,1,2,4,RAHWAY,40.606338,-74.276692
127,6,0,2,50,RAHWAY,40.606338,-74.276692
127,6,1,2,60,RAHWAY,40.606338,-74.276692
127,8,0,2,43,RAHWAY,40.606338,-74.276692
127,8,1,2,43,RAHWAY,40.606338,-74.276692
128,13,1,2,2,RAMSEY,41.056422,-74.141877
128,4,1,2,2,RAMSEY,41.056422,-74.141877
128,6,0,2,29,RAMSEY,41.056422,-74.141877
128,6,1,2,26,RAMSEY,41.056422,-74.141877
128,8,0,2,18,RAMSEY,41.056422,-74.141877
128,8,1,2,16,RAMSEY,41.056422,-74.141877
129,14,1,1,1,RARITAN,40.571007,-74.634364
129,6,0,1,26,RARITAN,40.571007,-74.634364
129,6,1,1,25,RARITAN,40.571007,-74.634364
129,8,0,1,18,RARITAN,40.571007,-74.634364
129,8,1,1,18,RARITAN,40.571007,-74.634364
129,9,1,1,1,RARITAN,40.571007,-74.634364
13,13,1,1,1,BAY HEAD,40.07584,-74.046934
13,14,1,1,2,BAY HEAD,40.07584,-74.046934
13,15,1,1,1,BAY HEAD,40.07584,-74.046934
13,16,0,1,1,BAY HEAD,40.07584,-74.046934
13,16,1,1,2,BAY HEAD,40.07584,-74.046934
13,19,0,1,6,BAY HEAD,40.07584,-74.046934
13,19,1,1,6,BAY HEAD,40.07584,-74.046934
13,20,1,1,1,BAY HEAD,40.07584,-74.046934
13,4,1,1,1,BAY HEAD,40.07584,-74.046934
13,6,0,1,17,BAY HEAD,40.07584,-74.046934
13,6,1,1,14,BAY HEAD,40.07584,-74.046934
13,8,0,1,11,BAY HEAD,40.07584,-74.046934
13,8,1,1,9,BAY HEAD,40.07584,-74.046934
13,9,1,1,2,BAY HEAD,40.07584,-74.046934
130,13,0,1,1,RED BANK,40.348284,-74.074538
130,13,1,1,2,RED BANK,40.348284,-74.074538
130,16,0,2,11,RED BANK,40.348284,-74.074538
130,16,1,2,10,RED BANK,40.348284,-74.074538
130,17,0,1,10,RED BANK,40.348284,-74.074538
130,17,1,1,10,RED BANK,40.348284,-74.074538
130,18,1,1,1,RED BANK,40.348284,-74.074538
130,4,0,1,1,RED BANK,40.348284,-74.074538
130,4,1,1,2,RED BANK,40.348284,-74.074538
130,6,0,2,22,RED BANK,40.348284,-74.074538
130,6,1,2,21,RED BANK,40.348284,-74.074538
130,8,0,1,19,RED BANK,40.348284,-74.074538
130,8,1,1,18,RED BANK,40.348284,-74.074538
131,13,1,2,2,RIDGEWOOD,40.980629,-74.120592
131,4,1,2,2,RIDGEWOOD,40.980629,-74.120592
131,6,0,2,49,RIDGEWOOD,40.980629,-74.120592
131,6,1,2,47,RIDGEWOOD,40.980629,-74.120592
131,8,0,2,30,RIDGEWOOD,40.980629,-74.120592
131,8,1,2,28,RIDGEWOOD,40.980629,-74.120592
132,13,1,1,1,RIVER EDGE,40.935146,-74.02914
132,4,1,1,1,RIVER EDGE,40.935146,-74.02914
132,6,0,1,15,RIVER EDGE,40.935146,-74.02914
132,6,1,1,16,RIVER EDGE,40.935146,-74.02914
132,8,0,1,10,RIVER EDGE,40.935146,-74.02914
132,8,1,1,9,RIVER EDGE,40.935146,-74.02914
134,13,1,1,1,RUTHERFORD,40.828248,-74.100563
134,4,1,1,1,RUTHERFORD,40.828248,-74.100563
134,6,0,2,22,RUTHERFORD,40.828248,-74.100563
134,6,1,2,19,RUTHERFORD,40.828248,-74.100563
134,8,0,2,13,RUTHERFORD,40.828248,-74.100563
134,8,1,2,14,RUTHERFORD,40.828248,-74.100563
136,13,1,1,2,SHORT HILLS,40.725249,-74.323754
136,14,1,2,2,SHORT HILLS,40.725249,-74.323754
136,15,1,1,1,SHORT HILLS,40.725249,-74.323754
136,4,1,1,1,SHORT HILLS,40.725249,-74.323754
136,6,0,2,46,SHORT HILLS,40.725249,-74.323754
136,6,1,2,56,SHORT HILLS,40.725249,-74.323754
136,8,0,1,20,SHORT HILLS,40.725249,-74.323754
136,8,1,1,18,SHORT HILLS,40.725249,-74.323754
136,9,1,1,1,SHORT HILLS,40.725249,-74.323754
138,14,1,1,1,SOMERVILLE,40.566075,-74.61397
138,6,0,1,26,SOMERVILLE,40.566075,-74.61397
138,6,1,1,25,SOMERVILLE,40.566075,-74.61397
138,8,0,1,18,SOMERVILLE,40.566075,-74.61397
138,8,1,1,18,SOMERVILLE,40.566075,-74.61397
138,9,1,1,1,SOMERVILLE,40.566075,-74.61397
139,13,0,1,1,SOUTH AMBOY,40.484308,-74.28014
139,13,1,1,2,SOUTH AMBOY,40.484308,-74.28014
139,16,0,1,10,SOUTH AMBOY,40.484308,-74.28014
139,16,1,2,8,SOUTH AMBOY,40.484308,-74.28014
139,17,0,1,10,SOUTH AMBOY,40.484308,-74.28014
139,17,1,1,10,SOUTH AMBOY,40.484308,-74.28014
139,18,1,1,1,SOUTH AMBOY,40.484308,-74.28014
139,4,0,1,1,SOUTH AMBOY,40.484308,-74.28014
139,4,1,1,2,SOUTH AMBOY,40.484308,-74.28014
139,6,0,2,28,SOUTH AMBOY,40.484308,-74.28014
139,6,1,2,30,SOUTH AMBOY,40.484308,-74.28014
139,8,0,1,19,SOUTH AMBOY,40.484308,-74.28014
139,8,1,1,18,SOUTH AMBOY,40.484308,-74.28014
14,10,0,1,1,BAY STREET,40.808178,-74.208681
14,10,1,1,1,BAY STREET,40.808178,-74.208681
14,6,0,2,30,BAY STREET,40.808178,-74.208681
14,6,1,2,34,BAY STREET,40.808178,-74.208681
14,8,0,1,8,BAY STREET,40.808178,-74.208681
14,8,1,1,9,BAY STREET,40.808178,-74.208681
140,13,1,1,2,SOUTH ORANGE,40.745952,-74.260538
140,14,0,1,1,SOUTH ORANGE,40.745952,-74.260538
140,14,1,2,2,SOUTH ORANGE,40.745952,-74.260538
140,15,1,1,1,SOUTH ORANGE,40.745952,-74.260538
140,4,1,1,1,SOUTH ORANGE,40.745952,-74.260538
140,6,0,2,50,SOUTH ORANGE,40.745952,-74.260538
140,6,1,2,58,SOUTH ORANGE,40.745952,-74.260538
140,8,0,1,20,SOUTH ORANGE,40.745952,-74.260538
140,8,1,1,18,SOUTH ORANGE,40.745952,-74.260538
140,9,0,1,1,SOUTH ORANGE,40.745952,-74.260538
140,9,1,1,1,SOUTH ORANGE,40.745952,-74.260538
141,13,1,1,1,SPRING LAKE,40.150557,-74.035481
141,14,1,1,2,SPRING LAKE,40.150557,-74.035481
141,15,1,1,1,SPRING LAKE,40.150557,-74.035481
141,16,0,1,1,SPRING LAKE,40.150557,-74.035481
141,16,1,1,2,SPRING LAKE,40.150557,-74.035481
141,19,0,1,6,SPRING LAKE,40.150557,-74.035481
141,19,1,1,6,SPRING LAKE,40.150557,-74.035481
141,20,1,1,1,SPRING LAKE,40.150557,-74.035481
141,4,1,1,1,SPRING LAKE,40.150557,-74.035481
141,6,0,1,17,SPRING LAKE,40.150557,-74.035481
141,6,1,1,14,SPRING LAKE,40.150557,-74.035481
141,8,0,1,11,SPRING LAKE,40.150557,-74.035481
141,8,1,1,9,SPRING LAKE,40.150557,-74.035481
141,9,1,1,2,SPRING LAKE,40.150557,-74.035481
142,13,1,1,1,SPRING VALLEY,41.111978,-74.043991
142,4,1,1,1,SPRING VALLEY,41.111978,-74.043991
142,6,0,1,17,SPRING VALLEY,41.111978,-74.043991
142,6,1,1,17,SPRING VALLEY,41.111978,-74.043991
142,8,0,1,12,SPRING VALLEY,41.111978,-74.043991
142,8,1,1,11,SPRING VALLEY,41.111978,-74.043991
143,10,0,1,1,STIRLING,40.674581,-74.493723
143,10,1,1,3,STIRLING,40.674581,-74.493723
143,14,1,1,1,STIRLING,40.674581,-74.493723
143,6,0,1,22,STIRLING,40.674581,-74.493723
143,6,1,1,24,STIRLING,40.674581,-74.493723
143,8,0,1,18,STIRLING,40.674581,-74.493723
143,8,1,1,17,STIRLING,40.674581,-74.493723
143,9,1,1,1,STIRLING,40.674581,-74.493723
144,13,1,2,2,SUFFERN,41.11354,-74.153442
144,4,1,2,2,SUFFERN,41.11354,-74.153442
144,6,0,2,33,SUFFERN,41.11354,-74.153442
144,6,1,2,28,SUFFERN,41.11354,-74.153442
144,8,0,2,18,SUFFERN,41.11354,-74.153442
144,8,1,2,16,SUFFERN,41.11354,-74.153442
145,10,0,1,1,SUMMIT,40.716549,-74.357807
145,10,1,1,3,SUMMIT,40.716549,-74.357807
145,13,1,1,2,SUMMIT,40.716549,-74.357807
145,14,0,1,1,SUMMIT,40.716549,-74.357807
145,14,1,2,2,SUMMIT,40.716549,-74.357807
145,15,1,1,1,SUMMIT,40.716549,-74.357807
145,4,1,1,1,SUMMIT,40.716549,-74.357807
145,6,0,2,65,SUMMIT,40.716549,-74.357807
145,6,1,2,70,SUMMIT,40.716549,-74.357807
145,8,0,2,38,SUMMIT,40.716549,-74.357807
145,8,1,2,35,SUMMIT,40.716549,-74.357807
145,9,0,1,1,SUMMIT,40.716549,-74.357807
145,9,1,1,1,SUMMIT,40.716549,-74.357807
146,13,1,1,1,TETERBORO,40.864858,-74.062676
146,4,1,1,1,TETERBORO,40.864858,-74.062676
146,6,0,1,13,TETERBORO,40.864858,-74.062676
146,6,1,1,15,TETERBORO,40.864858,-74.062676
147,6,0,1,5,TOWACO,40.922809,-74.343842
147,6,1,1,10,TOWACO,40.922809,-74.343842
148,13,0,1,1,TRENTON TRANSIT CENTER,40.218515,-74.753926
148,13,1,1,1,TRENTON TRANSIT CENTER,40.218515,-74.753926
148,4,0,1,1,TRENTON TRANSIT CENTER,40.218515,-74.753926
148,4,1,1,2,TRENTON TRANSIT CENTER,40.218515,-74.753926
148,6,0,1,49,TRENTON TRANSIT CENTER,40.218515,-74.753926
148,6,1,1,52,TRENTON TRANSIT CENTER,40.218515,-74.753926
148,8,0,1,31,TRENTON TRANSIT CENTER,40.218515,-74.753926
148,8,1,1,30,TRENTON TRANSIT CENTER,40.218515,-74.753926
15,13,1,1,1,BELMAR,40.18059,-74.027301
15,14,1,1,2,BELMAR,40.18059,-74.027301
15,15,1,1,1,BELMAR,40.18059,-74.027301
15,16,0,1,1,BELMAR,40.18059,-74.027301
15,16,1,1,2,BELMAR,40.18059,-74.027301
15,19,0,1,6,BELMAR,40.18059,-74.027301
15,19,1,1,6,BELMAR,40.18059,-74.027301
15,20,1,1,1,BELMAR,40.18059,-74.027301
15,4,1,1,1,BELMAR,40.18059,-74.027301
15,6,0,1,17,BELMAR,40.18059,-74.027301
15,6,1,1,14,BELMAR,40.18059,-74.027301
15,8,0,1,11,BELMAR,40.18059,-74.027301
15,8,1,1,9,BELMAR,40.18059,-74.027301
15,9,1,1,2,BELMAR,40.18059,-74.027301
150,6,0,2,27,UPPER MONTCLAIR,40.842004,-74.209368
150,6,1,2,28,UPPER MONTCLAIR,40.842004,-74.209368
151,13,1,2,2,WALDWICK,41.012734,-74.123412
151,4,1,2,2,WALDWICK,41.012734,-74.123412
151,6,0,2,42,WALDWICK,41.012734,-74.123412
151,6,1,2,40,WALDWICK,41.012734,-74.123412
151,8,0,2,29,WALDWICK,41.012734,-74.123412
151,8,1,2,28,WALDWICK,41.012734,-74.123412
152,6,0,2,28,WALNUT STREET,40.817218,-74.20963
152,6,1,2,30,WALNUT STREET,40.817218,-74.20963
153,6,0,2,27,WATCHUNG AVENUE,40.829516,-74.206934
153,6,1,2,30,WATCHUNG AVENUE,40.829516,-74.206934
154,10,0,1,1,WATSESSING AVENUE,40.782743,-74.198451
154,10,1,1,1,WATSESSING AVENUE,40.782743,-74.198451
154,6,0,2,23,WATSESSING AVENUE,40.782743,-74.198451
154,6,1,2,27,WATSESSING AVENUE,40.782743,-74.198451
154,8,0,1,8,WATSESSING AVENUE,40.782743,-74.198451
154,8,1,1,9,WATSESSING AVENUE,40.782743,-74.198451
155,14,1,1,1,WESTFIELD,40.649448,-74.347629
155,6,0,1,25,WESTFIELD,40.649448,-74.347629
155,6,1,1,25,WESTFIELD,40.649448,-74.347629
155,8,0,1,18,WESTFIELD,40.649448,-74.347629
155,8,1,1,18,WESTFIELD,40.649448,-74.347629
155,9,1,1,1,WESTFIELD,40.649448,-74.347629
156,13,1,1,1,WESTWOOD,40.990817,-74.032696
156,4,1,1,1,WESTWOOD,40.990817,-74.032696
156,6,0,1,15,WESTWOOD,40.990817,-74.032696
156,6,1,1,16,WESTWOOD,40.990817,-74.032696
156,8,0,1,9,WESTWOOD,40.990817,-74.032696
156,8,1,1,9,WESTWOOD,40.990817,-74.032696
157,6,0,1,7,WHITE HOUSE,40.615613,-74.77066
157,6,1,1,10,WHITE HOUSE,40.615613,-74.77066
158,13,0,1,1,WOODBRIDGE,40.553133,-74.276892
158,13,1,1,2,WOODBRIDGE,40.553133,-74.276892
158,16,0,1,9,WOODBRIDGE,40.553133,-74.276892
158,16,1,2,9,WOODBRIDGE,40.553133,-74.276892
158,17,0,1,10,WOODBRIDGE,40.553133,-74.276892
158,17,1,1,10,WOODBRIDGE,40.553133,-74.276892
158,4,0,1,1,WOODBRIDGE,40.553133,-74.276892
158,4,1,1,2,WOODBRIDGE,40.553133,-74.276892
158,6,0,2,28,WOODBRIDGE,40.553133,-74.276892
158,6,1,2,29,WOODBRIDGE,40.553133,-74.276892
158,8,0,1,19,WOODBRIDGE,40.553133,-74.276892
158,8,1,1,18,WOODBRIDGE,40.553133,-74.276892
159,13,1,1,1,WOODCLIFF LAKE,41.021078,-74.040775
159,4,1,1,1,WOODCLIFF LAKE,41.021078,-74.040775
159,6,0,1,11,WOODCLIFF LAKE,41.021078,-74.040775
159,6,1,1,13,WOODCLIFF LAKE,41.021078,-74.040775
160,13,1,1,1,WOOD RIDGE,40.843974,-74.078719
160,4,1,1,1,WOOD RIDGE,40.843974,-74.078719
160,6,0,1,16,WOOD RIDGE,40.843974,-74.078719
160,6,1,1,17,WOOD RIDGE,40.843974,-74.078719
160,8,0,1,10,WOOD RIDGE,40.843974,-74.078719
160,8,1,1,9,WOOD RIDGE,40.843974,-74.078719
17,10,0,1,1,BERKELEY HEIGHTS,40.682345,-74.442649
17,10,1,1,3,BERKELEY HEIGHTS,40.682345,-74.442649
17,14,1,1,1,BERKELEY HEIGHTS,40.682345,-74.442649
17,6,0,1,22,BERKELEY HEIGHTS,40.682345,-74.442649
17,6,1,1,24,BERKELEY HEIGHTS,40.682345,-74.442649
17,8,0,1,18,BERKELEY HEIGHTS,40.682345,-74.442649
17,8,1,1,17,BERKELEY HEIGHTS,40.682345,-74.442649
17,9,1,1,1,BERKELEY HEIGHTS,40.682345,-74.442649
18,10,0,1,1,BERNARDSVILLE,40.716845,-74.571023
18,10,1,1,3,BERNARDSVILLE,40.716845,-74.571023
18,14,1,1,1,BERNARDSVILLE,40.716845,-74.571023
18,6,0,1,22,BERNARDSVILLE,40.716845,-74.571023
18,6,1,1,24,BERNARDSVILLE,40.716845,-74.571023
18,8,0,1,18,BERNARDSVILLE,40.716845,-74.571023
18,8,1,1,17,BERNARDSVILLE,40.716845,-74.571023
18,9,1,1,1,BERNARDSVILLE,40.716845,-74.571023
19,10,0,1,1,BLOOMFIELD AVENUE,40.792709,-74.200043
19,10,1,1,1,BLOOMFIELD AVENUE,40.792709,-74.200043
19,6,0,2,28,BLOOMFIELD AVENUE,40.792709,-74.200043
19,6,1,2,31,BLOOMFIELD AVENUE,40.792709,-74.200043
19,8,0,1,8,BLOOMFIELD AVENUE,40.792709,-74.200043
19,8,1,1,9,BLOOMFIELD AVENUE,40.792709,-74.200043
2,2,0,1,1,ABSECON,39.424333,-74.502094
2,2,1,1,2,ABSECON,39.424333,-74.502094
2,3,0,1,2,ABSECON,39.424333,-74.502094
2,3,1,1,2,ABSECON,39.424333,-74.502094
2,4,0,1,1,ABSECON,39.424333,-74.502094
2,5,0,1,3,ABSECON,39.424333,-74.502094
2,5,1,1,2,ABSECON,39.424333,-74.502094
2,6,0,1,9,ABSECON,39.424333,-74.502094
2,6,1,1,10,ABSECON,39.424333,-74.502094
2,7,0,1,1,ABSECON,39.424333,-74.502094
2,8,0,1,11,ABSECON,39.424333,-74.502094
2,8,1,1,12,ABSECON,39.424333,-74.502094
20,6,0,1,5,BOONTON,40.903378,-74.407736
20,6,1,1,10,BOONTON,40.903378,-74.407736
21,14,1,1,1,BOUND BROOK,40.560929,-74.530617
21,6,0,1,25,BOUND BROOK,40.560929,-74.530617
21,6,1,1,25,BOUND BROOK,40.560929,-74.530617
21,8,0,1,18,BOUND BROOK,40.560929,-74.530617
21,8,1,1,18,BOUND BROOK,40.560929,-74.530617
21,9,1,1,1,BOUND BROOK,40.560929,-74.530617
22,13,1,1,1,BRADLEY BEACH,40.203751,-74.018891
22,14,1,1,2,BRADLEY BEACH,40.203751,-74.018891
22,15,1,1,1,BRADLEY BEACH,40.203751,-74.018891
22,16,0,1,1,BRADLEY BEACH,40.203751,-74.018891
22,16,1,1,2,BRADLEY BEACH,40.203751,-74.018891
22,19,0,1,6,BRADLEY BEACH,40.203751,-74.018891
22,19,1,1,6,BRADLEY BEACH,40.203751,-74.018891
22,20,1,1,1,BRADLEY BEACH,40.203751,-74.018891
22,4,1,1,1,BRADLEY BEACH,40.203751,-74.018891
22,6,0,1,17,BRADLEY BEACH,40.203751,-74.018891
22,6,1,1,14,BRADLEY BEACH,40.203751,-74.018891
22,8,0,1,11,BRADLEY BEACH,40.203751,-74.018891
22,8,1,1,9,BRADLEY BEACH,40.203751,-74.018891
22,9,1,1,2,BRADLEY BEACH,40.203751,-74.018891
23,13,1,1,2,BRICK CHURCH,40.765134,-74.218612
23,14,0,1,1,BRICK CHURCH,40.765134,-74.218612
23,14,1,2,2,BRICK CHURCH,40.765134,-74.218612
23,15,1,1,1,BRICK CHURCH,40.765134,-74.218612
23,4,1,1,1,BRICK CHURCH,40.765134,-74.218612
23,6,0,2,48,BRICK CHURCH,40.765134,-74.218612
23,6,1,2,55,BRICK CHURCH,40.765134,-74.218612
23,8,0,1,20,BRICK CHURCH,40.765134,-74.218612
23,8,1,1,18,BRICK CHURCH,40.765134,-74.218612
23,9,0,1,1,BRICK CHURCH,40.765134,-74.218612
23,9,1,1,1,BRICK CHURCH,40.765134,-74.218612
24,14,1,1,1,BRIDGEWATER,40.559906,-74.551741
24,6,0,1,24,BRIDGEWATER,40.559906,-74.551741
24,6,1,1,25,BRIDGEWATER,40.559906,-74.551741
24,8,0,1,18,BRIDGEWATER,40.559906,-74.551741
24,8,1,1,18,BRIDGEWATER,40.559906,-74.551741
24,9,1,1,1,BRIDGEWATER,40.559906,-74.551741
24070,1,1,1,1,PRINCETON JUNCTION ON VAUGHN DRIVE,40.316239,-74.62435
25,13,1,1,1,BROADWAY,40.922505,-74.115236
25,4,1,1,1,BROADWAY,40.922505,-74.115236
25,6,0,2,20,BROADWAY,40.922505,-74.115236
25,6,1,2,19,BROADWAY,40.922505,-74.115236
25,8,0,2,13,BROADWAY,40.922505,-74.115236
25,8,1,2,14,BROADWAY,40.922505,-74.115236
27,13,1,1,2,CHATHAM,40.740137,-74.384812
27,14,0,1,1,CHATHAM,40.740137,-74.384812
27,14,1,1,1,CHATHAM,40.740137,-74.384812
27,15,1,1,1,CHATHAM,40.740137,-74.384812
27,4,1,1,1,CHATHAM,40.740137,-74.384812
27,6,0,1,37,CHATHAM,40.740137,-74.384812
27,6,1,1,35,CHATHAM,40.740137,-74.384812
27,8,0,1,20,CHATHAM,40.740137,-74.384812
27,8,1,1,18,CHATHAM,40.740137,-74.384812
27,9,0,1,1,CHATHAM,40.740137,-74.384812
28,2,0,1,1,CHERRY HILL,39.928447,-75.041661
28,2,1,1,1,CHERRY HILL,39.928447,-75.041661
28,3,0,1,2,CHERRY HILL,39.928447,-75.041661
28,3,1,1,2,CHERRY HILL,39.928447,-75.041661
28,4,0,1,1,CHERRY HILL,39.928447,-75.041661
28,5,0,1,1,CHERRY HILL,39.928447,-75.041661
28,6,0,1,9,CHERRY HILL,39.928447,-75.041661
28,6,1,1,10,CHERRY HILL,39.928447,-75.041661
28,7,0,1,1,CHERRY HILL,39.928447,-75.041661
28,8,0,1,11,CHERRY HILL,39.928447,-75.041661
28,8,1,1,12,CHERRY HILL,39.928447,-75.041661
28,9,0,1,3,CHERRY HILL,39.928447,-75.041661
28,9,1,1,2,CHERRY HILL,39.928447,-75.041661
29,13,1,1,1,CLIFTON,40.867998,-74.153203
29,4,1,1,1,CLIFTON,40.867998,-74.153203
29,6,0,2,25,CLIFTON,40.867998,-74.153203
29,6,1,2,23,CLIFTON,40.867998,-74.153203
29,8,0,2,17,CLIFTON,40.867998,-74.153203
29,8,1,1,14,CLIFTON,40.867998,-74.153203
3,13,1,2,2,ALLENDALE,41.030902,-74.130957
3,4,1,2,2,ALLENDALE,41.030902,-74.130957
3,6,0,2,26,ALLENDALE,41.030902,-74.130957
3,6,1,2,25,ALLENDALE,41.030902,-74.130957
3,8,0,2,18,ALLENDALE,41.030902,-74.130957
3,8,1,2,16,ALLENDALE,41.030902,-74.130957
30,13,1,1,2,CONVENT,40.77904,-74.443435
30,14,0,1,1,CONVENT,40.77904,-74.443435
30,14,1,1,1,CONVENT,40.77904,-74.443435
30,15,1,1,1,CONVENT,40.77904,-74.443435
30,4,1,1,1,CONVENT,40.77904,-74.443435
30,6,0,1,37,CONVENT,40.77904,-74.443435
30,6,1,1,35,CONVENT,40.77904,-74.443435
30,8,0,1,20,CONVENT,40.77904,-74.443435
30,8,1,1,18,CONVENT,40.77904,-74.443435
30,9,0,1,1,CONVENT,40.77904,-74.443435
31,14,1,1,1,ROSELLE PARK,40.667152,-74.26632
31,6,0,1,24,ROSELLE PARK,40.667152,-74.26632
31,6,1,1,23,ROSELLE PARK,40.667152,-74.26632
31,8,0,1,18,ROSELLE PARK,40.667152,-74.26632
31,8,1,1,18,ROSELLE PARK,40.667152,-74.26632
31,9,1,1,1,ROSELLE PARK,40.667152,-74.26632
31696,8,0,1,10,MONMOUTH PARK,40.313425,-74.015172
31696,8,1,1,10,MONMOUTH PARK,40.313425,-74.015172
32,14,1,1,1,CRANFORD,40.655523,-74.303226
32,6,0,1,25,CRANFORD,40.655523,-74.303226
32,6,1,1,23,CRANFORD,40.655523,-74.303226
32,8,0,1,18,CRANFORD,40.655523,-74.303226
32,8,1,1,18,CRANFORD,40.655523,-74.303226
32,9,1,1,1,CRANFORD,40.655523,-74.303226
32905,13,0,1,1,HAMILTON,40.255309,-74.70412
32905,13,1,1,1,HAMILTON,40.255309,-74.70412
32905,4,0,1,1,HAMILTON,40.255309,-74.70412
32905,4,1,1,2,HAMILTON,40.255309,-74.70412
32905,6,0,1,49,HAMILTON,40.255309,-74.70412
32905,6,1,1,52,HAMILTON,40.255309,-74.70412
32905,8,0,1,31,HAMILTON,40.255309,-74.70412
32905,8,1,1,30,HAMILTON,40.255309,-74.70412
32906,13,1,1,1,JERSEY AVE.,40.476912,-74.467363
32906,4,1,1,2,JERSEY AVE.,40.476912,-74.467363
32906,6,0,1,12,JERSEY AVE.,40.476912,-74.467363
32906,6,1,1,46,JERSEY AVE.,40.476912,-74.467363
33,13,1,1,1,DELAWANNA,40.831369,-74.131262
33,4,1,1,1,DELAWANNA,40.831369,-74.131262
33,6,0,2,24,DELAWANNA,40.831369,-74.131262
33,6,1,2,23,DELAWANNA,40.831369,-74.131262
33,8,0,2,17,DELAWANNA,40.831369,-74.131262
33,8,1,1,14,DELAWANNA,40.831369,-74.131262
34,13,1,1,2,DENVILLE,40.8839,-74.481513
34,14,0,1,1,DENVILLE,40.8839,-74.481513
34,14,1,1,1,DENVILLE,40.8839,-74.481513
34,15,1,1,1,DENVILLE,40.8839,-74.481513
34,4,1,1,1,DENVILLE,40.8839,-74.481513
34,6,0,2,42,DENVILLE,40.8839,-74.481513
34,6,1,2,45,DENVILLE,40.8839,-74.481513
34,8,0,1,20,DENVILLE,40.8839,-74.481513
34,8,1,1,18,DENVILLE,40.8839,-74.481513
34,9,0,1,1,DENVILLE,40.8839,-74.481513
35,13,1,1,2,DOVER,40.883415,-74.555887
35,14,0,1,1,DOVER,40.883415,-74.555887
35,14,1,1,1,DOVER,40.883415,-74.555887
35,15,1,1,1,DOVER,40.883415,-74.555887
35,4,1,1,1,DOVER,40.883415,-74.555887
35,6,0,2,41,DOVER,40.883415,-74.555887
35,6,1,2,44,DOVER,40.883415,-74.555887
35,8,0,1,20,DOVER,40.883415,-74.555887
35,8,1,1,18,DOVER,40.883415,-74.555887
35,9,0,1,1,DOVER,40.883415,-74.555887
36,14,1,1,1,DUNELLEN,40.590869,-74.463043
36,6,0,1,25,DUNELLEN,40.590869,-74.463043
36,6,1,1,25,DUNELLEN,40.590869,-74.463043
36,8,0,1,18,DUNELLEN,40.590869,-74.463043
36,8,1,1,18,DUNELLEN,40.590869,-74.463043
36,9,1,1,1,DUNELLEN,40.590869,-74.463043
37,13,1,1,2,EAST ORANGE,40.760977,-74.210464
37,14,1,2,2,EAST ORANGE,40.760977,-74.210464
37,15,1,1,1,EAST ORANGE,40.760977,-74.210464
37,4,1,1,1,EAST ORANGE,40.760977,-74.210464
37,6,0,2,26,EAST ORANGE,40.760977,-74.210464
37,6,1,2,32,EAST ORANGE,40.760977,-74.210464
37,8,0,1,20,EAST ORANGE,40.760977,-74.210464
37,8,1,1,18,EAST ORANGE,40.760977,-74.210464
37,9,1,1,1,EAST ORANGE,40.760977,-74.210464
37169,13,0,1,1,MATAWAN,40.420161,-74.223702
37169,13,1,1,2,MATAWAN,40.420161,-74.223702
37169,16,0,2,11,MATAWAN,40.420161,-74.223702
37169,16,1,2,10,MATAWAN,40.420161,-74.223702
37169,17,0,1,10,MATAWAN,40.420161,-74.223702
37169,17,1,1,10,MATAWAN,40.420161,-74.223702
37169,18,1,1,1,MATAWAN,40.420161,-74.223702
37169,4,0,1,1,MATAWAN,40.420161,-74.223702
37169,4,1,1,2,MATAWAN,40.420161,-74.223702
37169,6,0,2,23,MATAWAN,40.420161,-74.223702
37169,6,1,2,23,MATAWAN,40.420161,-74.223702
37169,8,0,1,19,MATAWAN,40.420161,-74.223702
37169,8,1,1,18,MATAWAN,40.420161,-74.223702
37953,13,0,2,2,NEWARK AIRPORT RAILROAD STATION,40.704415,-74.190717
37953,13,1,2,3,NEWARK AIRPORT RAILROAD STATION,40.704415,-74.190717
37953,16,0,2,10,NEWARK AIRPORT RAILROAD STATION,40.704415,-74.190717
37953,16,1,1,6,NEWARK AIRPORT RAILROAD STATION,40.704415,-74.190717
37953,17,0,1,10,NEWARK AIRPORT RAILROAD STATION,40.704415,-74.190717
37953,17,1,1,10,NEWARK AIRPORT RAILROAD STATION,40.704415,-74.190717
37953,4,0,2,2,NEWARK AIRPORT RAILROAD STATION,40.704415,-74.190717
37953,4,1,2,4,NEWARK AIRPORT RAILROAD STATION,40.704415,-74.190717
37953,6,0,2,66,NEWARK AIRPORT RAILROAD STATION,40.704415,-74.190717
37953,6,1,3,72,NEWARK AIRPORT RAILROAD STATION,40.704415,-74.190717
37953,8,0,2,54,NEWARK AIRPORT RAILROAD STATION,40.704415,-74.190717
37953,8,1,2,53,NEWARK AIRPORT RAILROAD STATION,40.704415,-74.190717
38,13,0,1,1,EDISON STATION,40.519148,-74.410972
38,13,1,1,1,EDISON STATION,40.519148,-74.410972
38,4,0,1,1,EDISON STATION,40.519148,-74.410972
38,4,1,1,2,EDISON STATION,40.519148,-74.410972
38,6,0,1,50,EDISON STATION,40.519148,-74.410972
38,6,1,1,51,EDISON STATION,40.519148,-74.410972
38,8,0,1,31,EDISON STATION,40.519148,-74.410972
38,8,1,1,30,EDISON STATION,40.519148,-74.410972
38081,6,0,2,30,MSU,40.869782,-74.197439
38081,6,1,2,35,MSU,40.869782,-74.197439
38105,14,1,1,1,UNION,40.683663,-74.238605
38105,6,0,1,24,UNION,40.683663,-74.238605
38105,6,1,1,23,UNION,40.683663,-74.238605
38105,8,0,1,18,UNION,40.683663,-74.238605
38105,8,1,1,18,UNION,40.683663,-74.238605
38105,9,1,1,1,UNION,40.683663,-74.238605
38174,13,1,3,3,FRANK R LAUTENBERG SECAUCUS LOWER LEVEL,40.761188,-74.075821
38174,21,0,1,27,FRANK R LAUTENBERG SECAUCUS LOWER LEVEL,40.761188,-74.075821
38174,21,1,1,29,FRANK R LAUTENBERG SECAUCUS LOWER LEVEL,40.761188,-74.075821
38174,22,0,1,2,FRANK R LAUTENBERG SECAUCUS LOWER LEVEL,40.761188,-74.075821
38174,22,1,1,5,FRANK R LAUTENBERG SECAUCUS LOWER LEVEL,40.761188,-74.075821
38174,23,0,1,18,FRANK R LAUTENBERG SECAUCUS LOWER LEVEL,40.761188,-74.075821
38174,23,1,1,18,FRANK R LAUTENBERG SECAUCUS LOWER LEVEL,40.761188,-74.075821
38174,24,0,1,16,FRANK R LAUTENBERG SECAUCUS LOWER LEVEL,40.761188,-74.075821
38174,24,1,1,18,FRANK R LAUTENBERG SECAUCUS LOWER LEVEL,40.761188,-74.075821
38174,25,0,1,3,FRANK R LAUTENBERG SECAUCUS LOWER LEVEL,40.761188,-74.075821
38174,26,0,1,13,FRANK R LAUTENBERG SECAUCUS LOWER LEVEL,40.761188,-74.075821
38174,26,1,1,18,FRANK R LAUTENBERG SECAUCUS LOWER LEVEL,40.761188,-74.075821
38174,27,0,1,1,FRANK R LAUTENBERG SECAUCUS LOWER LEVEL,40.761188,-74.075821
38174,4,1,3,3,FRANK R LAUTENBERG SECAUCUS LOWER LEVEL,40.761188,-74.075821
38174,6,0,3,68,FRANK R LAUTENBERG SECAUCUS LOWER LEVEL,40.761188,-74.075821
38174,6,1,3,66,FRANK R LAUTENBERG SECAUCUS LOWER LEVEL,40.761188,-74.075821
38174,8,0,3,42,FRANK R LAUTENBERG SECAUCUS LOWER LEVEL,40.761188,-74.075821
38174,8,1,3,39,FRANK R LAUTENBERG SECAUCUS LOWER LEVEL,40.761188,-74.075821
38187,13,0,2,2,FRANK R LAUTENBERG SECAUCUS UPPER LEVEL,40.761188,-74.075821
38187,13,1,3,5,FRANK R LAUTENBERG SECAUCUS UPPER LEVEL,40.761188,-74.075821
38187,14,0,1,1,FRANK R LAUTENBERG SECAUCUS UPPER LEVEL,40.761188,-74.075821
38187,14,1,1,1,FRANK R LAUTENBERG SECAUCUS UPPER LEVEL,40.761188,-74.075821
38187,15,1,1,1,FRANK R LAUTENBERG SECAUCUS UPPER LEVEL,40.761188,-74.075821
38187,16,0,1,10,FRANK R LAUTENBERG SECAUCUS UPPER LEVEL,40.761188,-74.075821
38187,16,1,1,7,FRANK R LAUTENBERG SECAUCUS UPPER LEVEL,40.761188,-74.075821
38187,17,0,1,10,FRANK R LAUTENBERG SECAUCUS UPPER LEVEL,40.761188,-74.075821
38187,17,1,1,10,FRANK R LAUTENBERG SECAUCUS UPPER LEVEL,40.761188,-74.075821
38187,4,0,2,2,FRANK R LAUTENBERG SECAUCUS UPPER LEVEL,40.761188,-74.075821
38187,4,1,3,5,FRANK R LAUTENBERG SECAUCUS UPPER LEVEL,40.761188,-74.075821
38187,6,0,5,118,FRANK R LAUTENBERG SECAUCUS UPPER LEVEL,40.761188,-74.075821
38187,6,1,4,116,FRANK R LAUTENBERG SECAUCUS UPPER LEVEL,40.761188,-74.075821
38187,8,0,3,77,FRANK R LAUTENBERG SECAUCUS UPPER LEVEL,40.761188,-74.075821
38187,8,1,3,69,FRANK R LAUTENBERG SECAUCUS UPPER LEVEL,40.761188,-74.075821
38187,9,0,1,1,FRANK R LAUTENBERG SECAUCUS UPPER LEVEL,40.761188,-74.075821
38417,13,1,2,2,RAMSEY ROUTE 17 STATION,41.07513,-74.145485
38417,4,1,2,2,RAMSEY ROUTE 17 STATION,41.07513,-74.145485
38417,6,0,2,32,RAMSEY ROUTE 17 STATION,41.07513,-74.145485
38417,6,1,2,28,RAMSEY ROUTE 17 STATION,41.07513,-74.145485
38417,8,0,2,18,RAMSEY ROUTE 17 STATION,41.07513,-74.145485
38417,8,1,2,16,RAMSEY ROUTE 17 STATION,41.07513,-74.145485
39,2,0,1,1,EGG HARBOR,39.526441,-74.648028
39,2,1,1,2,EGG HARBOR,39.526441,-74.648028
39,3,0,1,2,EGG HARBOR,39.526441,-74.648028
39,3,1,1,2,EGG HARBOR,39.526441,-74.648028
39,4,0,1,1,EGG HARBOR,39.526441,-74.648028
39,5,0,1,3,EGG HARBOR,39.526441,-74.648028
39,5,1,1,2,EGG HARBOR,39.526441,-74.648028
39,6,0,1,9,EGG HARBOR,39.526441,-74.648028
39,6,1,1,10,EGG HARBOR,39.526441,-74.648028
39,7,0,1,1,EGG HARBOR,39.526441,-74.648028
39,8,0,1,11,EGG HARBOR,39.526441,-74.648028
39,8,1,1,12,EGG HARBOR,39.526441,-74.648028
39472,6,0,2,11,MOUNT ARLINGTON,40.89659,-74.632731
39472,6,1,2,13,MOUNT ARLINGTON,40.89659,-74.632731
39635,6,0,1,5,WAYNE/ROUTE 23 TRANSIT CENTER [RR],40.900254,-74.256971
39635,6,1,1,10,WAYNE/ROUTE 23 TRANSIT CENTER [RR],40.900254,-74.256971
4,13,1,1,1,ALLENHURST,40.237659,-74.006769
4,14,1,1,2,ALLENHURST,40.237659,-74.006769
4,15,1,1,1,ALLENHURST,40.237659,-74.006769
4,16,0,1,1,ALLENHURST,40.237659,-74.006769
4,16,1,1,2,ALLENHURST,40.237659,-74.006769
4,19,0,1,6,ALLENHURST,40.237659,-74.006769
4,19,1,1,6,ALLENHURST,40.237659,-74.006769
4,20,1,1,1,ALLENHURST,40.237659,-74.006769
4,4,1,1,1,ALLENHURST,40.237659,-74.006769
4,6,0,1,17,ALLENHURST,40.237659,-74.006769
4,6,1,1,14,ALLENHURST,40.237659,-74.006769
4,8,0,1,11,ALLENHURST,40.237659,-74.006769
4,8,1,1,9,ALLENHURST,40.237659,-74.006769
4,9,1,1,2,ALLENHURST,40.237659,-74.006769
40,13,1,1,1,ELBERON,40.265292,-73.99762
40,14,1,1,2,ELBERON,40.265292,-73.99762
40,15,1,1,1,ELBERON,40.265292,-73.99762
40,16,0,1,1,ELBERON,40.265292,-73.99762
40,16,1,1,2,ELBERON,40.265292,-73.99762
40,19,0,1,6,ELBERON,40.265292,-73.99762
40,19,1,1,6,ELBERON,40.265292,-73.99762
40,20,1,1,1,ELBERON,40.265292,-73.99762
40,4,1,1,1,ELBERON,40.265292,-73.99762
40,6,0,1,17,ELBERON,40.265292,-73.99762
40,6,1,1,14,ELBERON,40.265292,-73.99762
40,8,0,1,11,ELBERON,40.265292,-73.99762
40,8,1,1,9,ELBERON,40.265292,-73.99762
40,9,1,1,2,ELBERON,40.265292,-73.99762
40570,21,0,1,27,MEADOWLANDS SPORTS COMPLEX STATION,40.813053,-74.072114
40570,21,1,1,29,MEADOWLANDS SPORTS COMPLEX STATION,40.813053,-74.072114
40570,22,0,1,2,MEADOWLANDS SPORTS COMPLEX STATION,40.813053,-74.072114
40570,22,1,1,5,MEADOWLANDS SPORTS COMPLEX STATION,40.813053,-74.072114
40570,23,0,1,18,MEADOWLANDS SPORTS COMPLEX STATION,40.813053,-74.072114
40570,23,1,1,18,MEADOWLANDS SPORTS COMPLEX STATION,40.813053,-74.072114
40570,24,0,1,16,MEADOWLANDS SPORTS COMPLEX STATION,40.813053,-74.072114
40570,24,1,1,18,MEADOWLANDS SPORTS COMPLEX STATION,40.813053,-74.072114
40570,25,0,1,3,MEADOWLANDS SPORTS COMPLEX STATION,40.813053,-74.072114
40570,26,0,1,13,MEADOWLANDS SPORTS COMPLEX STATION,40.813053,-74.072114
40570,26,1,1,18,MEADOWLANDS SPORTS COMPLEX STATION,40.813053,-74.072114
40570,27,0,1,1,MEADOWLANDS SPORTS COMPLEX STATION,40.813053,-74.072114
41,13,0,2,2,ELIZABETH,40.667857,-74.215174
41,13,1,2,3,ELIZABETH,40.667857,-74.215174
41,16,0,1,7,ELIZABETH,40.667857,-74.215174
41,16,1,1,6,ELIZABETH,40.667857,-74.215174
41,17,0,1,10,ELIZABETH,40.667857,-74.215174
41,17,1,1,10,ELIZABETH,40.667857,-74.215174
41,4,0,2,2,ELIZABETH,40.667857,-74.215174
41,4,1,2,4,ELIZABETH,40.667857,-74.215174
41,6,0,2,49,ELIZABETH,40.667857,-74.215174
41,6,1,2,48,ELIZABETH,40.667857,-74.215174
41,8,0,2,43,ELIZABETH,40.667857,-74.215174
41,8,1,2,43,ELIZABETH,40.667857,-74.215174
41586,1,1,1,1,PRINCETON RAILROAD STATION,40.343398,-74.659872
42,13,1,1,1,EMERSON,40.975036,-74.027471
42,4,1,1,1,EMERSON,40.975036,-74.027471
42,6,0,1,14,EMERSON,40.975036,-74.027471
42,6,1,1,16,EMERSON,40.975036,-74.027471
42,8,0,1,9,EMERSON,40.975036,-74.027471
42,8,1,1,9,EMERSON,40.975036,-74.027471
43,13,1,1,1,ESSEX STREET,40.878973,-74.051893
43,4,1,1,1,ESSEX STREET,40.878973,-74.051893
43,6,0,1,16,ESSEX STREET,40.878973,-74.051893
43,6,1,1,17,ESSEX STREET,40.878973,-74.051893
43,8,0,1,10,ESSEX STREET,40.878973,-74.051893
43,8,1,1,9,ESSEX STREET,40.878973,-74.051893
44,14,1,1,1,FANWOOD,40.64106,-74.385003
44,6,0,1,24,FANWOOD,40.64106,-74.385003
44,6,1,1,23,FANWOOD,40.64106,-74.385003
44,8,0,1,18,FANWOOD,40.64106,-74.385003
44,8,1,1,18,FANWOOD,40.64106,-74.385003
44,9,1,1,1,FANWOOD,40.64106,-74.385003
45,10,0,1,1,FAR HILLS,40.685712,-74.633734
45,10,1,1,3,FAR HILLS,40.685712,-74.633734
45,14,1,1,1,FAR HILLS,40.685712,-74.633734
45,6,0,1,21,FAR HILLS,40.685712,-74.633734
45,6,1,1,23,FAR HILLS,40.685712,-74.633734
45,8,0,1,18,FAR HILLS,40.685712,-74.633734
45,8,1,1,17,FAR HILLS,40.685712,-74.633734
45,9,1,1,1,FAR HILLS,40.685712,-74.633734
46,13,1,1,1,GARFIELD,40.866669,-74.10556
46,4,1,1,1,GARFIELD,40.866669,-74.10556
46,6,0,2,14,GARFIELD,40.866669,-74.10556
46,6,1,1,16,GARFIELD,40.866669,-74.10556
46,8,0,2,13,GARFIELD,40.866669,-74.10556
46,8,1,2,14,GARFIELD,40.866669,-74.10556
47,6,0,1,9,GARWOOD,40.652569,-74.324794
47,6,1,1,15,GARWOOD,40.652569,-74.324794
47,8,0,1,2,GARWOOD,40.652569,-74.324794
47,8,1,1,3,GARWOOD,40.652569,-74.324794
48,10,0,1,1,GILLETTE,40.678253,-74.468317
48,10,1,1,3,GILLETTE,40.678253,-74.468317
48,14,1,1,1,GILLETTE,40.678253,-74.468317
48,6,0,1,22,GILLETTE,40.678253,-74.468317
48,6,1,1,24,GILLETTE,40.678253,-74.468317
48,8,0,1,18,GILLETTE,40.678253,-74.468317
48,8,1,1,17,GILLETTE,40.678253,-74.468317
48,9,1,1,1,GILLETTE,40.678253,-74.468317
49,10,0,1,1,GLADSTONE,40.720284,-74.666371
49,10,1,1,3,GLADSTONE,40.720284,-74.666371
49,14,1,1,1,GLADSTONE,40.720284,-74.666371
49,6,0,1,19,GLADSTONE,40.720284,-74.666371
49,6,1,1,23,GLADSTONE,40.720284,-74.666371
49,8,0,1,18,GLADSTONE,40.720284,-74.666371
49,8,1,1,17,GLADSTONE,40.720284,-74.666371
49,9,1,1,1,GLADSTONE,40.720284,-74.666371
5,13,1,1,1,ANDERSON STREET,40.894458,-74.043781
5,4,1,1,1,ANDERSON STREET,40.894458,-74.043781
5,6,0,1,16,ANDERSON STREET,40.894458,-74.043781
5,6,1,1,18,ANDERSON STREET,40.894458,-74.043781
5,8,0,1,10,ANDERSON STREET,40.894458,-74.043781
5,8,1,1,9,ANDERSON STREET,40.894458,-74.043781
50,10,0,1,1,GLEN RIDGE,40.80059,-74.204655
50,10,1,1,1,GLEN RIDGE,40.80059,-74.204655
50,6,0,2,26,GLEN RIDGE,40.80059,-74.204655
50,6,1,2,28,GLEN RIDGE,40.80059,-74.204655
50,8,0,1,8,GLEN RIDGE,40.80059,-74.204655
50,8,1,1,9,GLEN RIDGE,40.80059,-74.204655
51,13,1,1,1,GLEN ROCK BORO HALL,40.96137,-74.1293
51,4,1,1,1,GLEN ROCK BORO HALL,40.96137,-74.1293
51,6,0,2,19,GLEN ROCK BORO HALL,40.96137,-74.1293
51,6,1,2,22,GLEN ROCK BORO HALL,40.96137,-74.1293
51,8,0,2,13,GLEN ROCK BORO HALL,40.96137,-74.1293
51,8,1,2,14,GLEN ROCK BORO HALL,40.96137,-74.1293
52,13,1,1,1,GLEN ROCK MAIN LINE,40.962206,-74.133485
52,4,1,1,1,GLEN ROCK MAIN LINE,40.962206,-74.133485
52,6,0,2,24,GLEN ROCK MAIN LINE,40.962206,-74.133485
52,6,1,2,23,GLEN ROCK MAIN LINE,40.962206,-74.133485
52,8,0,2,17,GLEN ROCK MAIN LINE,40.962206,-74.133485
52,8,1,1,14,GLEN ROCK MAIN LINE,40.962206,-74.133485
54,6,0,2,7,HACKETTSTOWN,40.851444,-74.835352
54,6,1,2,7,HACKETTSTOWN,40.851444,-74.835352
55,2,0,1,1,HAMMONTON,39.631673,-74.79946
55,2,1,1,2,HAMMONTON,39.631673,-74.79946
55,3,0,1,2,HAMMONTON,39.631673,-74.79946
55,3,1,1,2,HAMMONTON,39.631673,-74.79946
55,4,0,1,1,HAMMONTON,39.631673,-74.79946
55,5,0,1,3,HAMMONTON,39.631673,-74.79946
55,5,1,1,2,HAMMONTON,39.631673,-74.79946
55,6,0,1,9,HAMMONTON,39.631673,-74.79946
55,6,1,1,10,HAMMONTON,39.631673,-74.79946
55,7,0,1,1,HAMMONTON,39.631673,-74.79946
55,8,0,1,11,HAMMONTON,39.631673,-74.79946
55,8,1,1,12,HAMMONTON,39.631673,-74.79946
58,13,1,1,1,HAWTHORNE,40.942539,-74.152411
58,4,1,1,1,HAWTHORNE,40.942539,-74.152411
58,6,0,2,24,HAWTHORNE,40.942539,-74.152411
58,6,1,2,23,HAWTHORNE,40.942539,-74.152411
58,8,0,2,17,HAWTHORNE,40.942539,-74.152411
58,8,1,1,14,HAWTHORNE,40.942539,-74.152411
59,13,0,1,1,HAZLET,40.415385,-74.190393
59,13,1,1,2,HAZLET,40.415385,-74.190393
59,16,0,1,10,HAZLET,40.415385,-74.190393
59,16,1,2,10,HAZLET,40.415385,-74.190393
59,17,0,1,10,HAZLET,40.415385,-74.190393
59,17,1,1,10,HAZLET,40.415385,-74.190393
59,18,1,1,1,HAZLET,40.415385,-74.190393
59,4,0,1,1,HAZLET,40.415385,-74.190393
59,4,1,1,2,HAZLET,40.415385,-74.190393
59,6,0,2,21,HAZLET,40.415385,-74.190393
59,6,1,2,21,HAZLET,40.415385,-74.190393
59,8,0,1,19,HAZLET,40.415385,-74.190393
59,8,1,1,18,HAZLET,40.415385,-74.190393
6,6,0,1,7,ANNANDALE,40.645173,-74.878569
6,6,1,1,10,ANNANDALE,40.645173,-74.878569
60,6,0,1,7,HIGH BRIDGE,40.666884,-74.895863
60,6,1,1,10,HIGH BRIDGE,40.666884,-74.895863
61,13,1,1,1,HIGHLAND AVENUE,40.766863,-74.243741
61,14,1,2,2,HIGHLAND AVENUE,40.766863,-74.243741
61,15,1,1,1,HIGHLAND AVENUE,40.766863,-74.243741
61,6,0,2,26,HIGHLAND AVENUE,40.766863,-74.243741
61,6,1,2,32,HIGHLAND AVENUE,40.766863,-74.243741
61,8,0,1,11,HIGHLAND AVENUE,40.766863,-74.243741
61,8,1,1,10,HIGHLAND AVENUE,40.766863,-74.243741
61,9,1,1,1,HIGHLAND AVENUE,40.766863,-74.243741
62,13,1,1,1,HILLSDALE,41.002414,-74.041033
62,4,1,1,1,HILLSDALE,41.002414,-74.041033
62,6,0,1,15,HILLSDALE,41.002414,-74.041033
62,6,1,1,16,HILLSDALE,41.002414,-74.041033
62,8,0,1,10,HILLSDALE,41.002414,-74.041033
62,8,1,1,9,HILLSDALE,41.002414,-74.041033
63,10,0,1,1,HOBOKEN,40.734843,-74.028046
63,10,1,1,1,HOBOKEN,40.734843,-74.028046
63,13,1,3,3,HOBOKEN,40.734843,-74.028046
63,14,1,1,1,HOBOKEN,40.734843,-74.028046
63,16,0,1,1,HOBOKEN,40.734843,-74.028046
63,16,1,1,2,HOBOKEN,40.734843,-74.028046
63,21,0,1,27,HOBOKEN,40.734843,-74.028046
63,21,1,1,26,HOBOKEN,40.734843,-74.028046
63,22,0,1,2,HOBOKEN,40.734843,-74.028046
63,22,1,1,5,HOBOKEN,40.734843,-74.028046
63,23,0,1,15,HOBOKEN,40.734843,-74.028046
63,23,1,1,6,HOBOKEN,40.734843,-74.028046
63,24,0,1,16,HOBOKEN,40.734843,-74.028046
63,24,1,1,18,HOBOKEN,40.734843,-74.028046
63,25,0,1,3,HOBOKEN,40.734843,-74.028046
63,26,0,1,13,HOBOKEN,40.734843,-74.028046
63,26,1,1,18,HOBOKEN,40.734843,-74.028046
63,27,0,1,1,HOBOKEN,40.734843,-74.028046
63,4,1,3,3,HOBOKEN,40.734843,-74.028046
63,6,0,9,116,HOBOKEN,40.734843,-74.028046
63,6,1,8,119,HOBOKEN,40.734843,-74.028046
63,8,0,5,51,HOBOKEN,40.734843,-74.028046
63,8,1,5,49,HOBOKEN,40.734843,-74.028046
63,9,1,1,1,HOBOKEN,40.734843,-74.028046
64,13,1,2,2,HOHOKUS,40.997369,-74.113521
64,4,1,2,2,HOHOKUS,40.997369,-74.113521
64,6,0,2,41,HOHOKUS,40.997369,-74.113521
64,6,1,2,37,HOHOKUS,40.997369,-74.113521
64,8,0,2,29,HOHOKUS,40.997369,-74.113521
64,8,1,2,28,HOHOKUS,40.997369,-74.113521
66,13,1,1,1,KINGSLAND,40.810121,-74.117334
66,4,1,1,1,KINGSLAND,40.810121,-74.117334
66,6,0,2,24,KINGSLAND,40.810121,-74.117334
66,6,1,2,23,KINGSLAND,40.810121,-74.117334
66,8,0,2,17,KINGSLAND,40.810121,-74.117334
66,8,1,1,14,KINGSLAND,40.810121,-74.117334
67,6,0,2,11,LAKE HOPATCONG,40.904219,-74.665697
67,6,1,2,13,LAKE HOPATCONG,40.904219,-74.665697
68,6,0,1,7,LEBANON,40.636905,-74.835766
68,6,1,1,10,LEBANON,40.636905,-74.835766
69,6,0,1,5,LINCOLN PARK,40.924138,-74.301826
69,6,1,1,10,LINCOLN PARK,40.924138,-74.301826
70,13,0,2,2,LINDEN,40.629485,-74.251772
70,13,1,2,3,LINDEN,40.629485,-74.251772
70,16,0,1,7,LINDEN,40.629485,-74.251772
70,16,1,1,6,LINDEN,40.629485,-74.251772
70,17,0,1,10,LINDEN,40.629485,-74.251772
70,17,1,1,10,LINDEN,40.629485,-74.251772
70,4,0,2,2,LINDEN,40.629485,-74.251772
70,4,1,2,4,LINDEN,40.629485,-74.251772
70,6,0,2,48,LINDEN,40.629485,-74.251772
70,6,1,2,48,LINDEN,40.629485,-74.251772
70,8,0,2,43,LINDEN,40.629485,-74.251772
70,8,1,2,43,LINDEN,40.629485,-74.251772
71,2,0,1,1,LINDENWOLD,39.833809,-75.000314
71,2,1,1,1,LINDENWOLD,39.833809,-75.000314
71,3,0,1,2,LINDENWOLD,39.833809,-75.000314
71,3,1,1,2,LINDENWOLD,39.833809,-75.000314
71,4,0,1,1,LINDENWOLD,39.833809,-75.000314
71,5,0,1,3,LINDENWOLD,39.833809,-75.000314
71,5,1,1,2,LINDENWOLD,39.833809,-75.000314
71,6,0,1,9,LINDENWOLD,39.833809,-75.000314
71,6,1,1,10,LINDENWOLD,39.833809,-75.000314
71,7,0,1,1,LINDENWOLD,39.833809,-75.000314
71,8,0,1,11,LINDENWOLD,39.833809,-75.000314
71,8,1,1,12,LINDENWOLD,39.833809,-75.000314
71,9,0,1,2,LINDENWOLD,39.833809,-75.000314
71,9,1,1,2,LINDENWOLD,39.833809,-75.000314
72,6,0,1,5,LITTLE FALLS,40.880669,-74.235372
72,6,1,1,10,LITTLE FALLS,40.880669,-74.235372
73,13,0,1,1,LITTLE SILVER,40.326715,-74.041054
73,13,1,1,2,LITTLE SILVER,40.326715,-74.041054
73,16,0,2,11,LITTLE SILVER,40.326715,-74.041054
73,16,1,2,10,LITTLE SILVER,40.326715,-74.041054
73,17,0,1,10,LITTLE SILVER,40.326715,-74.041054
73,17,1,1,10,LITTLE SILVER,40.326715,-74.041054
73,18,1,1,1,LITTLE SILVER,40.326715,-74.041054
73,4,0,1,1,LITTLE SILVER,40.326715,-74.041054
73,4,1,1,2,LITTLE SILVER,40.326715,-74.041054
73,6,0,2,22,LITTLE SILVER,40.326715,-74.041054
73,6,1,2,21,LITTLE SILVER,40.326715,-74.041054
73,8,0,1,19,LITTLE SILVER,40.326715,-74.041054
73,8,1,1,18,LITTLE SILVER,40.326715,-74.041054
74,13,0,1,1,LONG BRANCH,40.297145,-73.988331
74,13,1,2,3,LONG BRANCH,40.297145,-73.988331
74,14,1,1,2,LONG BRANCH,40.297145,-73.988331
74,15,1,1,1,LONG BRANCH,40.297145,-73.988331
74,16,0,2,11,LONG BRANCH,40.297145,-73.988331
74,16,1,2,10,LONG BRANCH,40.297145,-73.988331
74,17,0,1,10,LONG BRANCH,40.297145,-73.988331
74,17,1,1,10,LONG BRANCH,40.297145,-73.988331
74,18,1,1,1,LONG BRANCH,40.297145,-73.988331
74,19,0,1,6,LONG BRANCH,40.297145,-73.988331
74,19,1,1,6,LONG BRANCH,40.297145,-73.988331
74,20,1,1,1,LONG BRANCH,40.297145,-73.988331
74,4,0,1,1,LONG BRANCH,40.297145,-73.988331
74,4,1,2,3,LONG BRANCH,40.297145,-73.988331
74,6,0,2,35,LONG BRANCH,40.297145,-73.988331
74,6,1,2,32,LONG BRANCH,40.297145,-73.988331
74,8,0,2,30,LONG BRANCH,40.297145,-73.988331
74,8,1,2,27,LONG BRANCH,40.297145,-73.988331
74,9,1,1,2,LONG BRANCH,40.297145,-73.988331
75,13,1,1,1,LYNDHURST,40.816475,-74.124164
75,4,1,1,1,LYNDHURST,40.816475,-74.124164
75,6,0,2,24,LYNDHURST,40.816475,-74.124164
75,6,1,2,22,LYNDHURST,40.816475,-74.124164
75,8,0,2,17,LYNDHURST,40.816475,-74.124164
75,8,1,1,14,LYNDHURST,40.816475,-74.124164
76,10,0,1,1,LYONS,40.684844,-74.54947
76,10,1,1,3,LYONS,40.684844,-74.54947
76,14,1,1,1,LYONS,40.684844,-74.54947
76,6,0,1,22,LYONS,40.684844,-74.54947
76,6,1,1,24,LYONS,40.684844,-74.54947
76,8,0,1,18,LYONS,40.684844,-74.54947
76,8,1,1,17,LYONS,40.684844,-74.54947
76,9,1,1,1,LYONS,40.684844,-74.54947
77,13,1,1,2,MADISON,40.757028,-74.415105
77,14,0,1,1,MADISON,40.757028,-74.415105
77,14,1,1,1,MADISON,40.757028,-74.415105
77,15,1,1,1,MADISON,40.757028,-74.415105
77,4,1,1,1,MADISON,40.757028,-74.415105
77,6,0,1,37,MADISON,40.757028,-74.415105
77,6,1,1,35,MADISON,40.757028,-74.415105
77,8,0,1,20,MADISON,40.757028,-74.415105
77,8,1,1,18,MADISON,40.757028,-74.415105
77,9,0,1,1,MADISON,40.757028,-74.415105
78,13,1,2,2,MAHWAH,41.094416,-74.14662
78,4,1,2,2,MAHWAH,41.094416,-74.14662
78,6,0,2,28,MAHWAH,41.094416,-74.14662
78,6,1,2,26,MAHWAH,41.094416,-74.14662
78,8,0,2,18,MAHWAH,41.094416,-74.14662
78,8,1,2,16,MAHWAH,41.094416,-74.14662
79,13,1,1,1,MANASQUAN,40.120573,-74.047688
79,14,1,1,2,MANASQUAN,40.120573,-74.047688
79,15,1,1,1,MANASQUAN,40.120573,-74.047688
79,16,0,1,1,MANASQUAN,40.120573,-74.047688
79,16,1,1,2,MANASQUAN,40.120573,-74.047688
79,19,0,1,6,MANASQUAN,40.120573,-74.047688
79,19,1,1,6,MANASQUAN,40.120573,-74.047688
79,20,1,1,1,MANASQUAN,40.120573,-74.047688
79,4,1,1,1,MANASQUAN,40.120573,-74.047688
79,6,0,1,17,MANASQUAN,40.120573,-74.047688
79,6,1,1,14,MANASQUAN,40.120573,-74.047688
79,8,0,1,11,MANASQUAN,40.120573,-74.047688
79,8,1,1,9,MANASQUAN,40.120573,-74.047688
79,9,1,1,2,MANASQUAN,40.120573,-74.047688
8,13,1,1,1,ASBURY PARK,40.215359,-74.014786
8,14,1,1,2,ASBURY PARK,40.215359,-74.014786
8,15,1,1,1,ASBURY PARK,40.215359,-74.014786
8,16,0,1,1,ASBURY PARK,40.215359,-74.014786
8,16,1,1,2,ASBURY PARK,40.215359,-74.014786
8,19,0,1,6,ASBURY PARK,40.215359,-74.014786
8,19,1,1,6,ASBURY PARK,40.215359,-74.014786
8,20,1,1,1,ASBURY PARK,40.215359,-74.014786
8,4,1,1,1,ASBURY PARK,40.215359,-74.014786
8,6,0,1,17,ASBURY PARK,40.215359,-74.014786
8,6,1,1,14,ASBURY PARK,40.215359,-74.014786
8,8,0,1,11,ASBURY PARK,40.215359,-74.014786
8,8,1,1,9,ASBURY PARK,40.215359,-74.014786
8,9,1,1,2,ASBURY PARK,40.215359,-74.014786
81,13,1,1,2,MAPLEWOOD,40.731149,-74.275427
81,14,1,2,2,MAPLEWOOD,40.731149,-74.275427
81,15,1,1,1,MAPLEWOOD,40.731149,-74.275427
81,4,1,1,1,MAPLEWOOD,40.731149,-74.275427
81,6,0,2,48,MAPLEWOOD,40.731149,-74.275427
81,6,1,2,56,MAPLEWOOD,40.731149,-74.275427
81,8,0,1,20,MAPLEWOOD,40.731149,-74.275427
81,8,1,1,18,MAPLEWOOD,40.731149,-74.275427
81,9,1,1,1,MAPLEWOOD,40.731149,-74.275427
83,13,0,1,1,METROPARK,40.56864,-74.329394
83,13,1,1,1,METROPARK,40.56864,-74.329394
83,4,0,1,1,METROPARK,40.56864,-74.329394
83,4,1,1,2,METROPARK,40.56864,-74.329394
83,6,0,1,52,METROPARK,40.56864,-74.329394
83,6,1,1,52,METROPARK,40.56864,-74.329394
83,8,0,1,31,METROPARK,40.56864,-74.329394
83,8,1,1,30,METROPARK,40.56864,-74.329394
84,13,0,1,1,METUCHEN,40.540736,-74.360671
84,13,1,1,1,METUCHEN,40.540736,-74.360671
84,4,0,1,1,METUCHEN,40.540736,-74.360671
84,4,1,1,2,METUCHEN,40.540736,-74.360671
84,6,0,1,50,METUCHEN,40.540736,-74.360671
84,6,1,1,51,METUCHEN,40.540736,-74.360671
84,8,0,1,31,METUCHEN,40.540736,-74.360671
84,8,1,1,30,METUCHEN,40.540736,-74.360671
85,13,0,1,1,MIDDLETOWN NJ,40.38978,-74.116131
85,13,1,1,2,MIDDLETOWN NJ,40.38978,-74.116131
85,16,0,2,11,MIDDLETOWN NJ,40.38978,-74.116131
85,16,1,2,10,MIDDLETOWN NJ,40.38978,-74.116131
85,17,0,1,10,MIDDLETOWN NJ,40.38978,-74.116131
85,17,1,1,10,MIDDLETOWN NJ,40.38978,-74.116131
85,18,1,1,1,MIDDLETOWN NJ,40.38978,-74.116131
85,4,0,1,1,MIDDLETOWN NJ,40.38978,-74.116131
85,4,1,1,2,MIDDLETOWN NJ,40.38978,-74.116131
85,6,0,2,22,MIDDLETOWN NJ,40.38978,-74.116131
85,6,1,2,21,MIDDLETOWN NJ,40.38978,-74.116131
85,8,0,1,19,MIDDLETOWN NJ,40.38978,-74.116131
85,8,1,1,18,MIDDLETOWN NJ,40.38978,-74.116131
87,13,1,1,2,MILLBURN,40.725622,-74.303755
87,14,0,1,1,MILLBURN,40.725622,-74.303755
87,14,1,2,2,MILLBURN,40.725622,-74.303755
87,15,1,1,1,MILLBURN,40.725622,-74.303755
87,4,1,1,1,MILLBURN,40.725622,-74.303755
87,6,0,2,49,MILLBURN,40.725622,-74.303755
87,6,1,2,56,MILLBURN,40.725622,-74.303755
87,8,0,1,20,MILLBURN,40.725622,-74.303755
87,8,1,1,18,MILLBURN,40.725622,-74.303755
87,9,0,1,1,MILLBURN,40.725622,-74.303755
87,9,1,1,1,MILLBURN,40.725622,-74.303755
88,10,0,1,1,MILLINGTON,40.673515,-74.523606
88,10,1,1,3,MILLINGTON,40.673515,-74.523606
88,14,1,1,1,MILLINGTON,40.673515,-74.523606
88,6,0,1,22,MILLINGTON,40.673515,-74.523606
88,6,1,1,24,MILLINGTON,40.673515,-74.523606
88,8,0,1,18,MILLINGTON,40.673515,-74.523606
88,8,1,1,17,MILLINGTON,40.673515,-74.523606
88,9,1,1,1,MILLINGTON,40.673515,-74.523606
89,6,0,2,27,MONTCLAIR HEIGHTS,40.857536,-74.2025
89,6,1,2,30,MONTCLAIR HEIGHTS,40.857536,-74.2025
9,2,0,1,1,ATCO,39.783547,-74.907588
9,2,1,1,1,ATCO,39.783547,-74.907588
9,3,0,1,2,ATCO,39.783547,-74.907588
9,3,1,1,2,ATCO,39.783547,-74.907588
9,4,0,1,1,ATCO,39.783547,-74.907588
9,5,0,1,3,ATCO,39.783547,-74.907588
9,5,1,1,2,ATCO,39.783547,-74.907588
9,6,0,1,9,ATCO,39.783547,-74.907588
9,6,1,1,10,ATCO,39.783547,-74.907588
9,7,0,1,1,ATCO,39.783547,-74.907588
9,8,0,1,11,ATCO,39.783547,-74.907588
9,8,1,1,12,ATCO,39.783547,-74.907588
90,13,1,1,1,MONTVALE,41.040879,-74.029152
90,4,1,1,1,MONTVALE,41.040879,-74.029152
90,6,0,1,15,MONTVALE,41.040879,-74.029152
90,6,1,1,16,MONTVALE,41.040879,-74.029152
90,8,0,1,9,MONTVALE,41.040879,-74.029152
90,8,1,1,9,MONTVALE,41.040879,-74.029152
91,13,1,1,2,MORRIS PLAINS,40.828639,-74.478197
91,14,0,1,1,MORRIS PLAINS,40.828639,-74.478197
91,14,1,1,1,MORRIS PLAINS,40.828639,-74.478197
91,15,1,1,1,MORRIS PLAINS,40.828639,-74.478197
91,4,1,1,1,MORRIS PLAINS,40.828639,-74.478197
91,6,0,1,37,MORRIS PLAINS,40.828639,-74.478197
91,6,1,1,35,MORRIS PLAINS,40.828639,-74.478197
91,8,0,1,20,MORRIS PLAINS,40.828639,-74.478197
91,8,1,1,18,MORRIS PLAINS,40.828639,-74.478197
91,9,0,1,1,MORRIS PLAINS,40.828639,-74.478197
92,13,1,1,2,MORRISTOWN,40.797113,-74.474086
92,14,0,1,1,MORRISTOWN,40.797113,-74.474086
92,14,1,1,1,MORRISTOWN,40.797113,-74.474086
92,15,1,1,1,MORRISTOWN,40.797113,-74.474086
92,4,1,1,1,MORRISTOWN,40.797113,-74.474086
92,6,0,1,37,MORRISTOWN,40.797113,-74.474086
92,6,1,1,35,MORRISTOWN,40.797113,-74.474086
92,8,0,1,20,MORRISTOWN,40.797113,-74.474086
92,8,1,1,18,MORRISTOWN,40.797113,-74.474086
92,9,0,1,1,MORRISTOWN,40.797113,-74.474086
93,6,0,2,9,MOUNT OLIVE,40.907376,-74.730653
93,6,1,2,10,MOUNT OLIVE,40.907376,-74.730653
94,13,1,1,1,MOUNT TABOR,40.875904,-74.481915
94,14,0,1,1,MOUNT TABOR,40.875904,-74.481915
94,14,1,1,1,MOUNT TABOR,40.875904,-74.481915
94,15,1,1,1,MOUNT TABOR,40.875904,-74.481915
94,6,0,1,17,MOUNT TABOR,40.875904,-74.481915
94,6,1,1,15,MOUNT TABOR,40.875904,-74.481915
94,8,0,1,9,MOUNT TABOR,40.875904,-74.481915
94,8,1,1,8,MOUNT TABOR,40.875904,-74.481915
94,9,0,1,1,MOUNT TABOR,40.875904,-74.481915
95,6,0,2,21,MOUNTAIN AVENUE,40.848715,-74.205306
95,6,1,2,24,MOUNTAIN AVENUE,40.848715,-74.205306
96,6,0,1,5,MOUNTAIN LAKES,40.885947,-74.433604
96,6,1,1,10,MOUNTAIN LAKES,40.885947,-74.433604
97,13,1,1,2,MOUNTAIN STATION,40.755367,-74.253024
97,14,1,2,2,MOUNTAIN STATION,40.755367,-74.253024
97,15,1,1,1,MOUNTAIN STATION,40.755367,-74.253024
97,4,1,1,1,MOUNTAIN STATION,40.755367,-74.253024
97,6,0,2,27,MOUNTAIN STATION,40.755367,-74.253024
97,6,1,2,33,MOUNTAIN STATION,40.755367,-74.253024
97,8,0,1,10,MOUNTAIN STATION,40.755367,-74.253024
97,8,1,1,9,MOUNTAIN STATION,40.755367,-74.253024
97,9,1,1,1,MOUNTAIN STATION,40.755367,-74.253024
98,6,0,1,5,MOUNTAIN VIEW,40.914402,-74.268158
98,6,1,1,10,MOUNTAIN VIEW,40.914402,-74.268158
99,10,0,1,1,MURRAY HILL,40.69507,-74.403134
99,10,1,1,3,MURRAY HILL,40.69507,-74.403134
99,14,1,1,1,MURRAY HILL,40.69507,-74.403134
99,6,0,1,23,MURRAY HILL,40.69507,-74.403134
99,6,1,1,25,MURRAY HILL,40.69507,-74.403134
99,8,0,1,18,MURRAY HILL,40.69507,-74.403134
99,8,1,1,17,MURRAY HILL,40.69507,-74.403134
99,9,1,1,1,MURRAY HILL,40.69507,-74.403134
