stop_id,service_id,direction_id,numroutes,TripsServingStop,stop_name,stop_lat,stop_lon
14984,1,0,1,177,BLOOMFIELD AVE LIGHT RAIL STATION,40.76546,-74.179863
14984,1,1,1,177,BLOOMFIELD AVE LIGHT RAIL STATION,40.76546,-74.179863
14984,11,0,1,61,BLOOMFIELD AVE LIGHT RAIL STATION,40.76546,-74.179863
14984,11,1,1,61,BLOOMFIELD AVE LIGHT RAIL STATION,40.76546,-74.179863
14984,12,0,1,49,BLOOMFIELD AVE LIGHT RAIL STATION,40.76546,-74.179863
14984,12,1,1,49,BLOOMFIELD AVE LIGHT RAIL STATION,40.76546,-74.179863
14986,1,0,1,177,ORANGE STREET LIGHT RAIL STATION,40.750629,-74.184951
14986,1,1,1,177,ORANGE STREET LIGHT RAIL STATION,40.750629,-74.184951
14986,11,0,1,61,ORANGE STREET LIGHT RAIL STATION,40.750629,-74.184951
14986,11,1,1,61,ORANGE STREET LIGHT RAIL STATION,40.750629,-74.184951
14986,12,0,1,49,ORANGE STREET LIGHT RAIL STATION,40.750629,-74.184951
14986,12,1,1,49,ORANGE STREET LIGHT RAIL STATION,40.750629,-74.184951
17699,1,0,1,146,LINCOLN HARBOR HBLR STATION,40.761399,-74.024
17699,1,1,1,150,LINCOLN HARBOR HBLR STATION,40.761399,-74.024
17699,11,0,1,58,LINCOLN HARBOR HBLR STATION,40.761399,-74.024
17699,11,1,1,60,LINCOLN HARBOR HBLR STATION,40.761399,-74.024
17699,12,0,1,58,LINCOLN HARBOR HBLR STATION,40.761399,-74.024
17699,12,1,1,60,LINCOLN HARBOR HBLR STATION,40.761399,-74.024
26316,1,0,1,177,BRANCH BROOK PARK STATION,40.779638,-74.174752
26316,1,1,1,177,BRANCH BROOK PARK STATION,40.779638,-74.174752
26316,11,0,1,61,BRANCH BROOK PARK STATION,40.779638,-74.174752
26316,11,1,1,61,BRANCH BROOK PARK STATION,40.779638,-74.174752
26316,12,0,1,49,BRANCH BROOK PARK STATION,40.779638,-74.174752
26316,12,1,1,49,BRANCH BROOK PARK STATION,40.779638,-74.174752
26326,1,0,1,230,PENN STATION LIGHT RAIL,40.73481,-74.163603
26326,1,1,1,230,PENN STATION LIGHT RAIL,40.73481,-74.163603
26326,11,0,1,61,PENN STATION LIGHT RAIL,40.73481,-74.163603
26326,11,1,1,61,PENN STATION LIGHT RAIL,40.73481,-74.163603
26326,12,0,1,49,PENN STATION LIGHT RAIL,40.73481,-74.163603
26326,12,1,1,49,PENN STATION LIGHT RAIL,40.73481,-74.163603
36994,1,0,1,177,EXCHANGE PLACE HBLR STATION,40.716009,-74.034092
36994,1,1,1,181,EXCHANGE PLACE HBLR STATION,40.716009,-74.034092
36994,11,0,1,118,EXCHANGE PLACE HBLR STATION,40.716009,-74.034092
36994,11,1,1,120,EXCHANGE PLACE HBLR STATION,40.716009,-74.034092
36994,12,0,1,118,EXCHANGE PLACE HBLR STATION,40.716009,-74.034092
36994,12,1,1,120,EXCHANGE PLACE HBLR STATION,40.716009,-74.034092
36995,1,0,1,177,ESSEX STREET HBLR STATION,40.712838,-74.036082
36995,1,1,1,181,ESSEX STREET HBLR STATION,40.712838,-74.036082
36995,11,0,1,118,ESSEX STREET HBLR STATION,40.712838,-74.036082
36995,11,1,1,120,ESSEX STREET HBLR STATION,40.712838,-74.036082
36995,12,0,1,118,ESSEX STREET HBLR STATION,40.712838,-74.036082
36995,12,1,1,120,ESSEX STREET HBLR STATION,40.712838,-74.036082
36996,1,0,1,163,MARIN BOULEVARD HBLR STATION,40.714428,-74.043241
36996,1,1,1,169,MARIN BOULEVARD HBLR STATION,40.714428,-74.043241
36996,11,0,1,118,MARIN BOULEVARD HBLR STATION,40.714428,-74.043241
36996,11,1,1,120,MARIN BOULEVARD HBLR STATION,40.714428,-74.043241
36996,12,0,1,118,MARIN BOULEVARD HBLR STATION,40.714428,-74.043241
36996,12,1,1,120,MARIN BOULEVARD HBLR STATION,40.714428,-74.043241
36997,1,0,1,163,JERSEY AVENUE HBLR STATION,40.714978,-74.048491
36997,1,1,1,169,JERSEY AVENUE HBLR STATION,40.714978,-74.048491
36997,11,0,1,118,JERSEY AVENUE HBLR STATION,40.714978,-74.048491
36997,11,1,1,120,JERSEY AVENUE HBLR STATION,40.714978,-74.048491
36997,12,0,1,118,JERSEY AVENUE HBLR STATION,40.714978,-74.048491
36997,12,1,1,120,JERSEY AVENUE HBLR STATION,40.714978,-74.048491
36998,1,0,1,177,LIBERTY STATE PARK PARK-RIDE HBLR,40.710378,-74.055812
36998,1,1,1,181,LIBERTY STATE PARK PARK-RIDE HBLR,40.710378,-74.055812
36998,11,0,1,118,LIBERTY STATE PARK PARK-RIDE HBLR,40.710378,-74.055812
36998,11,1,1,120,LIBERTY STATE PARK PARK-RIDE HBLR,40.710378,-74.055812
36998,12,0,1,118,LIBERTY STATE PARK PARK-RIDE HBLR,40.710378,-74.055812
36998,12,1,1,120,LIBERTY STATE PARK PARK-RIDE HBLR,40.710378,-74.055812
36999,1,0,1,79,GARFIELD AVENUE HBLR STATION,40.710509,-74.07112
36999,1,1,1,89,GARFIELD AVENUE HBLR STATION,40.710509,-74.07112
36999,11,0,1,57,GARFIELD AVENUE HBLR STATION,40.710509,-74.07112
36999,11,1,1,60,GARFIELD AVENUE HBLR STATION,40.710509,-74.07112
36999,12,0,1,57,GARFIELD AVENUE HBLR STATION,40.710509,-74.07112
36999,12,1,1,60,GARFIELD AVENUE HBLR STATION,40.710509,-74.07112
37000,1,0,1,79,ML KING DRIVE HBLR STATION,40.712008,-74.077323
37000,1,1,1,89,ML KING DRIVE HBLR STATION,40.712008,-74.077323
37000,11,0,1,57,ML KING DRIVE HBLR STATION,40.712008,-74.077323
37000,11,1,1,60,ML KING DRIVE HBLR STATION,40.712008,-74.077323
37000,12,0,1,57,ML KING DRIVE HBLR STATION,40.712008,-74.077323
37000,12,1,1,60,ML KING DRIVE HBLR STATION,40.712008,-74.077323
37001,1,0,1,79,WEST SIDE AVE HBLR STATION,40.714548,-74.087581
37001,1,1,1,89,WEST SIDE AVE HBLR STATION,40.714548,-74.087581
37001,11,0,1,57,WEST SIDE AVE HBLR STATION,40.714548,-74.087581
37001,11,1,1,60,WEST SIDE AVE HBLR STATION,40.714548,-74.087581
37001,12,0,1,57,WEST SIDE AVE HBLR STATION,40.714548,-74.087581
37001,12,1,1,60,WEST SIDE AVE HBLR STATION,40.714548,-74.087581
37002,1,0,1,78,RICHARD STREET HBLR STATION,40.699118,-74.078643
37002,1,1,1,94,RICHARD STREET HBLR STATION,40.699118,-74.078643
37002,11,0,1,57,RICHARD STREET HBLR STATION,40.699118,-74.078643
37002,11,1,1,60,RICHARD STREET HBLR STATION,40.699118,-74.078643
37002,12,0,1,57,RICHARD STREET HBLR STATION,40.699118,-74.078643
37002,12,1,1,60,RICHARD STREET HBLR STATION,40.699118,-74.078643
37003,1,0,1,78,DANFORTH AVENUE HBLR STATION,40.692357,-74.087262
37003,1,1,1,94,DANFORTH AVENUE HBLR STATION,40.692357,-74.087262
37003,11,0,1,57,DANFORTH AVENUE HBLR STATION,40.692357,-74.087262
37003,11,1,1,60,DANFORTH AVENUE HBLR STATION,40.692357,-74.087262
37003,12,0,1,57,DANFORTH AVENUE HBLR STATION,40.692357,-74.087262
37003,12,1,1,60,DANFORTH AVENUE HBLR STATION,40.692357,-74.087262
37004,1,0,1,87,E 45TH STREET HBLR STATION,40.67867,-74.101673
37004,1,1,1,102,E 45TH STREET HBLR STATION,40.67867,-74.101673
37004,11,0,1,57,E 45TH STREET HBLR STATION,40.67867,-74.101673
37004,11,1,1,60,E 45TH STREET HBLR STATION,40.67867,-74.101673
37004,12,0,1,57,E 45TH STREET HBLR STATION,40.67867,-74.101673
37004,12,1,1,60,E 45TH STREET HBLR STATION,40.67867,-74.101673
37005,1,0,1,87,E 34TH STREET HBLR STATION,40.671778,-74.107493
37005,1,1,1,102,E 34TH STREET HBLR STATION,40.671778,-74.107493
37005,11,0,1,57,E 34TH STREET HBLR STATION,40.671778,-74.107493
37005,11,1,1,60,E 34TH STREET HBLR STATION,40.671778,-74.107493
37005,12,0,1,57,E 34TH STREET HBLR STATION,40.671778,-74.107493
37005,12,1,1,60,E 34TH STREET HBLR STATION,40.671778,-74.107493
37376,1,0,1,177,HARBORSIDE HBLR STATION,40.719527,-74.034003
37376,1,1,1,181,HARBORSIDE HBLR STATION,40.719527,-74.034003
37376,11,0,1,118,HARBORSIDE HBLR STATION,40.719527,-74.034003
37376,11,1,1,120,HARBORSIDE HBLR STATION,40.719527,-74.034003
37376,12,0,1,118,HARBORSIDE HBLR STATION,40.719527,-74.034003
37376,12,1,1,120,HARBORSIDE HBLR STATION,40.719527,-74.034003
37377,1,0,1,163,HARSIMUS COVE HBLR STATION,40.722668,-74.037281
37377,1,1,1,169,HARSIMUS COVE HBLR STATION,40.722668,-74.037281
37377,11,0,1,118,HARSIMUS COVE HBLR STATION,40.722668,-74.037281
37377,11,1,1,120,HARSIMUS COVE HBLR STATION,40.722668,-74.037281
37377,12,0,1,118,HARSIMUS COVE HBLR STATION,40.722668,-74.037281
37377,12,1,1,120,HARSIMUS COVE HBLR STATION,40.722668,-74.037281
37378,1,0,1,177,NEWPORT HBLR STATION,40.726819,-74.036233
37378,1,1,1,181,NEWPORT HBLR STATION,40.726819,-74.036233
37378,11,0,1,118,NEWPORT HBLR STATION,40.726819,-74.036233
37378,11,1,1,120,NEWPORT HBLR STATION,40.726819,-74.036233
37378,12,0,1,118,NEWPORT HBLR STATION,40.726819,-74.036233
37378,12,1,1,120,NEWPORT HBLR STATION,40.726819,-74.036233
38064,1,0,1,123,SILVER LAKE LIGHT RAIL STOP,40.780298,-74.180473
38064,1,1,1,123,SILVER LAKE LIGHT RAIL STOP,40.780298,-74.180473
38064,11,0,1,61,SILVER LAKE LIGHT RAIL STOP,40.780298,-74.180473
38064,11,1,1,61,SILVER LAKE LIGHT RAIL STOP,40.780298,-74.180473
38064,12,0,1,49,SILVER LAKE LIGHT RAIL STOP,40.780298,-74.180473
38064,12,1,1,49,SILVER LAKE LIGHT RAIL STOP,40.780298,-74.180473
38065,1,0,1,115,GROVE STREET LIGHT RAIL STATION,40.780317,-74.187931
38065,1,1,1,121,GROVE STREET LIGHT RAIL STATION,40.780317,-74.187931
38065,11,0,1,61,GROVE STREET LIGHT RAIL STATION,40.780317,-74.187931
38065,11,1,1,61,GROVE STREET LIGHT RAIL STATION,40.780317,-74.187931
38065,12,0,1,49,GROVE STREET LIGHT RAIL STATION,40.780317,-74.187931
38065,12,1,1,49,GROVE STREET LIGHT RAIL STATION,40.780317,-74.187931
38229,1,0,1,87,22ND ST HBLR STATION,40.661277,-74.11641
38229,1,1,1,102,22ND ST HBLR STATION,40.661277,-74.11641
38229,11,0,1,57,22ND ST HBLR STATION,40.661277,-74.11641
38229,11,1,1,60,22ND ST HBLR STATION,40.661277,-74.11641
38229,12,0,1,57,22ND ST HBLR STATION,40.661277,-74.11641
38229,12,1,1,60,22ND ST HBLR STATION,40.661277,-74.11641
38291,1,0,1,46,TRENTON TRANSIT CENTER,40.218348,-74.755194
38291,1,1,1,45,TRENTON TRANSIT CENTER,40.218348,-74.755194
38291,11,0,1,36,TRENTON TRANSIT CENTER,40.218348,-74.755194
38291,11,1,1,37,TRENTON TRANSIT CENTER,40.218348,-74.755194
38291,12,0,1,31,TRENTON TRANSIT CENTER,40.218348,-74.755194
38291,12,1,1,31,TRENTON TRANSIT CENTER,40.218348,-74.755194
38292,1,0,1,45,HAMILTON AVENUE,40.211928,-74.755882
38292,1,1,1,44,HAMILTON AVENUE,40.211928,-74.755882
38292,11,0,1,36,HAMILTON AVENUE,40.211928,-74.755882
38292,11,1,1,37,HAMILTON AVENUE,40.211928,-74.755882
38292,12,0,1,31,HAMILTON AVENUE,40.211928,-74.755882
38292,12,1,1,31,HAMILTON AVENUE,40.211928,-74.755882
38293,1,0,1,45,CASS STREET,40.205409,-74.754313
38293,1,1,1,44,CASS STREET,40.205409,-74.754313
38293,11,0,1,36,CASS STREET,40.205409,-74.754313
38293,11,1,1,37,CASS STREET,40.205409,-74.754313
38293,12,0,1,31,CASS STREET,40.205409,-74.754313
38293,12,1,1,31,CASS STREET,40.205409,-74.754313
38294,1,0,1,46,BORDENTOWN,40.14811,-74.716271
38294,1,1,1,45,BORDENTOWN,40.14811,-74.716271
38294,11,0,1,36,BORDENTOWN,40.14811,-74.716271
38294,11,1,1,37,BORDENTOWN,40.14811,-74.716271
38294,12,0,1,31,BORDENTOWN,40.14811,-74.716271
38294,12,1,1,31,BORDENTOWN,40.14811,-74.716271
38295,1,0,1,45,ROEBLING,40.116909,-74.770202
38295,1,1,1,44,ROEBLING,40.116909,-74.770202
38295,11,0,1,36,ROEBLING,40.116909,-74.770202
38295,11,1,1,37,ROEBLING,40.116909,-74.770202
38295,12,0,1,31,ROEBLING,40.116909,-74.770202
38295,12,1,1,31,ROEBLING,40.116909,-74.770202
38296,1,0,1,46,FLORENCE,40.100048,-74.805112
38296,1,1,1,45,FLORENCE,40.100048,-74.805112
38296,11,0,1,36,FLORENCE,40.100048,-74.805112
38296,11,1,1,37,FLORENCE,40.100048,-74.805112
38296,12,0,1,31,FLORENCE,40.100048,-74.805112
38296,12,1,1,31,FLORENCE,40.100048,-74.805112
38297,1,0,1,47,BURLINGTON TOWNE CTR,40.077358,-74.859421
38297,1,1,1,45,BURLINGTON TOWNE CTR,40.077358,-74.859421
38297,11,0,1,36,BURLINGTON TOWNE CTR,40.077358,-74.859421
38297,11,1,1,37,BURLINGTON TOWNE CTR,40.077358,-74.859421
38297,12,0,1,31,BURLINGTON TOWNE CTR,40.077358,-74.859421
38297,12,1,1,31,BURLINGTON TOWNE CTR,40.077358,-74.859421
38298,1,0,1,47,BURLINGTON SOUTH,40.074558,-74.868981
38298,1,1,1,45,BURLINGTON SOUTH,40.074558,-74.868981
38298,11,0,1,36,BURLINGTON SOUTH,40.074558,-74.868981
38298,11,1,1,37,BURLINGTON SOUTH,40.074558,-74.868981
38298,12,0,1,31,BURLINGTON SOUTH,40.074558,-74.868981
38298,12,1,1,31,BURLINGTON SOUTH,40.074558,-74.868981
38299,1,0,1,46,BEVERLY/EDGEWATER PARK,40.06112,-74.915131
38299,1,1,1,43,BEVERLY/EDGEWATER PARK,40.06112,-74.915131
38299,11,0,1,36,BEVERLY/EDGEWATER PARK,40.06112,-74.915131
38299,11,1,1,37,BEVERLY/EDGEWATER PARK,40.06112,-74.915131
38299,12,0,1,30,BEVERLY/EDGEWATER PARK,40.06112,-74.915131
38299,12,1,1,31,BEVERLY/EDGEWATER PARK,40.06112,-74.915131
38300,1,0,1,45,DELANCO,40.048068,-74.95028
38300,1,1,1,43,DELANCO,40.048068,-74.95028
38300,11,0,1,36,DELANCO,40.048068,-74.95028
38300,11,1,1,37,DELANCO,40.048068,-74.95028
38300,12,0,1,30,DELANCO,40.048068,-74.95028
38300,12,1,1,31,DELANCO,40.048068,-74.95028
38301,1,0,1,46,RIVERSIDE,40.039219,-74.958842
38301,1,1,1,43,RIVERSIDE,40.039219,-74.958842
38301,11,0,1,36,RIVERSIDE,40.039219,-74.958842
38301,11,1,1,37,RIVERSIDE,40.039219,-74.958842
38301,12,0,1,30,RIVERSIDE,40.039219,-74.958842
38301,12,1,1,31,RIVERSIDE,40.039219,-74.958842
38302,1,0,1,46,CINNAMINSON,40.016557,-74.999942
38302,1,1,1,43,CINNAMINSON,40.016557,-74.999942
38302,11,0,1,36,CINNAMINSON,40.016557,-74.999942
38302,11,1,1,37,CINNAMINSON,40.016557,-74.999942
38302,12,0,1,30,CINNAMINSON,40.016557,-74.999942
38302,12,1,1,31,CINNAMINSON,40.016557,-74.999942
38303,1,0,1,45,RIVERTON,40.008939,-75.013082
38303,1,1,1,43,RIVERTON,40.008939,-75.013082
38303,11,0,1,36,RIVERTON,40.008939,-75.013082
38303,11,1,1,37,RIVERTON,40.008939,-75.013082
38303,12,0,1,30,RIVERTON,40.008939,-75.013082
38303,12,1,1,31,RIVERTON,40.008939,-75.013082
38304,1,0,1,46,PALMYRA,40.004659,-75.020391
38304,1,1,1,44,PALMYRA,40.004659,-75.020391
38304,11,0,1,36,PALMYRA,40.004659,-75.020391
38304,11,1,1,37,PALMYRA,40.004659,-75.020391
38304,12,0,1,30,PALMYRA,40.004659,-75.020391
38304,12,1,1,31,PALMYRA,40.004659,-75.020391
38305,1,0,1,47,ROUTE 73/PENNSAUKEN,39.993109,-75.03961
38305,1,1,1,44,ROUTE 73/PENNSAUKEN,39.993109,-75.03961
38305,11,0,1,38,ROUTE 73/PENNSAUKEN,39.993109,-75.03961
38305,11,1,1,37,ROUTE 73/PENNSAUKEN,39.993109,-75.03961
38305,12,0,1,32,ROUTE 73/PENNSAUKEN,39.993109,-75.03961
38305,12,1,1,32,ROUTE 73/PENNSAUKEN,39.993109,-75.03961
38306,1,0,1,51,36TH STREET STATION,39.96096,-75.079622
38306,1,1,1,45,36TH STREET STATION,39.96096,-75.079622
38306,11,0,1,40,36TH STREET STATION,39.96096,-75.079622
38306,11,1,1,37,36TH STREET STATION,39.96096,-75.079622
38306,12,0,1,34,36TH STREET STATION,39.96096,-75.079622
38306,12,1,1,32,36TH STREET STATION,39.96096,-75.079622
38307,1,0,1,51,WALTER RAND TRANS CTR,39.943258,-75.12021
38307,1,1,1,45,WALTER RAND TRANS CTR,39.943258,-75.12021
38307,11,0,1,40,WALTER RAND TRANS CTR,39.943258,-75.12021
38307,11,1,1,37,WALTER RAND TRANS CTR,39.943258,-75.12021
38307,12,0,1,34,WALTER RAND TRANS CTR,39.943258,-75.12021
38307,12,1,1,32,WALTER RAND TRANS CTR,39.943258,-75.12021
38308,1,0,1,49,COOPER ST/RUTGERS UNIV,39.947598,-75.12407
38308,1,1,1,44,COOPER ST/RUTGERS UNIV,39.947598,-75.12407
38308,11,0,1,40,COOPER ST/RUTGERS UNIV,39.947598,-75.12407
38308,11,1,1,37,COOPER ST/RUTGERS UNIV,39.947598,-75.12407
38308,12,0,1,34,COOPER ST/RUTGERS UNIV,39.947598,-75.12407
38308,12,1,1,32,COOPER ST/RUTGERS UNIV,39.947598,-75.12407
38309,1,0,1,49,AQUARIUM,39.945658,-75.128682
38309,1,1,1,44,AQUARIUM,39.945658,-75.128682
38309,11,0,1,40,AQUARIUM,39.945658,-75.128682
38309,11,1,1,37,AQUARIUM,39.945658,-75.128682
38309,12,0,1,34,AQUARIUM,39.945658,-75.128682
38309,12,1,1,32,AQUARIUM,39.945658,-75.128682
38310,1,0,1,49,ENTERTAINMENT CENTER,39.94094,-75.128473
38310,1,1,1,44,ENTERTAINMENT CENTER,39.94094,-75.128473
38310,11,0,1,40,ENTERTAINMENT CENTER,39.94094,-75.128473
38310,11,1,1,37,ENTERTAINMENT CENTER,39.94094,-75.128473
38310,12,0,1,34,ENTERTAINMENT CENTER,39.94094,-75.128473
38310,12,1,1,32,ENTERTAINMENT CENTER,39.94094,-75.128473
38441,1,0,1,146,2ND STREET HBLR,40.740789,-74.043101
38441,1,1,1,150,2ND STREET HBLR,40.740789,-74.043101
38441,11,0,1,58,2ND STREET HBLR,40.740789,-74.043101
38441,11,1,1,60,2ND STREET HBLR,40.740789,-74.043101
38441,12,0,1,58,2ND STREET HBLR,40.740789,-74.043101
38441,12,1,1,60,2ND STREET HBLR,40.740789,-74.043101
38442,1,0,1,146,9TH STREET HBLR,40.748867,-74.038522
38442,1,1,1,150,9TH STREET HBLR,40.748867,-74.038522
38442,11,0,1,58,9TH STREET HBLR,40.748867,-74.038522
38442,11,1,1,60,9TH STREET HBLR,40.748867,-74.038522
38442,12,0,1,58,9TH STREET HBLR,40.748867,-74.038522
38442,12,1,1,60,9TH STREET HBLR,40.748867,-74.038522
38578,1,0,1,146,BERGENLINE AVE,40.781638,-74.021801
38578,1,1,1,150,BERGENLINE AVE,40.781638,-74.021801
38578,11,0,1,58,BERGENLINE AVE,40.781638,-74.021801
38578,11,1,1,60,BERGENLINE AVE,40.781638,-74.021801
38578,12,0,1,58,BERGENLINE AVE,40.781638,-74.021801
38578,12,1,1,60,BERGENLINE AVE,40.781638,-74.021801
38579,1,0,1,146,TONNELLE AVE HBLR STATION,40.78733,-74.031263
38579,1,1,1,150,TONNELLE AVE HBLR STATION,40.78733,-74.031263
38579,11,0,1,58,TONNELLE AVE HBLR STATION,40.78733,-74.031263
38579,11,1,1,60,TONNELLE AVE HBLR STATION,40.78733,-74.031263
38579,12,0,1,58,TONNELLE AVE HBLR STATION,40.78733,-74.031263
38579,12,1,1,60,TONNELLE AVE HBLR STATION,40.78733,-74.031263
39130,1,0,1,53,BROAD STREET LIGHT RAIL STATION,40.747209,-74.17151
39130,1,1,1,53,BROAD STREET LIGHT RAIL STATION,40.747209,-74.17151
39130,11,0,1,55,BROAD STREET LIGHT RAIL STATION,40.747209,-74.17151
39130,11,1,1,55,BROAD STREET LIGHT RAIL STATION,40.747209,-74.17151
39130,12,0,1,44,BROAD STREET LIGHT RAIL STATION,40.747209,-74.17151
39130,12,1,1,44,BROAD STREET LIGHT RAIL STATION,40.747209,-74.17151
39131,1,0,1,53,RIVERFRONT STADIUM LIGHT RAIL STOP,40.745628,-74.169281
39131,11,0,1,55,RIVERFRONT STADIUM LIGHT RAIL STOP,40.745628,-74.169281
39131,12,0,1,44,RIVERFRONT STADIUM LIGHT RAIL STOP,40.745628,-74.169281
39132,1,1,1,53,WASHINGTON PARK LIGHT RAIL STOP,40.743938,-74.169853
39132,11,1,1,55,WASHINGTON PARK LIGHT RAIL STOP,40.743938,-74.169853
39132,12,1,1,44,WASHINGTON PARK LIGHT RAIL STOP,40.743938,-74.169853
39133,1,0,1,53,ATLANTIC STREET LIGHT RAIL STOP,40.74416,-74.168491
39133,11,0,1,55,ATLANTIC STREET LIGHT RAIL STOP,40.74416,-74.168491
39133,12,0,1,44,ATLANTIC STREET LIGHT RAIL STOP,40.74416,-74.168491
39134,1,0,1,53,NJ PERFORMING ARTS CENTER AT CENTRE ST,40.739498,-74.16558
39134,1,1,1,53,NJ PERFORMING ARTS CENTER AT CENTRE ST,40.739498,-74.16558
39134,11,0,1,55,NJ PERFORMING ARTS CENTER AT CENTRE ST,40.739498,-74.16558
39134,11,1,1,55,NJ PERFORMING ARTS CENTER AT CENTRE ST,40.739498,-74.16558
39134,12,0,1,44,NJ PERFORMING ARTS CENTER AT CENTRE ST,40.739498,-74.16558
39134,12,1,1,44,NJ PERFORMING ARTS CENTER AT CENTRE ST,40.739498,-74.16558
39348,1,0,1,165,HOBOKEN HBLR TERMINAL,40.734059,-74.029192
39348,1,1,1,165,HOBOKEN HBLR TERMINAL,40.734059,-74.029192
39348,11,0,1,60,HOBOKEN HBLR TERMINAL,40.734059,-74.029192
39348,11,1,1,60,HOBOKEN HBLR TERMINAL,40.734059,-74.029192
39348,12,0,1,60,HOBOKEN HBLR TERMINAL,40.734059,-74.029192
39348,12,1,1,60,HOBOKEN HBLR TERMINAL,40.734059,-74.029192
42545,1,0,1,53,PENN STATION LIGHT RAIL,40.73481,-74.163603
42545,1,1,1,177,PENN STATION LIGHT RAIL,40.73481,-74.163603
42545,11,0,1,55,PENN STATION LIGHT RAIL,40.73481,-74.163603
42545,11,1,1,61,PENN STATION LIGHT RAIL,40.73481,-74.163603
42545,12,0,1,44,PENN STATION LIGHT RAIL,40.73481,-74.163603
42545,12,1,1,49,PENN STATION LIGHT RAIL,40.73481,-74.163603
42673,1,0,1,76,8TH ST HBLR STATION,40.654298,-74.129142
42673,1,1,1,88,8TH ST HBLR STATION,40.654298,-74.129142
42673,11,0,1,57,8TH ST HBLR STATION,40.654298,-74.129142
42673,11,1,1,60,8TH ST HBLR STATION,40.654298,-74.129142
42673,12,0,1,57,8TH ST HBLR STATION,40.654298,-74.129142
42673,12,1,1,60,8TH ST HBLR STATION,40.654298,-74.129142
6900,1,0,1,177,MILITARY PARK LIGHT RAIL STATION,40.737408,-74.1708
6900,1,1,1,177,MILITARY PARK LIGHT RAIL STATION,40.737408,-74.1708
6900,11,0,1,61,MILITARY PARK LIGHT RAIL STATION,40.737408,-74.1708
6900,11,1,1,61,MILITARY PARK LIGHT RAIL STATION,40.737408,-74.1708
6900,12,0,1,49,MILITARY PARK LIGHT RAIL STATION,40.737408,-74.1708
6900,12,1,1,49,MILITARY PARK LIGHT RAIL STATION,40.737408,-74.1708
6907,1,0,1,177,DAVENPORT AVENUE LIGHT RAIL STATION,40.77233,-74.178262
6907,1,1,1,177,DAVENPORT AVENUE LIGHT RAIL STATION,40.77233,-74.178262
6907,11,0,1,61,DAVENPORT AVENUE LIGHT RAIL STATION,40.77233,-74.178262
6907,11,1,1,61,DAVENPORT AVENUE LIGHT RAIL STATION,40.77233,-74.178262
6907,12,0,1,49,DAVENPORT AVENUE LIGHT RAIL STATION,40.77233,-74.178262
6907,12,1,1,49,DAVENPORT AVENUE LIGHT RAIL STATION,40.77233,-74.178262
6957,1,0,1,177,NORFOLK AND CENTRAL LIGHT RAIL STATION,40.745319,-74.183033
6957,1,1,1,177,NORFOLK AND CENTRAL LIGHT RAIL STATION,40.745319,-74.183033
6957,11,0,1,61,NORFOLK AND CENTRAL LIGHT RAIL STATION,40.745319,-74.183033
6957,11,1,1,61,NORFOLK AND CENTRAL LIGHT RAIL STATION,40.745319,-74.183033
6957,12,0,1,49,NORFOLK AND CENTRAL LIGHT RAIL STATION,40.745319,-74.183033
6957,12,1,1,49,NORFOLK AND CENTRAL LIGHT RAIL STATION,40.745319,-74.183033
6966,1,0,1,177,PARK AVE NEWARK LIGHT RAIL STATION,40.758538,-74.184981
6966,1,1,1,177,PARK AVE NEWARK LIGHT RAIL STATION,40.758538,-74.184981
6966,11,0,1,61,PARK AVE NEWARK LIGHT RAIL STATION,40.758538,-74.184981
6966,11,1,1,61,PARK AVE NEWARK LIGHT RAIL STATION,40.758538,-74.184981
6966,12,0,1,49,PARK AVE NEWARK LIGHT RAIL STATION,40.758538,-74.184981
6966,12,1,1,49,PARK AVE NEWARK LIGHT RAIL STATION,40.758538,-74.184981
6995,1,0,1,177,WARREN STREET LIGHT RAIL STATION,40.74242,-74.18123
6995,1,1,1,177,WARREN STREET LIGHT RAIL STATION,40.74242,-74.18123
6995,11,0,1,61,WARREN STREET LIGHT RAIL STATION,40.74242,-74.18123
6995,11,1,1,61,WARREN STREET LIGHT RAIL STATION,40.74242,-74.18123
6995,12,0,1,49,WARREN STREET LIGHT RAIL STATION,40.74242,-74.18123
6995,12,1,1,49,WARREN STREET LIGHT RAIL STATION,40.74242,-74.18123
6997,1,0,1,177,WASHINGTON STREET LIGHT RAIL STATION,40.73829,-74.174071
6997,1,1,1,177,WASHINGTON STREET LIGHT RAIL STATION,40.73829,-74.174071
6997,11,0,1,61,WASHINGTON STREET LIGHT RAIL STATION,40.73829,-74.174071
6997,11,1,1,61,WASHINGTON STREET LIGHT RAIL STATION,40.73829,-74.174071
6997,12,0,1,49,WASHINGTON STREET LIGHT RAIL STATION,40.73829,-74.174071
6997,12,1,1,49,WASHINGTON STREET LIGHT RAIL STATION,40.73829,-74.174071
9878,1,0,1,146,PORT IMPERIAL HBLR STATION,40.775919,-74.012921
9878,1,1,1,150,PORT IMPERIAL HBLR STATION,40.775919,-74.012921
9878,11,0,1,58,PORT IMPERIAL HBLR STATION,40.775919,-74.012921
9878,11,1,1,60,PORT IMPERIAL HBLR STATION,40.775919,-74.012921
9878,12,0,1,58,PORT IMPERIAL HBLR STATION,40.775919,-74.012921
9878,12,1,1,60,PORT IMPERIAL HBLR STATION,40.775919,-74.012921
