route_id,stop_id,service_id,direction_id,avghdwy,stdev_hdwy,stop_name,stop_lat,stop_lon,route_short_name,route_long_name
398,28000,C_FRSCHoff_merged_8679963,0,,,Coaster Oceanside Transit Center,33.192251,-117.379708,"",COASTER
398,28000,C_FRSCHoff_merged_8679963,1,,,Coaster Oceanside Transit Center,33.192251,-117.379708,"",COASTER
398,28001,C_FRSCHoff_merged_8679963,0,,,Coaster Carlsbad Village Station,33.160697,-117.350767,"",COASTER
398,28001,C_FRSCHoff_merged_8679963,1,,,Coaster Carlsbad Village Station,33.160697,-117.350767,"",COASTER
398,28002,C_FRSCHoff_merged_8679963,0,,,Coaster Carlsbad Poinsettia Station,33.108638,-117.318987,"",COASTER
398,28002,C_FRSCHoff_merged_8679963,1,,,Coaster Carlsbad Poinsettia Station,33.108638,-117.318987,"",COASTER
398,28003,C_FRSCHoff_merged_8679963,0,,,Coaster Encinitas Station,33.047096,-117.293203,"",COASTER
398,28003,C_FRSCHoff_merged_8679963,1,,,Coaster Encinitas Station,33.047096,-117.293203,"",COASTER
398,28004,C_FRSCHoff_merged_8679963,0,,,Coaster Solana Beach Station,32.993268,-117.271609,"",COASTER
398,28004,C_FRSCHoff_merged_8679963,1,,,Coaster Solana Beach Station,32.993268,-117.271609,"",COASTER
398,28005,C_FRSCHoff_merged_8679963,0,,,Coaster Sorrento Valley Station,32.902771,-117.225126,"",COASTER
398,28005,C_FRSCHoff_merged_8679963,1,,,Coaster Sorrento Valley Station,32.902771,-117.225126,"",COASTER
398,28006,C_FRSCHoff_merged_8679963,0,,,Coaster Old Town Station,32.754211,-117.199324,"",COASTER
398,28006,C_FRSCHoff_merged_8679963,1,,,Coaster Old Town Station,32.754211,-117.199324,"",COASTER
398,28007,C_FRSCHoff_merged_8679963,0,,,Coaster Santa Fe Station,32.717493,-117.169985,"",COASTER
398,28007,C_FRSCHoff_merged_8679963,1,,,Coaster Santa Fe Station,32.717493,-117.169985,"",COASTER
398,28000,C_FRSCHoff_merged_8679996,0,,,Coaster Oceanside Transit Center,33.192251,-117.379708,"",COASTER
398,28000,C_FRSCHoff_merged_8679996,1,,,Coaster Oceanside Transit Center,33.192251,-117.379708,"",COASTER
398,28001,C_FRSCHoff_merged_8679996,0,,,Coaster Carlsbad Village Station,33.160697,-117.350767,"",COASTER
398,28001,C_FRSCHoff_merged_8679996,1,,,Coaster Carlsbad Village Station,33.160697,-117.350767,"",COASTER
398,28002,C_FRSCHoff_merged_8679996,0,,,Coaster Carlsbad Poinsettia Station,33.108638,-117.318987,"",COASTER
398,28002,C_FRSCHoff_merged_8679996,1,,,Coaster Carlsbad Poinsettia Station,33.108638,-117.318987,"",COASTER
398,28003,C_FRSCHoff_merged_8679996,0,,,Coaster Encinitas Station,33.047096,-117.293203,"",COASTER
398,28003,C_FRSCHoff_merged_8679996,1,,,Coaster Encinitas Station,33.047096,-117.293203,"",COASTER
398,28004,C_FRSCHoff_merged_8679996,0,,,Coaster Solana Beach Station,32.993268,-117.271609,"",COASTER
398,28004,C_FRSCHoff_merged_8679996,1,,,Coaster Solana Beach Station,32.993268,-117.271609,"",COASTER
398,28005,C_FRSCHoff_merged_8679996,0,,,Coaster Sorrento Valley Station,32.902771,-117.225126,"",COASTER
398,28005,C_FRSCHoff_merged_8679996,1,,,Coaster Sorrento Valley Station,32.902771,-117.225126,"",COASTER
398,28006,C_FRSCHoff_merged_8679996,0,,,Coaster Old Town Station,32.754211,-117.199324,"",COASTER
398,28006,C_FRSCHoff_merged_8679996,1,,,Coaster Old Town Station,32.754211,-117.199324,"",COASTER
398,28007,C_FRSCHoff_merged_8679996,0,,,Coaster Santa Fe Station,32.717493,-117.169985,"",COASTER
398,28007,C_FRSCHoff_merged_8679996,1,,,Coaster Santa Fe Station,32.717493,-117.169985,"",COASTER
398,28000,C_SASCHoff_merged_8679956,0,,,Coaster Oceanside Transit Center,33.192251,-117.379708,"",COASTER
398,28000,C_SASCHoff_merged_8679956,1,80.0,,Coaster Oceanside Transit Center,33.192251,-117.379708,"",COASTER
398,28001,C_SASCHoff_merged_8679956,0,,,Coaster Carlsbad Village Station,33.160697,-117.350767,"",COASTER
398,28001,C_SASCHoff_merged_8679956,1,80.0,,Coaster Carlsbad Village Station,33.160697,-117.350767,"",COASTER
398,28002,C_SASCHoff_merged_8679956,0,,,Coaster Carlsbad Poinsettia Station,33.108638,-117.318987,"",COASTER
398,28002,C_SASCHoff_merged_8679956,1,80.0,,Coaster Carlsbad Poinsettia Station,33.108638,-117.318987,"",COASTER
398,28003,C_SASCHoff_merged_8679956,0,,,Coaster Encinitas Station,33.047096,-117.293203,"",COASTER
398,28003,C_SASCHoff_merged_8679956,1,80.0,,Coaster Encinitas Station,33.047096,-117.293203,"",COASTER
398,28004,C_SASCHoff_merged_8679956,0,,,Coaster Solana Beach Station,32.993268,-117.271609,"",COASTER
398,28004,C_SASCHoff_merged_8679956,1,81.0,,Coaster Solana Beach Station,32.993268,-117.271609,"",COASTER
398,28005,C_SASCHoff_merged_8679956,0,,,Coaster Sorrento Valley Station,32.902771,-117.225126,"",COASTER
398,28005,C_SASCHoff_merged_8679956,1,82.0,,Coaster Sorrento Valley Station,32.902771,-117.225126,"",COASTER
398,28006,C_SASCHoff_merged_8679956,0,,,Coaster Old Town Station,32.754211,-117.199324,"",COASTER
398,28006,C_SASCHoff_merged_8679956,1,82.0,,Coaster Old Town Station,32.754211,-117.199324,"",COASTER
398,28007,C_SASCHoff_merged_8679956,0,,,Coaster Santa Fe Station,32.717493,-117.169985,"",COASTER
398,28007,C_SASCHoff_merged_8679956,1,80.0,,Coaster Santa Fe Station,32.717493,-117.169985,"",COASTER
398,28000,C_SASCHoff_merged_8679989,0,,,Coaster Oceanside Transit Center,33.192251,-117.379708,"",COASTER
398,28000,C_SASCHoff_merged_8679989,1,80.0,,Coaster Oceanside Transit Center,33.192251,-117.379708,"",COASTER
398,28001,C_SASCHoff_merged_8679989,0,,,Coaster Carlsbad Village Station,33.160697,-117.350767,"",COASTER
398,28001,C_SASCHoff_merged_8679989,1,80.0,,Coaster Carlsbad Village Station,33.160697,-117.350767,"",COASTER
398,28002,C_SASCHoff_merged_8679989,0,,,Coaster Carlsbad Poinsettia Station,33.108638,-117.318987,"",COASTER
398,28002,C_SASCHoff_merged_8679989,1,80.0,,Coaster Carlsbad Poinsettia Station,33.108638,-117.318987,"",COASTER
398,28003,C_SASCHoff_merged_8679989,0,,,Coaster Encinitas Station,33.047096,-117.293203,"",COASTER
398,28003,C_SASCHoff_merged_8679989,1,80.0,,Coaster Encinitas Station,33.047096,-117.293203,"",COASTER
398,28004,C_SASCHoff_merged_8679989,0,,,Coaster Solana Beach Station,32.993268,-117.271609,"",COASTER
398,28004,C_SASCHoff_merged_8679989,1,81.0,,Coaster Solana Beach Station,32.993268,-117.271609,"",COASTER
398,28005,C_SASCHoff_merged_8679989,0,,,Coaster Sorrento Valley Station,32.902771,-117.225126,"",COASTER
398,28005,C_SASCHoff_merged_8679989,1,82.0,,Coaster Sorrento Valley Station,32.902771,-117.225126,"",COASTER
398,28006,C_SASCHoff_merged_8679989,0,,,Coaster Old Town Station,32.754211,-117.199324,"",COASTER
398,28006,C_SASCHoff_merged_8679989,1,82.0,,Coaster Old Town Station,32.754211,-117.199324,"",COASTER
398,28007,C_SASCHoff_merged_8679989,0,,,Coaster Santa Fe Station,32.717493,-117.169985,"",COASTER
398,28007,C_SASCHoff_merged_8679989,1,80.0,,Coaster Santa Fe Station,32.717493,-117.169985,"",COASTER
398,28000,C_SUSCHoff_merged_8679941,0,,,Coaster Oceanside Transit Center,33.192251,-117.379708,"",COASTER
398,28000,C_SUSCHoff_merged_8679941,1,,,Coaster Oceanside Transit Center,33.192251,-117.379708,"",COASTER
398,28001,C_SUSCHoff_merged_8679941,0,,,Coaster Carlsbad Village Station,33.160697,-117.350767,"",COASTER
398,28001,C_SUSCHoff_merged_8679941,1,,,Coaster Carlsbad Village Station,33.160697,-117.350767,"",COASTER
398,28002,C_SUSCHoff_merged_8679941,0,,,Coaster Carlsbad Poinsettia Station,33.108638,-117.318987,"",COASTER
398,28002,C_SUSCHoff_merged_8679941,1,,,Coaster Carlsbad Poinsettia Station,33.108638,-117.318987,"",COASTER
398,28003,C_SUSCHoff_merged_8679941,0,,,Coaster Encinitas Station,33.047096,-117.293203,"",COASTER
398,28003,C_SUSCHoff_merged_8679941,1,,,Coaster Encinitas Station,33.047096,-117.293203,"",COASTER
398,28004,C_SUSCHoff_merged_8679941,0,,,Coaster Solana Beach Station,32.993268,-117.271609,"",COASTER
398,28004,C_SUSCHoff_merged_8679941,1,,,Coaster Solana Beach Station,32.993268,-117.271609,"",COASTER
398,28005,C_SUSCHoff_merged_8679941,0,,,Coaster Sorrento Valley Station,32.902771,-117.225126,"",COASTER
398,28005,C_SUSCHoff_merged_8679941,1,,,Coaster Sorrento Valley Station,32.902771,-117.225126,"",COASTER
398,28006,C_SUSCHoff_merged_8679941,0,,,Coaster Old Town Station,32.754211,-117.199324,"",COASTER
398,28006,C_SUSCHoff_merged_8679941,1,,,Coaster Old Town Station,32.754211,-117.199324,"",COASTER
398,28007,C_SUSCHoff_merged_8679941,0,,,Coaster Santa Fe Station,32.717493,-117.169985,"",COASTER
398,28007,C_SUSCHoff_merged_8679941,1,,,Coaster Santa Fe Station,32.717493,-117.169985,"",COASTER
398,28000,C_SUSCHoff_merged_8679974,0,,,Coaster Oceanside Transit Center,33.192251,-117.379708,"",COASTER
398,28000,C_SUSCHoff_merged_8679974,1,,,Coaster Oceanside Transit Center,33.192251,-117.379708,"",COASTER
398,28001,C_SUSCHoff_merged_8679974,0,,,Coaster Carlsbad Village Station,33.160697,-117.350767,"",COASTER
398,28001,C_SUSCHoff_merged_8679974,1,,,Coaster Carlsbad Village Station,33.160697,-117.350767,"",COASTER
398,28002,C_SUSCHoff_merged_8679974,0,,,Coaster Carlsbad Poinsettia Station,33.108638,-117.318987,"",COASTER
398,28002,C_SUSCHoff_merged_8679974,1,,,Coaster Carlsbad Poinsettia Station,33.108638,-117.318987,"",COASTER
398,28003,C_SUSCHoff_merged_8679974,0,,,Coaster Encinitas Station,33.047096,-117.293203,"",COASTER
398,28003,C_SUSCHoff_merged_8679974,1,,,Coaster Encinitas Station,33.047096,-117.293203,"",COASTER
398,28004,C_SUSCHoff_merged_8679974,0,,,Coaster Solana Beach Station,32.993268,-117.271609,"",COASTER
398,28004,C_SUSCHoff_merged_8679974,1,,,Coaster Solana Beach Station,32.993268,-117.271609,"",COASTER
398,28005,C_SUSCHoff_merged_8679974,0,,,Coaster Sorrento Valley Station,32.902771,-117.225126,"",COASTER
398,28005,C_SUSCHoff_merged_8679974,1,,,Coaster Sorrento Valley Station,32.902771,-117.225126,"",COASTER
398,28006,C_SUSCHoff_merged_8679974,0,,,Coaster Old Town Station,32.754211,-117.199324,"",COASTER
398,28006,C_SUSCHoff_merged_8679974,1,,,Coaster Old Town Station,32.754211,-117.199324,"",COASTER
398,28007,C_SUSCHoff_merged_8679974,0,,,Coaster Santa Fe Station,32.717493,-117.169985,"",COASTER
398,28007,C_SUSCHoff_merged_8679974,1,,,Coaster Santa Fe Station,32.717493,-117.169985,"",COASTER
398,28000,C_WDSCHoff_merged_8679954,0,53.0,22.6,Coaster Oceanside Transit Center,33.192251,-117.379708,"",COASTER
398,28000,C_WDSCHoff_merged_8679954,1,46.7,20.4,Coaster Oceanside Transit Center,33.192251,-117.379708,"",COASTER
398,28001,C_WDSCHoff_merged_8679954,0,52.4,22.1,Coaster Carlsbad Village Station,33.160697,-117.350767,"",COASTER
398,28001,C_WDSCHoff_merged_8679954,1,46.8,20.0,Coaster Carlsbad Village Station,33.160697,-117.350767,"",COASTER
398,28002,C_WDSCHoff_merged_8679954,0,52.8,22.9,Coaster Carlsbad Poinsettia Station,33.108638,-117.318987,"",COASTER
398,28002,C_WDSCHoff_merged_8679954,1,46.8,20.2,Coaster Carlsbad Poinsettia Station,33.108638,-117.318987,"",COASTER
398,28003,C_WDSCHoff_merged_8679954,0,53.1,23.2,Coaster Encinitas Station,33.047096,-117.293203,"",COASTER
398,28003,C_WDSCHoff_merged_8679954,1,46.7,19.8,Coaster Encinitas Station,33.047096,-117.293203,"",COASTER
398,28004,C_WDSCHoff_merged_8679954,0,53.2,23.9,Coaster Solana Beach Station,32.993268,-117.271609,"",COASTER
398,28004,C_WDSCHoff_merged_8679954,1,46.8,20.8,Coaster Solana Beach Station,32.993268,-117.271609,"",COASTER
398,28005,C_WDSCHoff_merged_8679954,0,52.8,23.1,Coaster Sorrento Valley Station,32.902771,-117.225126,"",COASTER
398,28005,C_WDSCHoff_merged_8679954,1,47.2,21.0,Coaster Sorrento Valley Station,32.902771,-117.225126,"",COASTER
398,28006,C_WDSCHoff_merged_8679954,0,52.7,23.3,Coaster Old Town Station,32.754211,-117.199324,"",COASTER
398,28006,C_WDSCHoff_merged_8679954,1,47.8,20.2,Coaster Old Town Station,32.754211,-117.199324,"",COASTER
398,28007,C_WDSCHoff_merged_8679954,0,52.4,22.6,Coaster Santa Fe Station,32.717493,-117.169985,"",COASTER
398,28007,C_WDSCHoff_merged_8679954,1,47.2,20.5,Coaster Santa Fe Station,32.717493,-117.169985,"",COASTER
398,28000,C_WDSCHoff_merged_8679987,0,53.0,22.6,Coaster Oceanside Transit Center,33.192251,-117.379708,"",COASTER
398,28000,C_WDSCHoff_merged_8679987,1,46.7,20.4,Coaster Oceanside Transit Center,33.192251,-117.379708,"",COASTER
398,28001,C_WDSCHoff_merged_8679987,0,52.4,22.1,Coaster Carlsbad Village Station,33.160697,-117.350767,"",COASTER
398,28001,C_WDSCHoff_merged_8679987,1,46.8,20.0,Coaster Carlsbad Village Station,33.160697,-117.350767,"",COASTER
398,28002,C_WDSCHoff_merged_8679987,0,52.8,22.9,Coaster Carlsbad Poinsettia Station,33.108638,-117.318987,"",COASTER
398,28002,C_WDSCHoff_merged_8679987,1,46.8,20.2,Coaster Carlsbad Poinsettia Station,33.108638,-117.318987,"",COASTER
398,28003,C_WDSCHoff_merged_8679987,0,53.1,23.2,Coaster Encinitas Station,33.047096,-117.293203,"",COASTER
398,28003,C_WDSCHoff_merged_8679987,1,46.7,19.8,Coaster Encinitas Station,33.047096,-117.293203,"",COASTER
398,28004,C_WDSCHoff_merged_8679987,0,53.2,23.9,Coaster Solana Beach Station,32.993268,-117.271609,"",COASTER
398,28004,C_WDSCHoff_merged_8679987,1,46.8,20.8,Coaster Solana Beach Station,32.993268,-117.271609,"",COASTER
398,28005,C_WDSCHoff_merged_8679987,0,52.8,23.1,Coaster Sorrento Valley Station,32.902771,-117.225126,"",COASTER
398,28005,C_WDSCHoff_merged_8679987,1,47.2,21.0,Coaster Sorrento Valley Station,32.902771,-117.225126,"",COASTER
398,28006,C_WDSCHoff_merged_8679987,0,52.7,23.3,Coaster Old Town Station,32.754211,-117.199324,"",COASTER
398,28006,C_WDSCHoff_merged_8679987,1,47.8,20.2,Coaster Old Town Station,32.754211,-117.199324,"",COASTER
398,28007,C_WDSCHoff_merged_8679987,0,52.4,22.6,Coaster Santa Fe Station,32.717493,-117.169985,"",COASTER
398,28007,C_WDSCHoff_merged_8679987,1,47.2,20.5,Coaster Santa Fe Station,32.717493,-117.169985,"",COASTER
398,28000,C_WESCHoff_merged_8679965,1,,,Coaster Oceanside Transit Center,33.192251,-117.379708,"",COASTER
398,28001,C_WESCHoff_merged_8679965,1,,,Coaster Carlsbad Village Station,33.160697,-117.350767,"",COASTER
398,28002,C_WESCHoff_merged_8679965,1,,,Coaster Carlsbad Poinsettia Station,33.108638,-117.318987,"",COASTER
398,28003,C_WESCHoff_merged_8679965,1,,,Coaster Encinitas Station,33.047096,-117.293203,"",COASTER
398,28004,C_WESCHoff_merged_8679965,1,,,Coaster Solana Beach Station,32.993268,-117.271609,"",COASTER
398,28005,C_WESCHoff_merged_8679965,1,,,Coaster Sorrento Valley Station,32.902771,-117.225126,"",COASTER
398,28007,C_WESCHoff_merged_8679965,1,,,Coaster Santa Fe Station,32.717493,-117.169985,"",COASTER
398,28000,C_WESCHoff_merged_8679998,1,,,Coaster Oceanside Transit Center,33.192251,-117.379708,"",COASTER
398,28001,C_WESCHoff_merged_8679998,1,,,Coaster Carlsbad Village Station,33.160697,-117.350767,"",COASTER
398,28002,C_WESCHoff_merged_8679998,1,,,Coaster Carlsbad Poinsettia Station,33.108638,-117.318987,"",COASTER
398,28003,C_WESCHoff_merged_8679998,1,,,Coaster Encinitas Station,33.047096,-117.293203,"",COASTER
398,28004,C_WESCHoff_merged_8679998,1,,,Coaster Solana Beach Station,32.993268,-117.271609,"",COASTER
398,28005,C_WESCHoff_merged_8679998,1,,,Coaster Sorrento Valley Station,32.902771,-117.225126,"",COASTER
398,28007,C_WESCHoff_merged_8679998,1,,,Coaster Santa Fe Station,32.717493,-117.169985,"",COASTER
399,27000,S_FRSCHoff_merged_8679970,0,30.0,0.0,SPRINTER Oceanside Transit Center,33.190875,-117.37835,"",SPRINTER
399,27000,S_FRSCHoff_merged_8679970,1,30.0,0.0,SPRINTER Oceanside Transit Center,33.190875,-117.37835,"",SPRINTER
399,27001,S_FRSCHoff_merged_8679970,0,30.0,0.0,SPRINTER Coast Hwy Station,33.181866,-117.36835,"",SPRINTER
399,27001,S_FRSCHoff_merged_8679970,1,30.0,0.0,SPRINTER Coast Hwy Station,33.181866,-117.36835,"",SPRINTER
399,27002,S_FRSCHoff_merged_8679970,0,30.0,0.0,SPRINTER Crouch St Station,33.194612,-117.353514,"",SPRINTER
399,27002,S_FRSCHoff_merged_8679970,1,30.0,0.0,SPRINTER Crouch St Station,33.194612,-117.353514,"",SPRINTER
399,27003,S_FRSCHoff_merged_8679970,0,30.0,0.0,SPRINTER El Camino Real Station,33.199656,-117.332478,"",SPRINTER
399,27003,S_FRSCHoff_merged_8679970,1,30.0,0.0,SPRINTER El Camino Real Station,33.199656,-117.332478,"",SPRINTER
399,27004,S_FRSCHoff_merged_8679970,0,30.0,0.0,SPRINTER Rancho del Oro Station,33.201544,-117.311231,"",SPRINTER
399,27004,S_FRSCHoff_merged_8679970,1,30.0,0.0,SPRINTER Rancho del Oro Station,33.201544,-117.311231,"",SPRINTER
399,27005,S_FRSCHoff_merged_8679970,0,30.0,0.0,SPRINTER College Blvd Station,33.204546,-117.288143,"",SPRINTER
399,27005,S_FRSCHoff_merged_8679970,1,30.0,0.0,SPRINTER College Blvd Station,33.204546,-117.288143,"",SPRINTER
399,27006,S_FRSCHoff_merged_8679970,0,30.0,0.0,SPRINTER Melrose Dr Station,33.219553,-117.259087,"",SPRINTER
399,27006,S_FRSCHoff_merged_8679970,1,30.0,0.0,SPRINTER Melrose Dr Station,33.219553,-117.259087,"",SPRINTER
399,27007,S_FRSCHoff_merged_8679970,0,30.0,0.0,SPRINTER Vista Transit Center,33.202788,-117.244731,"",SPRINTER
399,27007,S_FRSCHoff_merged_8679970,1,30.0,0.0,SPRINTER Vista Transit Center,33.202788,-117.244731,"",SPRINTER
399,27008,S_FRSCHoff_merged_8679970,0,30.0,0.0,SPRINTER Escondido Ave Station,33.190535,-117.237476,"",SPRINTER
399,27008,S_FRSCHoff_merged_8679970,1,30.0,0.0,SPRINTER Escondido Ave Station,33.190535,-117.237476,"",SPRINTER
399,27009,S_FRSCHoff_merged_8679970,0,30.0,0.0,SPRINTER Buena Creek Station,33.1735,-117.207393,"",SPRINTER
399,27009,S_FRSCHoff_merged_8679970,1,30.0,0.0,SPRINTER Buena Creek Station,33.1735,-117.207393,"",SPRINTER
399,27010,S_FRSCHoff_merged_8679970,0,30.0,0.0,SPRINTER Palomar College Station,33.146953,-117.185314,"",SPRINTER
399,27010,S_FRSCHoff_merged_8679970,1,30.0,0.0,SPRINTER Palomar College Station,33.146953,-117.185314,"",SPRINTER
399,27011,S_FRSCHoff_merged_8679970,0,30.0,0.0,SPRINTER San Marcos Civic Center Station,33.141956,-117.16067,"",SPRINTER
399,27011,S_FRSCHoff_merged_8679970,1,30.0,0.0,SPRINTER San Marcos Civic Center Station,33.141956,-117.16067,"",SPRINTER
399,27012,S_FRSCHoff_merged_8679970,0,30.0,0.0,SPRINTER Cal State San Marcos Station,33.134771,-117.153585,"",SPRINTER
399,27012,S_FRSCHoff_merged_8679970,1,30.0,0.0,SPRINTER Cal State San Marcos Station,33.134771,-117.153585,"",SPRINTER
399,27013,S_FRSCHoff_merged_8679970,0,30.0,0.0,SPRINTER Nordahl Rd Station,33.131112,-117.124154,"",SPRINTER
399,27013,S_FRSCHoff_merged_8679970,1,30.0,0.0,SPRINTER Nordahl Rd Station,33.131112,-117.124154,"",SPRINTER
399,27014,S_FRSCHoff_merged_8679970,0,30.0,0.0,SPRINTER Escondido Transit Center,33.118419,-117.09216,"",SPRINTER
399,27014,S_FRSCHoff_merged_8679970,1,30.0,0.0,SPRINTER Escondido Transit Center,33.118419,-117.09216,"",SPRINTER
399,27000,S_FRSCHoff_merged_8680003,0,30.0,0.0,SPRINTER Oceanside Transit Center,33.190875,-117.37835,"",SPRINTER
399,27000,S_FRSCHoff_merged_8680003,1,30.0,0.0,SPRINTER Oceanside Transit Center,33.190875,-117.37835,"",SPRINTER
399,27001,S_FRSCHoff_merged_8680003,0,30.0,0.0,SPRINTER Coast Hwy Station,33.181866,-117.36835,"",SPRINTER
399,27001,S_FRSCHoff_merged_8680003,1,30.0,0.0,SPRINTER Coast Hwy Station,33.181866,-117.36835,"",SPRINTER
399,27002,S_FRSCHoff_merged_8680003,0,30.0,0.0,SPRINTER Crouch St Station,33.194612,-117.353514,"",SPRINTER
399,27002,S_FRSCHoff_merged_8680003,1,30.0,0.0,SPRINTER Crouch St Station,33.194612,-117.353514,"",SPRINTER
399,27003,S_FRSCHoff_merged_8680003,0,30.0,0.0,SPRINTER El Camino Real Station,33.199656,-117.332478,"",SPRINTER
399,27003,S_FRSCHoff_merged_8680003,1,30.0,0.0,SPRINTER El Camino Real Station,33.199656,-117.332478,"",SPRINTER
399,27004,S_FRSCHoff_merged_8680003,0,30.0,0.0,SPRINTER Rancho del Oro Station,33.201544,-117.311231,"",SPRINTER
399,27004,S_FRSCHoff_merged_8680003,1,30.0,0.0,SPRINTER Rancho del Oro Station,33.201544,-117.311231,"",SPRINTER
399,27005,S_FRSCHoff_merged_8680003,0,30.0,0.0,SPRINTER College Blvd Station,33.204546,-117.288143,"",SPRINTER
399,27005,S_FRSCHoff_merged_8680003,1,30.0,0.0,SPRINTER College Blvd Station,33.204546,-117.288143,"",SPRINTER
399,27006,S_FRSCHoff_merged_8680003,0,30.0,0.0,SPRINTER Melrose Dr Station,33.219553,-117.259087,"",SPRINTER
399,27006,S_FRSCHoff_merged_8680003,1,30.0,0.0,SPRINTER Melrose Dr Station,33.219553,-117.259087,"",SPRINTER
399,27007,S_FRSCHoff_merged_8680003,0,30.0,0.0,SPRINTER Vista Transit Center,33.202788,-117.244731,"",SPRINTER
399,27007,S_FRSCHoff_merged_8680003,1,30.0,0.0,SPRINTER Vista Transit Center,33.202788,-117.244731,"",SPRINTER
399,27008,S_FRSCHoff_merged_8680003,0,30.0,0.0,SPRINTER Escondido Ave Station,33.190535,-117.237476,"",SPRINTER
399,27008,S_FRSCHoff_merged_8680003,1,30.0,0.0,SPRINTER Escondido Ave Station,33.190535,-117.237476,"",SPRINTER
399,27009,S_FRSCHoff_merged_8680003,0,30.0,0.0,SPRINTER Buena Creek Station,33.1735,-117.207393,"",SPRINTER
399,27009,S_FRSCHoff_merged_8680003,1,30.0,0.0,SPRINTER Buena Creek Station,33.1735,-117.207393,"",SPRINTER
399,27010,S_FRSCHoff_merged_8680003,0,30.0,0.0,SPRINTER Palomar College Station,33.146953,-117.185314,"",SPRINTER
399,27010,S_FRSCHoff_merged_8680003,1,30.0,0.0,SPRINTER Palomar College Station,33.146953,-117.185314,"",SPRINTER
399,27011,S_FRSCHoff_merged_8680003,0,30.0,0.0,SPRINTER San Marcos Civic Center Station,33.141956,-117.16067,"",SPRINTER
399,27011,S_FRSCHoff_merged_8680003,1,30.0,0.0,SPRINTER San Marcos Civic Center Station,33.141956,-117.16067,"",SPRINTER
399,27012,S_FRSCHoff_merged_8680003,0,30.0,0.0,SPRINTER Cal State San Marcos Station,33.134771,-117.153585,"",SPRINTER
399,27012,S_FRSCHoff_merged_8680003,1,30.0,0.0,SPRINTER Cal State San Marcos Station,33.134771,-117.153585,"",SPRINTER
399,27013,S_FRSCHoff_merged_8680003,0,30.0,0.0,SPRINTER Nordahl Rd Station,33.131112,-117.124154,"",SPRINTER
399,27013,S_FRSCHoff_merged_8680003,1,30.0,0.0,SPRINTER Nordahl Rd Station,33.131112,-117.124154,"",SPRINTER
399,27014,S_FRSCHoff_merged_8680003,0,30.0,0.0,SPRINTER Escondido Transit Center,33.118419,-117.09216,"",SPRINTER
399,27014,S_FRSCHoff_merged_8680003,1,30.0,0.0,SPRINTER Escondido Transit Center,33.118419,-117.09216,"",SPRINTER
399,27000,S_SASCHoff_merged_8679960,0,41.5,14.8,SPRINTER Oceanside Transit Center,33.190875,-117.37835,"",SPRINTER
399,27000,S_SASCHoff_merged_8679960,1,41.5,14.8,SPRINTER Oceanside Transit Center,33.190875,-117.37835,"",SPRINTER
399,27001,S_SASCHoff_merged_8679960,0,41.5,14.8,SPRINTER Coast Hwy Station,33.181866,-117.36835,"",SPRINTER
399,27001,S_SASCHoff_merged_8679960,1,41.5,14.8,SPRINTER Coast Hwy Station,33.181866,-117.36835,"",SPRINTER
399,27002,S_SASCHoff_merged_8679960,0,41.5,14.8,SPRINTER Crouch St Station,33.194612,-117.353514,"",SPRINTER
399,27002,S_SASCHoff_merged_8679960,1,41.5,14.8,SPRINTER Crouch St Station,33.194612,-117.353514,"",SPRINTER
399,27003,S_SASCHoff_merged_8679960,0,41.5,14.8,SPRINTER El Camino Real Station,33.199656,-117.332478,"",SPRINTER
399,27003,S_SASCHoff_merged_8679960,1,41.5,14.8,SPRINTER El Camino Real Station,33.199656,-117.332478,"",SPRINTER
399,27004,S_SASCHoff_merged_8679960,0,41.5,14.8,SPRINTER Rancho del Oro Station,33.201544,-117.311231,"",SPRINTER
399,27004,S_SASCHoff_merged_8679960,1,41.5,14.8,SPRINTER Rancho del Oro Station,33.201544,-117.311231,"",SPRINTER
399,27005,S_SASCHoff_merged_8679960,0,41.5,14.8,SPRINTER College Blvd Station,33.204546,-117.288143,"",SPRINTER
399,27005,S_SASCHoff_merged_8679960,1,41.5,14.8,SPRINTER College Blvd Station,33.204546,-117.288143,"",SPRINTER
399,27006,S_SASCHoff_merged_8679960,0,41.5,14.8,SPRINTER Melrose Dr Station,33.219553,-117.259087,"",SPRINTER
399,27006,S_SASCHoff_merged_8679960,1,41.5,14.8,SPRINTER Melrose Dr Station,33.219553,-117.259087,"",SPRINTER
399,27007,S_SASCHoff_merged_8679960,0,42.2,15.0,SPRINTER Vista Transit Center,33.202788,-117.244731,"",SPRINTER
399,27007,S_SASCHoff_merged_8679960,1,41.5,14.8,SPRINTER Vista Transit Center,33.202788,-117.244731,"",SPRINTER
399,27008,S_SASCHoff_merged_8679960,0,42.2,15.0,SPRINTER Escondido Ave Station,33.190535,-117.237476,"",SPRINTER
399,27008,S_SASCHoff_merged_8679960,1,41.5,14.8,SPRINTER Escondido Ave Station,33.190535,-117.237476,"",SPRINTER
399,27009,S_SASCHoff_merged_8679960,0,42.2,15.0,SPRINTER Buena Creek Station,33.1735,-117.207393,"",SPRINTER
399,27009,S_SASCHoff_merged_8679960,1,41.5,14.8,SPRINTER Buena Creek Station,33.1735,-117.207393,"",SPRINTER
399,27010,S_SASCHoff_merged_8679960,0,42.2,15.0,SPRINTER Palomar College Station,33.146953,-117.185314,"",SPRINTER
399,27010,S_SASCHoff_merged_8679960,1,41.5,14.8,SPRINTER Palomar College Station,33.146953,-117.185314,"",SPRINTER
399,27011,S_SASCHoff_merged_8679960,0,42.2,15.0,SPRINTER San Marcos Civic Center Station,33.141956,-117.16067,"",SPRINTER
399,27011,S_SASCHoff_merged_8679960,1,41.5,14.8,SPRINTER San Marcos Civic Center Station,33.141956,-117.16067,"",SPRINTER
399,27012,S_SASCHoff_merged_8679960,0,42.2,15.0,SPRINTER Cal State San Marcos Station,33.134771,-117.153585,"",SPRINTER
399,27012,S_SASCHoff_merged_8679960,1,41.5,14.8,SPRINTER Cal State San Marcos Station,33.134771,-117.153585,"",SPRINTER
399,27013,S_SASCHoff_merged_8679960,0,42.2,15.0,SPRINTER Nordahl Rd Station,33.131112,-117.124154,"",SPRINTER
399,27013,S_SASCHoff_merged_8679960,1,41.5,14.8,SPRINTER Nordahl Rd Station,33.131112,-117.124154,"",SPRINTER
399,27014,S_SASCHoff_merged_8679960,0,42.2,15.0,SPRINTER Escondido Transit Center,33.118419,-117.09216,"",SPRINTER
399,27014,S_SASCHoff_merged_8679960,1,41.5,14.8,SPRINTER Escondido Transit Center,33.118419,-117.09216,"",SPRINTER
399,27000,S_SASCHoff_merged_8679993,0,41.5,14.8,SPRINTER Oceanside Transit Center,33.190875,-117.37835,"",SPRINTER
399,27000,S_SASCHoff_merged_8679993,1,41.5,14.8,SPRINTER Oceanside Transit Center,33.190875,-117.37835,"",SPRINTER
399,27001,S_SASCHoff_merged_8679993,0,41.5,14.8,SPRINTER Coast Hwy Station,33.181866,-117.36835,"",SPRINTER
399,27001,S_SASCHoff_merged_8679993,1,41.5,14.8,SPRINTER Coast Hwy Station,33.181866,-117.36835,"",SPRINTER
399,27002,S_SASCHoff_merged_8679993,0,41.5,14.8,SPRINTER Crouch St Station,33.194612,-117.353514,"",SPRINTER
399,27002,S_SASCHoff_merged_8679993,1,41.5,14.8,SPRINTER Crouch St Station,33.194612,-117.353514,"",SPRINTER
399,27003,S_SASCHoff_merged_8679993,0,41.5,14.8,SPRINTER El Camino Real Station,33.199656,-117.332478,"",SPRINTER
399,27003,S_SASCHoff_merged_8679993,1,41.5,14.8,SPRINTER El Camino Real Station,33.199656,-117.332478,"",SPRINTER
399,27004,S_SASCHoff_merged_8679993,0,41.5,14.8,SPRINTER Rancho del Oro Station,33.201544,-117.311231,"",SPRINTER
399,27004,S_SASCHoff_merged_8679993,1,41.5,14.8,SPRINTER Rancho del Oro Station,33.201544,-117.311231,"",SPRINTER
399,27005,S_SASCHoff_merged_8679993,0,41.5,14.8,SPRINTER College Blvd Station,33.204546,-117.288143,"",SPRINTER
399,27005,S_SASCHoff_merged_8679993,1,41.5,14.8,SPRINTER College Blvd Station,33.204546,-117.288143,"",SPRINTER
399,27006,S_SASCHoff_merged_8679993,0,41.5,14.8,SPRINTER Melrose Dr Station,33.219553,-117.259087,"",SPRINTER
399,27006,S_SASCHoff_merged_8679993,1,41.5,14.8,SPRINTER Melrose Dr Station,33.219553,-117.259087,"",SPRINTER
399,27007,S_SASCHoff_merged_8679993,0,42.2,15.0,SPRINTER Vista Transit Center,33.202788,-117.244731,"",SPRINTER
399,27007,S_SASCHoff_merged_8679993,1,41.5,14.8,SPRINTER Vista Transit Center,33.202788,-117.244731,"",SPRINTER
399,27008,S_SASCHoff_merged_8679993,0,42.2,15.0,SPRINTER Escondido Ave Station,33.190535,-117.237476,"",SPRINTER
399,27008,S_SASCHoff_merged_8679993,1,41.5,14.8,SPRINTER Escondido Ave Station,33.190535,-117.237476,"",SPRINTER
399,27009,S_SASCHoff_merged_8679993,0,42.2,15.0,SPRINTER Buena Creek Station,33.1735,-117.207393,"",SPRINTER
399,27009,S_SASCHoff_merged_8679993,1,41.5,14.8,SPRINTER Buena Creek Station,33.1735,-117.207393,"",SPRINTER
399,27010,S_SASCHoff_merged_8679993,0,42.2,15.0,SPRINTER Palomar College Station,33.146953,-117.185314,"",SPRINTER
399,27010,S_SASCHoff_merged_8679993,1,41.5,14.8,SPRINTER Palomar College Station,33.146953,-117.185314,"",SPRINTER
399,27011,S_SASCHoff_merged_8679993,0,42.2,15.0,SPRINTER San Marcos Civic Center Station,33.141956,-117.16067,"",SPRINTER
399,27011,S_SASCHoff_merged_8679993,1,41.5,14.8,SPRINTER San Marcos Civic Center Station,33.141956,-117.16067,"",SPRINTER
399,27012,S_SASCHoff_merged_8679993,0,42.2,15.0,SPRINTER Cal State San Marcos Station,33.134771,-117.153585,"",SPRINTER
399,27012,S_SASCHoff_merged_8679993,1,41.5,14.8,SPRINTER Cal State San Marcos Station,33.134771,-117.153585,"",SPRINTER
399,27013,S_SASCHoff_merged_8679993,0,42.2,15.0,SPRINTER Nordahl Rd Station,33.131112,-117.124154,"",SPRINTER
399,27013,S_SASCHoff_merged_8679993,1,41.5,14.8,SPRINTER Nordahl Rd Station,33.131112,-117.124154,"",SPRINTER
399,27014,S_SASCHoff_merged_8679993,0,42.2,15.0,SPRINTER Escondido Transit Center,33.118419,-117.09216,"",SPRINTER
399,27014,S_SASCHoff_merged_8679993,1,41.5,14.8,SPRINTER Escondido Transit Center,33.118419,-117.09216,"",SPRINTER
399,27000,S_SUSCHoff_merged_8679968,0,39.1,14.1,SPRINTER Oceanside Transit Center,33.190875,-117.37835,"",SPRINTER
399,27000,S_SUSCHoff_merged_8679968,1,40.0,14.4,SPRINTER Oceanside Transit Center,33.190875,-117.37835,"",SPRINTER
399,27001,S_SUSCHoff_merged_8679968,0,39.1,14.1,SPRINTER Coast Hwy Station,33.181866,-117.36835,"",SPRINTER
399,27001,S_SUSCHoff_merged_8679968,1,40.0,14.4,SPRINTER Coast Hwy Station,33.181866,-117.36835,"",SPRINTER
399,27002,S_SUSCHoff_merged_8679968,0,39.1,14.1,SPRINTER Crouch St Station,33.194612,-117.353514,"",SPRINTER
399,27002,S_SUSCHoff_merged_8679968,1,40.0,14.4,SPRINTER Crouch St Station,33.194612,-117.353514,"",SPRINTER
399,27003,S_SUSCHoff_merged_8679968,0,39.1,14.1,SPRINTER El Camino Real Station,33.199656,-117.332478,"",SPRINTER
399,27003,S_SUSCHoff_merged_8679968,1,40.0,14.4,SPRINTER El Camino Real Station,33.199656,-117.332478,"",SPRINTER
399,27004,S_SUSCHoff_merged_8679968,0,39.1,14.1,SPRINTER Rancho del Oro Station,33.201544,-117.311231,"",SPRINTER
399,27004,S_SUSCHoff_merged_8679968,1,40.0,14.4,SPRINTER Rancho del Oro Station,33.201544,-117.311231,"",SPRINTER
399,27005,S_SUSCHoff_merged_8679968,0,39.1,14.1,SPRINTER College Blvd Station,33.204546,-117.288143,"",SPRINTER
399,27005,S_SUSCHoff_merged_8679968,1,40.0,14.4,SPRINTER College Blvd Station,33.204546,-117.288143,"",SPRINTER
399,27006,S_SUSCHoff_merged_8679968,0,39.1,14.1,SPRINTER Melrose Dr Station,33.219553,-117.259087,"",SPRINTER
399,27006,S_SUSCHoff_merged_8679968,1,40.0,14.4,SPRINTER Melrose Dr Station,33.219553,-117.259087,"",SPRINTER
399,27007,S_SUSCHoff_merged_8679968,0,40.0,14.4,SPRINTER Vista Transit Center,33.202788,-117.244731,"",SPRINTER
399,27007,S_SUSCHoff_merged_8679968,1,40.0,14.4,SPRINTER Vista Transit Center,33.202788,-117.244731,"",SPRINTER
399,27008,S_SUSCHoff_merged_8679968,0,40.0,14.4,SPRINTER Escondido Ave Station,33.190535,-117.237476,"",SPRINTER
399,27008,S_SUSCHoff_merged_8679968,1,40.0,14.4,SPRINTER Escondido Ave Station,33.190535,-117.237476,"",SPRINTER
399,27009,S_SUSCHoff_merged_8679968,0,40.0,14.4,SPRINTER Buena Creek Station,33.1735,-117.207393,"",SPRINTER
399,27009,S_SUSCHoff_merged_8679968,1,40.0,14.4,SPRINTER Buena Creek Station,33.1735,-117.207393,"",SPRINTER
399,27010,S_SUSCHoff_merged_8679968,0,40.0,14.4,SPRINTER Palomar College Station,33.146953,-117.185314,"",SPRINTER
399,27010,S_SUSCHoff_merged_8679968,1,40.0,14.4,SPRINTER Palomar College Station,33.146953,-117.185314,"",SPRINTER
399,27011,S_SUSCHoff_merged_8679968,0,40.0,14.4,SPRINTER San Marcos Civic Center Station,33.141956,-117.16067,"",SPRINTER
399,27011,S_SUSCHoff_merged_8679968,1,40.0,14.4,SPRINTER San Marcos Civic Center Station,33.141956,-117.16067,"",SPRINTER
399,27012,S_SUSCHoff_merged_8679968,0,40.0,14.4,SPRINTER Cal State San Marcos Station,33.134771,-117.153585,"",SPRINTER
399,27012,S_SUSCHoff_merged_8679968,1,40.0,14.4,SPRINTER Cal State San Marcos Station,33.134771,-117.153585,"",SPRINTER
399,27013,S_SUSCHoff_merged_8679968,0,40.0,14.4,SPRINTER Nordahl Rd Station,33.131112,-117.124154,"",SPRINTER
399,27013,S_SUSCHoff_merged_8679968,1,40.0,14.4,SPRINTER Nordahl Rd Station,33.131112,-117.124154,"",SPRINTER
399,27014,S_SUSCHoff_merged_8679968,0,40.0,14.4,SPRINTER Escondido Transit Center,33.118419,-117.09216,"",SPRINTER
399,27014,S_SUSCHoff_merged_8679968,1,40.0,14.4,SPRINTER Escondido Transit Center,33.118419,-117.09216,"",SPRINTER
399,27000,S_SUSCHoff_merged_8680001,0,39.1,14.1,SPRINTER Oceanside Transit Center,33.190875,-117.37835,"",SPRINTER
399,27000,S_SUSCHoff_merged_8680001,1,40.0,14.4,SPRINTER Oceanside Transit Center,33.190875,-117.37835,"",SPRINTER
399,27001,S_SUSCHoff_merged_8680001,0,39.1,14.1,SPRINTER Coast Hwy Station,33.181866,-117.36835,"",SPRINTER
399,27001,S_SUSCHoff_merged_8680001,1,40.0,14.4,SPRINTER Coast Hwy Station,33.181866,-117.36835,"",SPRINTER
399,27002,S_SUSCHoff_merged_8680001,0,39.1,14.1,SPRINTER Crouch St Station,33.194612,-117.353514,"",SPRINTER
399,27002,S_SUSCHoff_merged_8680001,1,40.0,14.4,SPRINTER Crouch St Station,33.194612,-117.353514,"",SPRINTER
399,27003,S_SUSCHoff_merged_8680001,0,39.1,14.1,SPRINTER El Camino Real Station,33.199656,-117.332478,"",SPRINTER
399,27003,S_SUSCHoff_merged_8680001,1,40.0,14.4,SPRINTER El Camino Real Station,33.199656,-117.332478,"",SPRINTER
399,27004,S_SUSCHoff_merged_8680001,0,39.1,14.1,SPRINTER Rancho del Oro Station,33.201544,-117.311231,"",SPRINTER
399,27004,S_SUSCHoff_merged_8680001,1,40.0,14.4,SPRINTER Rancho del Oro Station,33.201544,-117.311231,"",SPRINTER
399,27005,S_SUSCHoff_merged_8680001,0,39.1,14.1,SPRINTER College Blvd Station,33.204546,-117.288143,"",SPRINTER
399,27005,S_SUSCHoff_merged_8680001,1,40.0,14.4,SPRINTER College Blvd Station,33.204546,-117.288143,"",SPRINTER
399,27006,S_SUSCHoff_merged_8680001,0,39.1,14.1,SPRINTER Melrose Dr Station,33.219553,-117.259087,"",SPRINTER
399,27006,S_SUSCHoff_merged_8680001,1,40.0,14.4,SPRINTER Melrose Dr Station,33.219553,-117.259087,"",SPRINTER
399,27007,S_SUSCHoff_merged_8680001,0,40.0,14.4,SPRINTER Vista Transit Center,33.202788,-117.244731,"",SPRINTER
399,27007,S_SUSCHoff_merged_8680001,1,40.0,14.4,SPRINTER Vista Transit Center,33.202788,-117.244731,"",SPRINTER
399,27008,S_SUSCHoff_merged_8680001,0,40.0,14.4,SPRINTER Escondido Ave Station,33.190535,-117.237476,"",SPRINTER
399,27008,S_SUSCHoff_merged_8680001,1,40.0,14.4,SPRINTER Escondido Ave Station,33.190535,-117.237476,"",SPRINTER
399,27009,S_SUSCHoff_merged_8680001,0,40.0,14.4,SPRINTER Buena Creek Station,33.1735,-117.207393,"",SPRINTER
399,27009,S_SUSCHoff_merged_8680001,1,40.0,14.4,SPRINTER Buena Creek Station,33.1735,-117.207393,"",SPRINTER
399,27010,S_SUSCHoff_merged_8680001,0,40.0,14.4,SPRINTER Palomar College Station,33.146953,-117.185314,"",SPRINTER
399,27010,S_SUSCHoff_merged_8680001,1,40.0,14.4,SPRINTER Palomar College Station,33.146953,-117.185314,"",SPRINTER
399,27011,S_SUSCHoff_merged_8680001,0,40.0,14.4,SPRINTER San Marcos Civic Center Station,33.141956,-117.16067,"",SPRINTER
399,27011,S_SUSCHoff_merged_8680001,1,40.0,14.4,SPRINTER San Marcos Civic Center Station,33.141956,-117.16067,"",SPRINTER
399,27012,S_SUSCHoff_merged_8680001,0,40.0,14.4,SPRINTER Cal State San Marcos Station,33.134771,-117.153585,"",SPRINTER
399,27012,S_SUSCHoff_merged_8680001,1,40.0,14.4,SPRINTER Cal State San Marcos Station,33.134771,-117.153585,"",SPRINTER
399,27013,S_SUSCHoff_merged_8680001,0,40.0,14.4,SPRINTER Nordahl Rd Station,33.131112,-117.124154,"",SPRINTER
399,27013,S_SUSCHoff_merged_8680001,1,40.0,14.4,SPRINTER Nordahl Rd Station,33.131112,-117.124154,"",SPRINTER
399,27014,S_SUSCHoff_merged_8680001,0,40.0,14.4,SPRINTER Escondido Transit Center,33.118419,-117.09216,"",SPRINTER
399,27014,S_SUSCHoff_merged_8680001,1,40.0,14.4,SPRINTER Escondido Transit Center,33.118419,-117.09216,"",SPRINTER
399,27000,S_WDSCHoff_merged_8679947,0,30.0,0.0,SPRINTER Oceanside Transit Center,33.190875,-117.37835,"",SPRINTER
399,27000,S_WDSCHoff_merged_8679947,1,30.0,0.0,SPRINTER Oceanside Transit Center,33.190875,-117.37835,"",SPRINTER
399,27001,S_WDSCHoff_merged_8679947,0,30.0,0.0,SPRINTER Coast Hwy Station,33.181866,-117.36835,"",SPRINTER
399,27001,S_WDSCHoff_merged_8679947,1,30.0,0.0,SPRINTER Coast Hwy Station,33.181866,-117.36835,"",SPRINTER
399,27002,S_WDSCHoff_merged_8679947,0,30.0,0.0,SPRINTER Crouch St Station,33.194612,-117.353514,"",SPRINTER
399,27002,S_WDSCHoff_merged_8679947,1,30.0,0.0,SPRINTER Crouch St Station,33.194612,-117.353514,"",SPRINTER
399,27003,S_WDSCHoff_merged_8679947,0,30.0,0.0,SPRINTER El Camino Real Station,33.199656,-117.332478,"",SPRINTER
399,27003,S_WDSCHoff_merged_8679947,1,30.0,0.0,SPRINTER El Camino Real Station,33.199656,-117.332478,"",SPRINTER
399,27004,S_WDSCHoff_merged_8679947,0,30.0,0.0,SPRINTER Rancho del Oro Station,33.201544,-117.311231,"",SPRINTER
399,27004,S_WDSCHoff_merged_8679947,1,30.0,0.0,SPRINTER Rancho del Oro Station,33.201544,-117.311231,"",SPRINTER
399,27005,S_WDSCHoff_merged_8679947,0,30.0,0.0,SPRINTER College Blvd Station,33.204546,-117.288143,"",SPRINTER
399,27005,S_WDSCHoff_merged_8679947,1,30.0,0.0,SPRINTER College Blvd Station,33.204546,-117.288143,"",SPRINTER
399,27006,S_WDSCHoff_merged_8679947,0,30.0,0.0,SPRINTER Melrose Dr Station,33.219553,-117.259087,"",SPRINTER
399,27006,S_WDSCHoff_merged_8679947,1,30.0,0.0,SPRINTER Melrose Dr Station,33.219553,-117.259087,"",SPRINTER
399,27007,S_WDSCHoff_merged_8679947,0,30.0,0.0,SPRINTER Vista Transit Center,33.202788,-117.244731,"",SPRINTER
399,27007,S_WDSCHoff_merged_8679947,1,30.0,0.0,SPRINTER Vista Transit Center,33.202788,-117.244731,"",SPRINTER
399,27008,S_WDSCHoff_merged_8679947,0,30.0,0.0,SPRINTER Escondido Ave Station,33.190535,-117.237476,"",SPRINTER
399,27008,S_WDSCHoff_merged_8679947,1,30.0,0.0,SPRINTER Escondido Ave Station,33.190535,-117.237476,"",SPRINTER
399,27009,S_WDSCHoff_merged_8679947,0,30.0,0.0,SPRINTER Buena Creek Station,33.1735,-117.207393,"",SPRINTER
399,27009,S_WDSCHoff_merged_8679947,1,30.0,0.0,SPRINTER Buena Creek Station,33.1735,-117.207393,"",SPRINTER
399,27010,S_WDSCHoff_merged_8679947,0,30.0,0.0,SPRINTER Palomar College Station,33.146953,-117.185314,"",SPRINTER
399,27010,S_WDSCHoff_merged_8679947,1,30.0,0.0,SPRINTER Palomar College Station,33.146953,-117.185314,"",SPRINTER
399,27011,S_WDSCHoff_merged_8679947,0,30.0,0.0,SPRINTER San Marcos Civic Center Station,33.141956,-117.16067,"",SPRINTER
399,27011,S_WDSCHoff_merged_8679947,1,30.0,0.0,SPRINTER San Marcos Civic Center Station,33.141956,-117.16067,"",SPRINTER
399,27012,S_WDSCHoff_merged_8679947,0,30.0,0.0,SPRINTER Cal State San Marcos Station,33.134771,-117.153585,"",SPRINTER
399,27012,S_WDSCHoff_merged_8679947,1,30.0,0.0,SPRINTER Cal State San Marcos Station,33.134771,-117.153585,"",SPRINTER
399,27013,S_WDSCHoff_merged_8679947,0,30.0,0.0,SPRINTER Nordahl Rd Station,33.131112,-117.124154,"",SPRINTER
399,27013,S_WDSCHoff_merged_8679947,1,30.0,0.0,SPRINTER Nordahl Rd Station,33.131112,-117.124154,"",SPRINTER
399,27014,S_WDSCHoff_merged_8679947,0,30.0,0.0,SPRINTER Escondido Transit Center,33.118419,-117.09216,"",SPRINTER
399,27014,S_WDSCHoff_merged_8679947,1,30.0,0.0,SPRINTER Escondido Transit Center,33.118419,-117.09216,"",SPRINTER
399,27000,S_WDSCHoff_merged_8679980,0,30.0,0.0,SPRINTER Oceanside Transit Center,33.190875,-117.37835,"",SPRINTER
399,27000,S_WDSCHoff_merged_8679980,1,30.0,0.0,SPRINTER Oceanside Transit Center,33.190875,-117.37835,"",SPRINTER
399,27001,S_WDSCHoff_merged_8679980,0,30.0,0.0,SPRINTER Coast Hwy Station,33.181866,-117.36835,"",SPRINTER
399,27001,S_WDSCHoff_merged_8679980,1,30.0,0.0,SPRINTER Coast Hwy Station,33.181866,-117.36835,"",SPRINTER
399,27002,S_WDSCHoff_merged_8679980,0,30.0,0.0,SPRINTER Crouch St Station,33.194612,-117.353514,"",SPRINTER
399,27002,S_WDSCHoff_merged_8679980,1,30.0,0.0,SPRINTER Crouch St Station,33.194612,-117.353514,"",SPRINTER
399,27003,S_WDSCHoff_merged_8679980,0,30.0,0.0,SPRINTER El Camino Real Station,33.199656,-117.332478,"",SPRINTER
399,27003,S_WDSCHoff_merged_8679980,1,30.0,0.0,SPRINTER El Camino Real Station,33.199656,-117.332478,"",SPRINTER
399,27004,S_WDSCHoff_merged_8679980,0,30.0,0.0,SPRINTER Rancho del Oro Station,33.201544,-117.311231,"",SPRINTER
399,27004,S_WDSCHoff_merged_8679980,1,30.0,0.0,SPRINTER Rancho del Oro Station,33.201544,-117.311231,"",SPRINTER
399,27005,S_WDSCHoff_merged_8679980,0,30.0,0.0,SPRINTER College Blvd Station,33.204546,-117.288143,"",SPRINTER
399,27005,S_WDSCHoff_merged_8679980,1,30.0,0.0,SPRINTER College Blvd Station,33.204546,-117.288143,"",SPRINTER
399,27006,S_WDSCHoff_merged_8679980,0,30.0,0.0,SPRINTER Melrose Dr Station,33.219553,-117.259087,"",SPRINTER
399,27006,S_WDSCHoff_merged_8679980,1,30.0,0.0,SPRINTER Melrose Dr Station,33.219553,-117.259087,"",SPRINTER
399,27007,S_WDSCHoff_merged_8679980,0,30.0,0.0,SPRINTER Vista Transit Center,33.202788,-117.244731,"",SPRINTER
399,27007,S_WDSCHoff_merged_8679980,1,30.0,0.0,SPRINTER Vista Transit Center,33.202788,-117.244731,"",SPRINTER
399,27008,S_WDSCHoff_merged_8679980,0,30.0,0.0,SPRINTER Escondido Ave Station,33.190535,-117.237476,"",SPRINTER
399,27008,S_WDSCHoff_merged_8679980,1,30.0,0.0,SPRINTER Escondido Ave Station,33.190535,-117.237476,"",SPRINTER
399,27009,S_WDSCHoff_merged_8679980,0,30.0,0.0,SPRINTER Buena Creek Station,33.1735,-117.207393,"",SPRINTER
399,27009,S_WDSCHoff_merged_8679980,1,30.0,0.0,SPRINTER Buena Creek Station,33.1735,-117.207393,"",SPRINTER
399,27010,S_WDSCHoff_merged_8679980,0,30.0,0.0,SPRINTER Palomar College Station,33.146953,-117.185314,"",SPRINTER
399,27010,S_WDSCHoff_merged_8679980,1,30.0,0.0,SPRINTER Palomar College Station,33.146953,-117.185314,"",SPRINTER
399,27011,S_WDSCHoff_merged_8679980,0,30.0,0.0,SPRINTER San Marcos Civic Center Station,33.141956,-117.16067,"",SPRINTER
399,27011,S_WDSCHoff_merged_8679980,1,30.0,0.0,SPRINTER San Marcos Civic Center Station,33.141956,-117.16067,"",SPRINTER
399,27012,S_WDSCHoff_merged_8679980,0,30.0,0.0,SPRINTER Cal State San Marcos Station,33.134771,-117.153585,"",SPRINTER
399,27012,S_WDSCHoff_merged_8679980,1,30.0,0.0,SPRINTER Cal State San Marcos Station,33.134771,-117.153585,"",SPRINTER
399,27013,S_WDSCHoff_merged_8679980,0,30.0,0.0,SPRINTER Nordahl Rd Station,33.131112,-117.124154,"",SPRINTER
399,27013,S_WDSCHoff_merged_8679980,1,30.0,0.0,SPRINTER Nordahl Rd Station,33.131112,-117.124154,"",SPRINTER
399,27014,S_WDSCHoff_merged_8679980,0,30.0,0.0,SPRINTER Escondido Transit Center,33.118419,-117.09216,"",SPRINTER
399,27014,S_WDSCHoff_merged_8679980,1,30.0,0.0,SPRINTER Escondido Transit Center,33.118419,-117.09216,"",SPRINTER
