stop_id,service_id,direction_id,numroutes,TripsServingStop,stop_name,stop_lat,stop_lon
28000,C_FRSCHoff_merged_8679963,0,1,2,Coaster Oceanside Transit Center,33.192251,-117.379708
28000,C_FRSCHoff_merged_8679963,1,1,2,Coaster Oceanside Transit Center,33.192251,-117.379708
28001,C_FRSCHoff_merged_8679963,0,1,2,Coaster Carlsbad Village Station,33.160697,-117.350767
28001,C_FRSCHoff_merged_8679963,1,1,2,Coaster Carlsbad Village Station,33.160697,-117.350767
28002,C_FRSCHoff_merged_8679963,0,1,2,Coaster Carlsbad Poinsettia Station,33.108638,-117.318987
28002,C_FRSCHoff_merged_8679963,1,1,2,Coaster Carlsbad Poinsettia Station,33.108638,-117.318987
28003,C_FRSCHoff_merged_8679963,0,1,2,Coaster Encinitas Station,33.047096,-117.293203
28003,C_FRSCHoff_merged_8679963,1,1,2,Coaster Encinitas Station,33.047096,-117.293203
28004,C_FRSCHoff_merged_8679963,0,1,2,Coaster Solana Beach Station,32.993268,-117.271609
28004,C_FRSCHoff_merged_8679963,1,1,2,Coaster Solana Beach Station,32.993268,-117.271609
28005,C_FRSCHoff_merged_8679963,0,1,2,Coaster Sorrento Valley Station,32.902771,-117.225126
28005,C_FRSCHoff_merged_8679963,1,1,2,Coaster Sorrento Valley Station,32.902771,-117.225126
28006,C_FRSCHoff_merged_8679963,0,1,2,Coaster Old Town Station,32.754211,-117.199324
28006,C_FRSCHoff_merged_8679963,1,1,2,Coaster Old Town Station,32.754211,-117.199324
28007,C_FRSCHoff_merged_8679963,0,1,2,Coaster Santa Fe Station,32.717493,-117.169985
28007,C_FRSCHoff_merged_8679963,1,1,2,Coaster Santa Fe Station,32.717493,-117.169985
28000,C_FRSCHoff_merged_8679996,0,1,2,Coaster Oceanside Transit Center,33.192251,-117.379708
28000,C_FRSCHoff_merged_8679996,1,1,2,Coaster Oceanside Transit Center,33.192251,-117.379708
28001,C_FRSCHoff_merged_8679996,0,1,2,Coaster Carlsbad Village Station,33.160697,-117.350767
28001,C_FRSCHoff_merged_8679996,1,1,2,Coaster Carlsbad Village Station,33.160697,-117.350767
28002,C_FRSCHoff_merged_8679996,0,1,2,Coaster Carlsbad Poinsettia Station,33.108638,-117.318987
28002,C_FRSCHoff_merged_8679996,1,1,2,Coaster Carlsbad Poinsettia Station,33.108638,-117.318987
28003,C_FRSCHoff_merged_8679996,0,1,2,Coaster Encinitas Station,33.047096,-117.293203
28003,C_FRSCHoff_merged_8679996,1,1,2,Coaster Encinitas Station,33.047096,-117.293203
28004,C_FRSCHoff_merged_8679996,0,1,2,Coaster Solana Beach Station,32.993268,-117.271609
28004,C_FRSCHoff_merged_8679996,1,1,2,Coaster Solana Beach Station,32.993268,-117.271609
28005,C_FRSCHoff_merged_8679996,0,1,2,Coaster Sorrento Valley Station,32.902771,-117.225126
28005,C_FRSCHoff_merged_8679996,1,1,2,Coaster Sorrento Valley Station,32.902771,-117.225126
28006,C_FRSCHoff_merged_8679996,0,1,2,Coaster Old Town Station,32.754211,-117.199324
28006,C_FRSCHoff_merged_8679996,1,1,2,Coaster Old Town Station,32.754211,-117.199324
28007,C_FRSCHoff_merged_8679996,0,1,2,Coaster Santa Fe Station,32.717493,-117.169985
28007,C_FRSCHoff_merged_8679996,1,1,2,Coaster Santa Fe Station,32.717493,-117.169985
28000,C_SASCHoff_merged_8679956,0,1,6,Coaster Oceanside Transit Center,33.192251,-117.379708
28000,C_SASCHoff_merged_8679956,1,1,6,Coaster Oceanside Transit Center,33.192251,-117.379708
28001,C_SASCHoff_merged_8679956,0,1,6,Coaster Carlsbad Village Station,33.160697,-117.350767
28001,C_SASCHoff_merged_8679956,1,1,6,Coaster Carlsbad Village Station,33.160697,-117.350767
28002,C_SASCHoff_merged_8679956,0,1,6,Coaster Carlsbad Poinsettia Station,33.108638,-117.318987
28002,C_SASCHoff_merged_8679956,1,1,6,Coaster Carlsbad Poinsettia Station,33.108638,-117.318987
28003,C_SASCHoff_merged_8679956,0,1,6,Coaster Encinitas Station,33.047096,-117.293203
28003,C_SASCHoff_merged_8679956,1,1,6,Coaster Encinitas Station,33.047096,-117.293203
28004,C_SASCHoff_merged_8679956,0,1,6,Coaster Solana Beach Station,32.993268,-117.271609
28004,C_SASCHoff_merged_8679956,1,1,6,Coaster Solana Beach Station,32.993268,-117.271609
28005,C_SASCHoff_merged_8679956,0,1,6,Coaster Sorrento Valley Station,32.902771,-117.225126
28005,C_SASCHoff_merged_8679956,1,1,6,Coaster Sorrento Valley Station,32.902771,-117.225126
28006,C_SASCHoff_merged_8679956,0,1,6,Coaster Old Town Station,32.754211,-117.199324
28006,C_SASCHoff_merged_8679956,1,1,6,Coaster Old Town Station,32.754211,-117.199324
28007,C_SASCHoff_merged_8679956,0,1,6,Coaster Santa Fe Station,32.717493,-117.169985
28007,C_SASCHoff_merged_8679956,1,1,6,Coaster Santa Fe Station,32.717493,-117.169985
28000,C_SASCHoff_merged_8679989,0,1,6,Coaster Oceanside Transit Center,33.192251,-117.379708
28000,C_SASCHoff_merged_8679989,1,1,6,Coaster Oceanside Transit Center,33.192251,-117.379708
28001,C_SASCHoff_merged_8679989,0,1,6,Coaster Carlsbad Village Station,33.160697,-117.350767
28001,C_SASCHoff_merged_8679989,1,1,6,Coaster Carlsbad Village Station,33.160697,-117.350767
28002,C_SASCHoff_merged_8679989,0,1,6,Coaster Carlsbad Poinsettia Station,33.108638,-117.318987
28002,C_SASCHoff_merged_8679989,1,1,6,Coaster Carlsbad Poinsettia Station,33.108638,-117.318987
28003,C_SASCHoff_merged_8679989,0,1,6,Coaster Encinitas Station,33.047096,-117.293203
28003,C_SASCHoff_merged_8679989,1,1,6,Coaster Encinitas Station,33.047096,-117.293203
28004,C_SASCHoff_merged_8679989,0,1,6,Coaster Solana Beach Station,32.993268,-117.271609
28004,C_SASCHoff_merged_8679989,1,1,6,Coaster Solana Beach Station,32.993268,-117.271609
28005,C_SASCHoff_merged_8679989,0,1,6,Coaster Sorrento Valley Station,32.902771,-117.225126
28005,C_SASCHoff_merged_8679989,1,1,6,Coaster Sorrento Valley Station,32.902771,-117.225126
28006,C_SASCHoff_merged_8679989,0,1,6,Coaster Old Town Station,32.754211,-117.199324
28006,C_SASCHoff_merged_8679989,1,1,6,Coaster Old Town Station,32.754211,-117.199324
28007,C_SASCHoff_merged_8679989,0,1,6,Coaster Santa Fe Station,32.717493,-117.169985
28007,C_SASCHoff_merged_8679989,1,1,6,Coaster Santa Fe Station,32.717493,-117.169985
28000,C_SUSCHoff_merged_8679941,0,1,4,Coaster Oceanside Transit Center,33.192251,-117.379708
28000,C_SUSCHoff_merged_8679941,1,1,4,Coaster Oceanside Transit Center,33.192251,-117.379708
28001,C_SUSCHoff_merged_8679941,0,1,4,Coaster Carlsbad Village Station,33.160697,-117.350767
28001,C_SUSCHoff_merged_8679941,1,1,4,Coaster Carlsbad Village Station,33.160697,-117.350767
28002,C_SUSCHoff_merged_8679941,0,1,4,Coaster Carlsbad Poinsettia Station,33.108638,-117.318987
28002,C_SUSCHoff_merged_8679941,1,1,4,Coaster Carlsbad Poinsettia Station,33.108638,-117.318987
28003,C_SUSCHoff_merged_8679941,0,1,4,Coaster Encinitas Station,33.047096,-117.293203
28003,C_SUSCHoff_merged_8679941,1,1,4,Coaster Encinitas Station,33.047096,-117.293203
28004,C_SUSCHoff_merged_8679941,0,1,4,Coaster Solana Beach Station,32.993268,-117.271609
28004,C_SUSCHoff_merged_8679941,1,1,4,Coaster Solana Beach Station,32.993268,-117.271609
28005,C_SUSCHoff_merged_8679941,0,1,4,Coaster Sorrento Valley Station,32.902771,-117.225126
28005,C_SUSCHoff_merged_8679941,1,1,4,Coaster Sorrento Valley Station,32.902771,-117.225126
28006,C_SUSCHoff_merged_8679941,0,1,4,Coaster Old Town Station,32.754211,-117.199324
28006,C_SUSCHoff_merged_8679941,1,1,4,Coaster Old Town Station,32.754211,-117.199324
28007,C_SUSCHoff_merged_8679941,0,1,4,Coaster Santa Fe Station,32.717493,-117.169985
28007,C_SUSCHoff_merged_8679941,1,1,4,Coaster Santa Fe Station,32.717493,-117.169985
28000,C_SUSCHoff_merged_8679974,0,1,4,Coaster Oceanside Transit Center,33.192251,-117.379708
28000,C_SUSCHoff_merged_8679974,1,1,4,Coaster Oceanside Transit Center,33.192251,-117.379708
28001,C_SUSCHoff_merged_8679974,0,1,4,Coaster Carlsbad Village Station,33.160697,-117.350767
28001,C_SUSCHoff_merged_8679974,1,1,4,Coaster Carlsbad Village Station,33.160697,-117.350767
28002,C_SUSCHoff_merged_8679974,0,1,4,Coaster Carlsbad Poinsettia Station,33.108638,-117.318987
28002,C_SUSCHoff_merged_8679974,1,1,4,Coaster Carlsbad Poinsettia Station,33.108638,-117.318987
28003,C_SUSCHoff_merged_8679974,0,1,4,Coaster Encinitas Station,33.047096,-117.293203
28003,C_SUSCHoff_merged_8679974,1,1,4,Coaster Encinitas Station,33.047096,-117.293203
28004,C_SUSCHoff_merged_8679974,0,1,4,Coaster Solana Beach Station,32.993268,-117.271609
28004,C_SUSCHoff_merged_8679974,1,1,4,Coaster Solana Beach Station,32.993268,-117.271609
28005,C_SUSCHoff_merged_8679974,0,1,4,Coaster Sorrento Valley Station,32.902771,-117.225126
28005,C_SUSCHoff_merged_8679974,1,1,4,Coaster Sorrento Valley Station,32.902771,-117.225126
28006,C_SUSCHoff_merged_8679974,0,1,4,Coaster Old Town Station,32.754211,-117.199324
28006,C_SUSCHoff_merged_8679974,1,1,4,Coaster Old Town Station,32.754211,-117.199324
28007,C_SUSCHoff_merged_8679974,0,1,4,Coaster Santa Fe Station,32.717493,-117.169985
28007,C_SUSCHoff_merged_8679974,1,1,4,Coaster Santa Fe Station,32.717493,-117.169985
28000,C_WDSCHoff_merged_8679954,0,1,11,Coaster Oceanside Transit Center,33.192251,-117.379708
28000,C_WDSCHoff_merged_8679954,1,1,11,Coaster Oceanside Transit Center,33.192251,-117.379708
28001,C_WDSCHoff_merged_8679954,0,1,11,Coaster Carlsbad Village Station,33.160697,-117.350767
28001,C_WDSCHoff_merged_8679954,1,1,11,Coaster Carlsbad Village Station,33.160697,-117.350767
28002,C_WDSCHoff_merged_8679954,0,1,11,Coaster Carlsbad Poinsettia Station,33.108638,-117.318987
28002,C_WDSCHoff_merged_8679954,1,1,11,Coaster Carlsbad Poinsettia Station,33.108638,-117.318987
28003,C_WDSCHoff_merged_8679954,0,1,11,Coaster Encinitas Station,33.047096,-117.293203
28003,C_WDSCHoff_merged_8679954,1,1,11,Coaster Encinitas Station,33.047096,-117.293203
28004,C_WDSCHoff_merged_8679954,0,1,11,Coaster Solana Beach Station,32.993268,-117.271609
28004,C_WDSCHoff_merged_8679954,1,1,11,Coaster Solana Beach Station,32.993268,-117.271609
28005,C_WDSCHoff_merged_8679954,0,1,11,Coaster Sorrento Valley Station,32.902771,-117.225126
28005,C_WDSCHoff_merged_8679954,1,1,11,Coaster Sorrento Valley Station,32.902771,-117.225126
28006,C_WDSCHoff_merged_8679954,0,1,11,Coaster Old Town Station,32.754211,-117.199324
28006,C_WDSCHoff_merged_8679954,1,1,11,Coaster Old Town Station,32.754211,-117.199324
28007,C_WDSCHoff_merged_8679954,0,1,11,Coaster Santa Fe Station,32.717493,-117.169985
28007,C_WDSCHoff_merged_8679954,1,1,11,Coaster Santa Fe Station,32.717493,-117.169985
28000,C_WDSCHoff_merged_8679987,0,1,11,Coaster Oceanside Transit Center,33.192251,-117.379708
28000,C_WDSCHoff_merged_8679987,1,1,11,Coaster Oceanside Transit Center,33.192251,-117.379708
28001,C_WDSCHoff_merged_8679987,0,1,11,Coaster Carlsbad Village Station,33.160697,-117.350767
28001,C_WDSCHoff_merged_8679987,1,1,11,Coaster Carlsbad Village Station,33.160697,-117.350767
28002,C_WDSCHoff_merged_8679987,0,1,11,Coaster Carlsbad Poinsettia Station,33.108638,-117.318987
28002,C_WDSCHoff_merged_8679987,1,1,11,Coaster Carlsbad Poinsettia Station,33.108638,-117.318987
28003,C_WDSCHoff_merged_8679987,0,1,11,Coaster Encinitas Station,33.047096,-117.293203
28003,C_WDSCHoff_merged_8679987,1,1,11,Coaster Encinitas Station,33.047096,-117.293203
28004,C_WDSCHoff_merged_8679987,0,1,11,Coaster Solana Beach Station,32.993268,-117.271609
28004,C_WDSCHoff_merged_8679987,1,1,11,Coaster Solana Beach Station,32.993268,-117.271609
28005,C_WDSCHoff_merged_8679987,0,1,11,Coaster Sorrento Valley Station,32.902771,-117.225126
28005,C_WDSCHoff_merged_8679987,1,1,11,Coaster Sorrento Valley Station,32.902771,-117.225126
28006,C_WDSCHoff_merged_8679987,0,1,11,Coaster Old Town Station,32.754211,-117.199324
28006,C_WDSCHoff_merged_8679987,1,1,11,Coaster Old Town Station,32.754211,-117.199324
28007,C_WDSCHoff_merged_8679987,0,1,11,Coaster Santa Fe Station,32.717493,-117.169985
28007,C_WDSCHoff_merged_8679987,1,1,11,Coaster Santa Fe Station,32.717493,-117.169985
28000,C_WESCHoff_merged_8679965,1,1,1,Coaster Oceanside Transit Center,33.192251,-117.379708
28001,C_WESCHoff_merged_8679965,1,1,1,Coaster Carlsbad Village Station,33.160697,-117.350767
28002,C_WESCHoff_merged_8679965,1,1,1,Coaster Carlsbad Poinsettia Station,33.108638,-117.318987
28003,C_WESCHoff_merged_8679965,1,1,1,Coaster Encinitas Station,33.047096,-117.293203
28004,C_WESCHoff_merged_8679965,1,1,1,Coaster Solana Beach Station,32.993268,-117.271609
28005,C_WESCHoff_merged_8679965,1,1,1,Coaster Sorrento Valley Station,32.902771,-117.225126
28007,C_WESCHoff_merged_8679965,1,1,1,Coaster Santa Fe Station,32.717493,-117.169985
28000,C_WESCHoff_merged_8679998,1,1,1,Coaster Oceanside Transit Center,33.192251,-117.379708
28001,C_WESCHoff_merged_8679998,1,1,1,Coaster Carlsbad Village Station,33.160697,-117.350767
28002,C_WESCHoff_merged_8679998,1,1,1,Coaster Carlsbad Poinsettia Station,33.108638,-117.318987
28003,C_WESCHoff_merged_8679998,1,1,1,Coaster Encinitas Station,33.047096,-117.293203
28004,C_WESCHoff_merged_8679998,1,1,1,Coaster Solana Beach Station,32.993268,-117.271609
28005,C_WESCHoff_merged_8679998,1,1,1,Coaster Sorrento Valley Station,32.902771,-117.225126
28007,C_WESCHoff_merged_8679998,1,1,1,Coaster Santa Fe Station,32.717493,-117.169985
27000,S_FRSCHoff_merged_8679970,0,1,6,SPRINTER Oceanside Transit Center,33.190875,-117.37835
27000,S_FRSCHoff_merged_8679970,1,1,4,SPRINTER Oceanside Transit Center,33.190875,-117.37835
27001,S_FRSCHoff_merged_8679970,0,1,6,SPRINTER Coast Hwy Station,33.181866,-117.36835
27001,S_FRSCHoff_merged_8679970,1,1,4,SPRINTER Coast Hwy Station,33.181866,-117.36835
27002,S_FRSCHoff_merged_8679970,0,1,6,SPRINTER Crouch St Station,33.194612,-117.353514
27002,S_FRSCHoff_merged_8679970,1,1,4,SPRINTER Crouch St Station,33.194612,-117.353514
27003,S_FRSCHoff_merged_8679970,0,1,6,SPRINTER El Camino Real Station,33.199656,-117.332478
27003,S_FRSCHoff_merged_8679970,1,1,4,SPRINTER El Camino Real Station,33.199656,-117.332478
27004,S_FRSCHoff_merged_8679970,0,1,6,SPRINTER Rancho del Oro Station,33.201544,-117.311231
27004,S_FRSCHoff_merged_8679970,1,1,4,SPRINTER Rancho del Oro Station,33.201544,-117.311231
27005,S_FRSCHoff_merged_8679970,0,1,6,SPRINTER College Blvd Station,33.204546,-117.288143
27005,S_FRSCHoff_merged_8679970,1,1,4,SPRINTER College Blvd Station,33.204546,-117.288143
27006,S_FRSCHoff_merged_8679970,0,1,6,SPRINTER Melrose Dr Station,33.219553,-117.259087
27006,S_FRSCHoff_merged_8679970,1,1,4,SPRINTER Melrose Dr Station,33.219553,-117.259087
27007,S_FRSCHoff_merged_8679970,0,1,6,SPRINTER Vista Transit Center,33.202788,-117.244731
27007,S_FRSCHoff_merged_8679970,1,1,4,SPRINTER Vista Transit Center,33.202788,-117.244731
27008,S_FRSCHoff_merged_8679970,0,1,6,SPRINTER Escondido Ave Station,33.190535,-117.237476
27008,S_FRSCHoff_merged_8679970,1,1,4,SPRINTER Escondido Ave Station,33.190535,-117.237476
27009,S_FRSCHoff_merged_8679970,0,1,6,SPRINTER Buena Creek Station,33.1735,-117.207393
27009,S_FRSCHoff_merged_8679970,1,1,4,SPRINTER Buena Creek Station,33.1735,-117.207393
27010,S_FRSCHoff_merged_8679970,0,1,6,SPRINTER Palomar College Station,33.146953,-117.185314
27010,S_FRSCHoff_merged_8679970,1,1,4,SPRINTER Palomar College Station,33.146953,-117.185314
27011,S_FRSCHoff_merged_8679970,0,1,6,SPRINTER San Marcos Civic Center Station,33.141956,-117.16067
27011,S_FRSCHoff_merged_8679970,1,1,4,SPRINTER San Marcos Civic Center Station,33.141956,-117.16067
27012,S_FRSCHoff_merged_8679970,0,1,6,SPRINTER Cal State San Marcos Station,33.134771,-117.153585
27012,S_FRSCHoff_merged_8679970,1,1,4,SPRINTER Cal State San Marcos Station,33.134771,-117.153585
27013,S_FRSCHoff_merged_8679970,0,1,6,SPRINTER Nordahl Rd Station,33.131112,-117.124154
27013,S_FRSCHoff_merged_8679970,1,1,4,SPRINTER Nordahl Rd Station,33.131112,-117.124154
27014,S_FRSCHoff_merged_8679970,0,1,6,SPRINTER Escondido Transit Center,33.118419,-117.09216
27014,S_FRSCHoff_merged_8679970,1,1,4,SPRINTER Escondido Transit Center,33.118419,-117.09216
27000,S_FRSCHoff_merged_8680003,0,1,6,SPRINTER Oceanside Transit Center,33.190875,-117.37835
27000,S_FRSCHoff_merged_8680003,1,1,4,SPRINTER Oceanside Transit Center,33.190875,-117.37835
27001,S_FRSCHoff_merged_8680003,0,1,6,SPRINTER Coast Hwy Station,33.181866,-117.36835
27001,S_FRSCHoff_merged_8680003,1,1,4,SPRINTER Coast Hwy Station,33.181866,-117.36835
27002,S_FRSCHoff_merged_8680003,0,1,6,SPRINTER Crouch St Station,33.194612,-117.353514
27002,S_FRSCHoff_merged_8680003,1,1,4,SPRINTER Crouch St Station,33.194612,-117.353514
27003,S_FRSCHoff_merged_8680003,0,1,6,SPRINTER El Camino Real Station,33.199656,-117.332478
27003,S_FRSCHoff_merged_8680003,1,1,4,SPRINTER El Camino Real Station,33.199656,-117.332478
27004,S_FRSCHoff_merged_8680003,0,1,6,SPRINTER Rancho del Oro Station,33.201544,-117.311231
27004,S_FRSCHoff_merged_8680003,1,1,4,SPRINTER Rancho del Oro Station,33.201544,-117.311231
27005,S_FRSCHoff_merged_8680003,0,1,6,SPRINTER College Blvd Station,33.204546,-117.288143
27005,S_FRSCHoff_merged_8680003,1,1,4,SPRINTER College Blvd Station,33.204546,-117.288143
27006,S_FRSCHoff_merged_8680003,0,1,6,SPRINTER Melrose Dr Station,33.219553,-117.259087
27006,S_FRSCHoff_merged_8680003,1,1,4,SPRINTER Melrose Dr Station,33.219553,-117.259087
27007,S_FRSCHoff_merged_8680003,0,1,6,SPRINTER Vista Transit Center,33.202788,-117.244731
27007,S_FRSCHoff_merged_8680003,1,1,4,SPRINTER Vista Transit Center,33.202788,-117.244731
27008,S_FRSCHoff_merged_8680003,0,1,6,SPRINTER Escondido Ave Station,33.190535,-117.237476
27008,S_FRSCHoff_merged_8680003,1,1,4,SPRINTER Escondido Ave Station,33.190535,-117.237476
27009,S_FRSCHoff_merged_8680003,0,1,6,SPRINTER Buena Creek Station,33.1735,-117.207393
27009,S_FRSCHoff_merged_8680003,1,1,4,SPRINTER Buena Creek Station,33.1735,-117.207393
27010,S_FRSCHoff_merged_8680003,0,1,6,SPRINTER Palomar College Station,33.146953,-117.185314
27010,S_FRSCHoff_merged_8680003,1,1,4,SPRINTER Palomar College Station,33.146953,-117.185314
27011,S_FRSCHoff_merged_8680003,0,1,6,SPRINTER San Marcos Civic Center Station,33.141956,-117.16067
27011,S_FRSCHoff_merged_8680003,1,1,4,SPRINTER San Marcos Civic Center Station,33.141956,-117.16067
27012,S_FRSCHoff_merged_8680003,0,1,6,SPRINTER Cal State San Marcos Station,33.134771,-117.153585
27012,S_FRSCHoff_merged_8680003,1,1,4,SPRINTER Cal State San Marcos Station,33.134771,-117.153585
27013,S_FRSCHoff_merged_8680003,0,1,6,SPRINTER Nordahl Rd Station,33.131112,-117.124154
27013,S_FRSCHoff_merged_8680003,1,1,4,SPRINTER Nordahl Rd Station,33.131112,-117.124154
27014,S_FRSCHoff_merged_8680003,0,1,6,SPRINTER Escondido Transit Center,33.118419,-117.09216
27014,S_FRSCHoff_merged_8680003,1,1,4,SPRINTER Escondido Transit Center,33.118419,-117.09216
27000,S_SASCHoff_merged_8679960,0,1,27,SPRINTER Oceanside Transit Center,33.190875,-117.37835
27000,S_SASCHoff_merged_8679960,1,1,27,SPRINTER Oceanside Transit Center,33.190875,-117.37835
27001,S_SASCHoff_merged_8679960,0,1,27,SPRINTER Coast Hwy Station,33.181866,-117.36835
27001,S_SASCHoff_merged_8679960,1,1,27,SPRINTER Coast Hwy Station,33.181866,-117.36835
27002,S_SASCHoff_merged_8679960,0,1,27,SPRINTER Crouch St Station,33.194612,-117.353514
27002,S_SASCHoff_merged_8679960,1,1,27,SPRINTER Crouch St Station,33.194612,-117.353514
27003,S_SASCHoff_merged_8679960,0,1,27,SPRINTER El Camino Real Station,33.199656,-117.332478
27003,S_SASCHoff_merged_8679960,1,1,27,SPRINTER El Camino Real Station,33.199656,-117.332478
27004,S_SASCHoff_merged_8679960,0,1,27,SPRINTER Rancho del Oro Station,33.201544,-117.311231
27004,S_SASCHoff_merged_8679960,1,1,27,SPRINTER Rancho del Oro Station,33.201544,-117.311231
27005,S_SASCHoff_merged_8679960,0,1,27,SPRINTER College Blvd Station,33.204546,-117.288143
27005,S_SASCHoff_merged_8679960,1,1,27,SPRINTER College Blvd Station,33.204546,-117.288143
27006,S_SASCHoff_merged_8679960,0,1,27,SPRINTER Melrose Dr Station,33.219553,-117.259087
27006,S_SASCHoff_merged_8679960,1,1,27,SPRINTER Melrose Dr Station,33.219553,-117.259087
27007,S_SASCHoff_merged_8679960,0,1,28,SPRINTER Vista Transit Center,33.202788,-117.244731
27007,S_SASCHoff_merged_8679960,1,1,27,SPRINTER Vista Transit Center,33.202788,-117.244731
27008,S_SASCHoff_merged_8679960,0,1,28,SPRINTER Escondido Ave Station,33.190535,-117.237476
27008,S_SASCHoff_merged_8679960,1,1,27,SPRINTER Escondido Ave Station,33.190535,-117.237476
27009,S_SASCHoff_merged_8679960,0,1,28,SPRINTER Buena Creek Station,33.1735,-117.207393
27009,S_SASCHoff_merged_8679960,1,1,27,SPRINTER Buena Creek Station,33.1735,-117.207393
27010,S_SASCHoff_merged_8679960,0,1,28,SPRINTER Palomar College Station,33.146953,-117.185314
27010,S_SASCHoff_merged_8679960,1,1,27,SPRINTER Palomar College Station,33.146953,-117.185314
27011,S_SASCHoff_merged_8679960,0,1,28,SPRINTER San Marcos Civic Center Station,33.141956,-117.16067
27011,S_SASCHoff_merged_8679960,1,1,27,SPRINTER San Marcos Civic Center Station,33.141956,-117.16067
27012,S_SASCHoff_merged_8679960,0,1,28,SPRINTER Cal State San Marcos Station,33.134771,-117.153585
27012,S_SASCHoff_merged_8679960,1,1,27,SPRINTER Cal State San Marcos Station,33.134771,-117.153585
27013,S_SASCHoff_merged_8679960,0,1,28,SPRINTER Nordahl Rd Station,33.131112,-117.124154
27013,S_SASCHoff_merged_8679960,1,1,27,SPRINTER Nordahl Rd Station,33.131112,-117.124154
27014,S_SASCHoff_merged_8679960,0,1,28,SPRINTER Escondido Transit Center,33.118419,-117.09216
27014,S_SASCHoff_merged_8679960,1,1,27,SPRINTER Escondido Transit Center,33.118419,-117.09216
27000,S_SASCHoff_merged_8679993,0,1,27,SPRINTER Oceanside Transit Center,33.190875,-117.37835
27000,S_SASCHoff_merged_8679993,1,1,27,SPRINTER Oceanside Transit Center,33.190875,-117.37835
27001,S_SASCHoff_merged_8679993,0,1,27,SPRINTER Coast Hwy Station,33.181866,-117.36835
27001,S_SASCHoff_merged_8679993,1,1,27,SPRINTER Coast Hwy Station,33.181866,-117.36835
27002,S_SASCHoff_merged_8679993,0,1,27,SPRINTER Crouch St Station,33.194612,-117.353514
27002,S_SASCHoff_merged_8679993,1,1,27,SPRINTER Crouch St Station,33.194612,-117.353514
27003,S_SASCHoff_merged_8679993,0,1,27,SPRINTER El Camino Real Station,33.199656,-117.332478
27003,S_SASCHoff_merged_8679993,1,1,27,SPRINTER El Camino Real Station,33.199656,-117.332478
27004,S_SASCHoff_merged_8679993,0,1,27,SPRINTER Rancho del Oro Station,33.201544,-117.311231
27004,S_SASCHoff_merged_8679993,1,1,27,SPRINTER Rancho del Oro Station,33.201544,-117.311231
27005,S_SASCHoff_merged_8679993,0,1,27,SPRINTER College Blvd Station,33.204546,-117.288143
27005,S_SASCHoff_merged_8679993,1,1,27,SPRINTER College Blvd Station,33.204546,-117.288143
27006,S_SASCHoff_merged_8679993,0,1,27,SPRINTER Melrose Dr Station,33.219553,-117.259087
27006,S_SASCHoff_merged_8679993,1,1,27,SPRINTER Melrose Dr Station,33.219553,-117.259087
27007,S_SASCHoff_merged_8679993,0,1,28,SPRINTER Vista Transit Center,33.202788,-117.244731
27007,S_SASCHoff_merged_8679993,1,1,27,SPRINTER Vista Transit Center,33.202788,-117.244731
27008,S_SASCHoff_merged_8679993,0,1,28,SPRINTER Escondido Ave Station,33.190535,-117.237476
27008,S_SASCHoff_merged_8679993,1,1,27,SPRINTER Escondido Ave Station,33.190535,-117.237476
27009,S_SASCHoff_merged_8679993,0,1,28,SPRINTER Buena Creek Station,33.1735,-117.207393
27009,S_SASCHoff_merged_8679993,1,1,27,SPRINTER Buena Creek Station,33.1735,-117.207393
27010,S_SASCHoff_merged_8679993,0,1,28,SPRINTER Palomar College Station,33.146953,-117.185314
27010,S_SASCHoff_merged_8679993,1,1,27,SPRINTER Palomar College Station,33.146953,-117.185314
27011,S_SASCHoff_merged_8679993,0,1,28,SPRINTER San Marcos Civic Center Station,33.141956,-117.16067
27011,S_SASCHoff_merged_8679993,1,1,27,SPRINTER San Marcos Civic Center Station,33.141956,-117.16067
27012,S_SASCHoff_merged_8679993,0,1,28,SPRINTER Cal State San Marcos Station,33.134771,-117.153585
27012,S_SASCHoff_merged_8679993,1,1,27,SPRINTER Cal State San Marcos Station,33.134771,-117.153585
27013,S_SASCHoff_merged_8679993,0,1,28,SPRINTER Nordahl Rd Station,33.131112,-117.124154
27013,S_SASCHoff_merged_8679993,1,1,27,SPRINTER Nordahl Rd Station,33.131112,-117.124154
27014,S_SASCHoff_merged_8679993,0,1,28,SPRINTER Escondido Transit Center,33.118419,-117.09216
27014,S_SASCHoff_merged_8679993,1,1,27,SPRINTER Escondido Transit Center,33.118419,-117.09216
27000,S_SUSCHoff_merged_8679968,0,1,24,SPRINTER Oceanside Transit Center,33.190875,-117.37835
27000,S_SUSCHoff_merged_8679968,1,1,25,SPRINTER Oceanside Transit Center,33.190875,-117.37835
27001,S_SUSCHoff_merged_8679968,0,1,24,SPRINTER Coast Hwy Station,33.181866,-117.36835
27001,S_SUSCHoff_merged_8679968,1,1,25,SPRINTER Coast Hwy Station,33.181866,-117.36835
27002,S_SUSCHoff_merged_8679968,0,1,24,SPRINTER Crouch St Station,33.194612,-117.353514
27002,S_SUSCHoff_merged_8679968,1,1,25,SPRINTER Crouch St Station,33.194612,-117.353514
27003,S_SUSCHoff_merged_8679968,0,1,24,SPRINTER El Camino Real Station,33.199656,-117.332478
27003,S_SUSCHoff_merged_8679968,1,1,25,SPRINTER El Camino Real Station,33.199656,-117.332478
27004,S_SUSCHoff_merged_8679968,0,1,24,SPRINTER Rancho del Oro Station,33.201544,-117.311231
27004,S_SUSCHoff_merged_8679968,1,1,25,SPRINTER Rancho del Oro Station,33.201544,-117.311231
27005,S_SUSCHoff_merged_8679968,0,1,24,SPRINTER College Blvd Station,33.204546,-117.288143
27005,S_SUSCHoff_merged_8679968,1,1,25,SPRINTER College Blvd Station,33.204546,-117.288143
27006,S_SUSCHoff_merged_8679968,0,1,24,SPRINTER Melrose Dr Station,33.219553,-117.259087
27006,S_SUSCHoff_merged_8679968,1,1,25,SPRINTER Melrose Dr Station,33.219553,-117.259087
27007,S_SUSCHoff_merged_8679968,0,1,25,SPRINTER Vista Transit Center,33.202788,-117.244731
27007,S_SUSCHoff_merged_8679968,1,1,25,SPRINTER Vista Transit Center,33.202788,-117.244731
27008,S_SUSCHoff_merged_8679968,0,1,25,SPRINTER Escondido Ave Station,33.190535,-117.237476
27008,S_SUSCHoff_merged_8679968,1,1,25,SPRINTER Escondido Ave Station,33.190535,-117.237476
27009,S_SUSCHoff_merged_8679968,0,1,25,SPRINTER Buena Creek Station,33.1735,-117.207393
27009,S_SUSCHoff_merged_8679968,1,1,25,SPRINTER Buena Creek Station,33.1735,-117.207393
27010,S_SUSCHoff_merged_8679968,0,1,25,SPRINTER Palomar College Station,33.146953,-117.185314
27010,S_SUSCHoff_merged_8679968,1,1,25,SPRINTER Palomar College Station,33.146953,-117.185314
27011,S_SUSCHoff_merged_8679968,0,1,25,SPRINTER San Marcos Civic Center Station,33.141956,-117.16067
27011,S_SUSCHoff_merged_8679968,1,1,25,SPRINTER San Marcos Civic Center Station,33.141956,-117.16067
27012,S_SUSCHoff_merged_8679968,0,1,25,SPRINTER Cal State San Marcos Station,33.134771,-117.153585
27012,S_SUSCHoff_merged_8679968,1,1,25,SPRINTER Cal State San Marcos Station,33.134771,-117.153585
27013,S_SUSCHoff_merged_8679968,0,1,25,SPRINTER Nordahl Rd Station,33.131112,-117.124154
27013,S_SUSCHoff_merged_8679968,1,1,25,SPRINTER Nordahl Rd Station,33.131112,-117.124154
27014,S_SUSCHoff_merged_8679968,0,1,25,SPRINTER Escondido Transit Center,33.118419,-117.09216
27014,S_SUSCHoff_merged_8679968,1,1,25,SPRINTER Escondido Transit Center,33.118419,-117.09216
27000,S_SUSCHoff_merged_8680001,0,1,24,SPRINTER Oceanside Transit Center,33.190875,-117.37835
27000,S_SUSCHoff_merged_8680001,1,1,25,SPRINTER Oceanside Transit Center,33.190875,-117.37835
27001,S_SUSCHoff_merged_8680001,0,1,24,SPRINTER Coast Hwy Station,33.181866,-117.36835
27001,S_SUSCHoff_merged_8680001,1,1,25,SPRINTER Coast Hwy Station,33.181866,-117.36835
27002,S_SUSCHoff_merged_8680001,0,1,24,SPRINTER Crouch St Station,33.194612,-117.353514
27002,S_SUSCHoff_merged_8680001,1,1,25,SPRINTER Crouch St Station,33.194612,-117.353514
27003,S_SUSCHoff_merged_8680001,0,1,24,SPRINTER El Camino Real Station,33.199656,-117.332478
27003,S_SUSCHoff_merged_8680001,1,1,25,SPRINTER El Camino Real Station,33.199656,-117.332478
27004,S_SUSCHoff_merged_8680001,0,1,24,SPRINTER Rancho del Oro Station,33.201544,-117.311231
27004,S_SUSCHoff_merged_8680001,1,1,25,SPRINTER Rancho del Oro Station,33.201544,-117.311231
27005,S_SUSCHoff_merged_8680001,0,1,24,SPRINTER College Blvd Station,33.204546,-117.288143
27005,S_SUSCHoff_merged_8680001,1,1,25,SPRINTER College Blvd Station,33.204546,-117.288143
27006,S_SUSCHoff_merged_8680001,0,1,24,SPRINTER Melrose Dr Station,33.219553,-117.259087
27006,S_SUSCHoff_merged_8680001,1,1,25,SPRINTER Melrose Dr Station,33.219553,-117.259087
27007,S_SUSCHoff_merged_8680001,0,1,25,SPRINTER Vista Transit Center,33.202788,-117.244731
27007,S_SUSCHoff_merged_8680001,1,1,25,SPRINTER Vista Transit Center,33.202788,-117.244731
27008,S_SUSCHoff_merged_8680001,0,1,25,SPRINTER Escondido Ave Station,33.190535,-117.237476
27008,S_SUSCHoff_merged_8680001,1,1,25,SPRINTER Escondido Ave Station,33.190535,-117.237476
27009,S_SUSCHoff_merged_8680001,0,1,25,SPRINTER Buena Creek Station,33.1735,-117.207393
27009,S_SUSCHoff_merged_8680001,1,1,25,SPRINTER Buena Creek Station,33.1735,-117.207393
27010,S_SUSCHoff_merged_8680001,0,1,25,SPRINTER Palomar College Station,33.146953,-117.185314
27010,S_SUSCHoff_merged_8680001,1,1,25,SPRINTER Palomar College Station,33.146953,-117.185314
27011,S_SUSCHoff_merged_8680001,0,1,25,SPRINTER San Marcos Civic Center Station,33.141956,-117.16067
27011,S_SUSCHoff_merged_8680001,1,1,25,SPRINTER San Marcos Civic Center Station,33.141956,-117.16067
27012,S_SUSCHoff_merged_8680001,0,1,25,SPRINTER Cal State San Marcos Station,33.134771,-117.153585
27012,S_SUSCHoff_merged_8680001,1,1,25,SPRINTER Cal State San Marcos Station,33.134771,-117.153585
27013,S_SUSCHoff_merged_8680001,0,1,25,SPRINTER Nordahl Rd Station,33.131112,-117.124154
27013,S_SUSCHoff_merged_8680001,1,1,25,SPRINTER Nordahl Rd Station,33.131112,-117.124154
27014,S_SUSCHoff_merged_8680001,0,1,25,SPRINTER Escondido Transit Center,33.118419,-117.09216
27014,S_SUSCHoff_merged_8680001,1,1,25,SPRINTER Escondido Transit Center,33.118419,-117.09216
27000,S_WDSCHoff_merged_8679947,0,1,34,SPRINTER Oceanside Transit Center,33.190875,-117.37835
27000,S_WDSCHoff_merged_8679947,1,1,34,SPRINTER Oceanside Transit Center,33.190875,-117.37835
27001,S_WDSCHoff_merged_8679947,0,1,34,SPRINTER Coast Hwy Station,33.181866,-117.36835
27001,S_WDSCHoff_merged_8679947,1,1,34,SPRINTER Coast Hwy Station,33.181866,-117.36835
27002,S_WDSCHoff_merged_8679947,0,1,34,SPRINTER Crouch St Station,33.194612,-117.353514
27002,S_WDSCHoff_merged_8679947,1,1,34,SPRINTER Crouch St Station,33.194612,-117.353514
27003,S_WDSCHoff_merged_8679947,0,1,34,SPRINTER El Camino Real Station,33.199656,-117.332478
27003,S_WDSCHoff_merged_8679947,1,1,34,SPRINTER El Camino Real Station,33.199656,-117.332478
27004,S_WDSCHoff_merged_8679947,0,1,34,SPRINTER Rancho del Oro Station,33.201544,-117.311231
27004,S_WDSCHoff_merged_8679947,1,1,34,SPRINTER Rancho del Oro Station,33.201544,-117.311231
27005,S_WDSCHoff_merged_8679947,0,1,34,SPRINTER College Blvd Station,33.204546,-117.288143
27005,S_WDSCHoff_merged_8679947,1,1,34,SPRINTER College Blvd Station,33.204546,-117.288143
27006,S_WDSCHoff_merged_8679947,0,1,34,SPRINTER Melrose Dr Station,33.219553,-117.259087
27006,S_WDSCHoff_merged_8679947,1,1,34,SPRINTER Melrose Dr Station,33.219553,-117.259087
27007,S_WDSCHoff_merged_8679947,0,1,34,SPRINTER Vista Transit Center,33.202788,-117.244731
27007,S_WDSCHoff_merged_8679947,1,1,34,SPRINTER Vista Transit Center,33.202788,-117.244731
27008,S_WDSCHoff_merged_8679947,0,1,34,SPRINTER Escondido Ave Station,33.190535,-117.237476
27008,S_WDSCHoff_merged_8679947,1,1,34,SPRINTER Escondido Ave Station,33.190535,-117.237476
27009,S_WDSCHoff_merged_8679947,0,1,34,SPRINTER Buena Creek Station,33.1735,-117.207393
27009,S_WDSCHoff_merged_8679947,1,1,34,SPRINTER Buena Creek Station,33.1735,-117.207393
27010,S_WDSCHoff_merged_8679947,0,1,34,SPRINTER Palomar College Station,33.146953,-117.185314
27010,S_WDSCHoff_merged_8679947,1,1,34,SPRINTER Palomar College Station,33.146953,-117.185314
27011,S_WDSCHoff_merged_8679947,0,1,34,SPRINTER San Marcos Civic Center Station,33.141956,-117.16067
27011,S_WDSCHoff_merged_8679947,1,1,34,SPRINTER San Marcos Civic Center Station,33.141956,-117.16067
27012,S_WDSCHoff_merged_8679947,0,1,34,SPRINTER Cal State San Marcos Station,33.134771,-117.153585
27012,S_WDSCHoff_merged_8679947,1,1,34,SPRINTER Cal State San Marcos Station,33.134771,-117.153585
27013,S_WDSCHoff_merged_8679947,0,1,34,SPRINTER Nordahl Rd Station,33.131112,-117.124154
27013,S_WDSCHoff_merged_8679947,1,1,34,SPRINTER Nordahl Rd Station,33.131112,-117.124154
27014,S_WDSCHoff_merged_8679947,0,1,34,SPRINTER Escondido Transit Center,33.118419,-117.09216
27014,S_WDSCHoff_merged_8679947,1,1,34,SPRINTER Escondido Transit Center,33.118419,-117.09216
27000,S_WDSCHoff_merged_8679980,0,1,34,SPRINTER Oceanside Transit Center,33.190875,-117.37835
27000,S_WDSCHoff_merged_8679980,1,1,34,SPRINTER Oceanside Transit Center,33.190875,-117.37835
27001,S_WDSCHoff_merged_8679980,0,1,34,SPRINTER Coast Hwy Station,33.181866,-117.36835
27001,S_WDSCHoff_merged_8679980,1,1,34,SPRINTER Coast Hwy Station,33.181866,-117.36835
27002,S_WDSCHoff_merged_8679980,0,1,34,SPRINTER Crouch St Station,33.194612,-117.353514
27002,S_WDSCHoff_merged_8679980,1,1,34,SPRINTER Crouch St Station,33.194612,-117.353514
27003,S_WDSCHoff_merged_8679980,0,1,34,SPRINTER El Camino Real Station,33.199656,-117.332478
27003,S_WDSCHoff_merged_8679980,1,1,34,SPRINTER El Camino Real Station,33.199656,-117.332478
27004,S_WDSCHoff_merged_8679980,0,1,34,SPRINTER Rancho del Oro Station,33.201544,-117.311231
27004,S_WDSCHoff_merged_8679980,1,1,34,SPRINTER Rancho del Oro Station,33.201544,-117.311231
27005,S_WDSCHoff_merged_8679980,0,1,34,SPRINTER College Blvd Station,33.204546,-117.288143
27005,S_WDSCHoff_merged_8679980,1,1,34,SPRINTER College Blvd Station,33.204546,-117.288143
27006,S_WDSCHoff_merged_8679980,0,1,34,SPRINTER Melrose Dr Station,33.219553,-117.259087
27006,S_WDSCHoff_merged_8679980,1,1,34,SPRINTER Melrose Dr Station,33.219553,-117.259087
27007,S_WDSCHoff_merged_8679980,0,1,34,SPRINTER Vista Transit Center,33.202788,-117.244731
27007,S_WDSCHoff_merged_8679980,1,1,34,SPRINTER Vista Transit Center,33.202788,-117.244731
27008,S_WDSCHoff_merged_8679980,0,1,34,SPRINTER Escondido Ave Station,33.190535,-117.237476
27008,S_WDSCHoff_merged_8679980,1,1,34,SPRINTER Escondido Ave Station,33.190535,-117.237476
27009,S_WDSCHoff_merged_8679980,0,1,34,SPRINTER Buena Creek Station,33.1735,-117.207393
27009,S_WDSCHoff_merged_8679980,1,1,34,SPRINTER Buena Creek Station,33.1735,-117.207393
27010,S_WDSCHoff_merged_8679980,0,1,34,SPRINTER Palomar College Station,33.146953,-117.185314
27010,S_WDSCHoff_merged_8679980,1,1,34,SPRINTER Palomar College Station,33.146953,-117.185314
27011,S_WDSCHoff_merged_8679980,0,1,34,SPRINTER San Marcos Civic Center Station,33.141956,-117.16067
27011,S_WDSCHoff_merged_8679980,1,1,34,SPRINTER San Marcos Civic Center Station,33.141956,-117.16067
27012,S_WDSCHoff_merged_8679980,0,1,34,SPRINTER Cal State San Marcos Station,33.134771,-117.153585
27012,S_WDSCHoff_merged_8679980,1,1,34,SPRINTER Cal State San Marcos Station,33.134771,-117.153585
27013,S_WDSCHoff_merged_8679980,0,1,34,SPRINTER Nordahl Rd Station,33.131112,-117.124154
27013,S_WDSCHoff_merged_8679980,1,1,34,SPRINTER Nordahl Rd Station,33.131112,-117.124154
27014,S_WDSCHoff_merged_8679980,0,1,34,SPRINTER Escondido Transit Center,33.118419,-117.09216
27014,S_WDSCHoff_merged_8679980,1,1,34,SPRINTER Escondido Transit Center,33.118419,-117.09216
