stop_id,service_id,direction_id,numroutes,TripsServingStop,stop_name,stop_lat,stop_lon
10,SA,0,1,39,ANAHEIM-VERMONT,33.82344,-117.90981
1000,SA,0,1,16,KRAEMER-BIRCH,33.9162,-117.86367
1002,SA,0,1,16,KRAEMER-BIRCH HILLS MALL,33.91356,-117.86403
1003,SA,0,1,16,KRAEMER-IMPERIAL,33.91036,-117.86397
1004,SA,0,1,16,KRAEMER-BUTTONWOOD,33.90801,-117.86398
101,SA,0,1,15,BALL-BEACH,33.81751,-117.99429
1010,SA,0,1,37,STATE COLLEGE-BREA MALL,33.9136,-117.88354
1011,SA,0,3,136,STATE COLLEGE-BREA MALL,33.91492,-117.88289
1017,SA,0,3,64,STATE COLLEGE-BIRCH,33.91769,-117.88309
1018,SA,0,1,35,STATE COLLEGE-BREA MALL,33.91357,-117.88377
1019,SA,0,1,35,STATE COLLEGE-BREA MALL,33.91295,-117.88561
102,SA,0,1,15,BALL-HALLIDAY,33.8175,-117.9965
103,SA,0,1,15,BALL-WESTERN,33.81744,-118.00171
1030,SA,0,4,171,RING-BREA MALL,33.91554,-117.88381
1031,SA,0,1,28,183RD-LOS CERRITOS CENTER (NEARSIDE),33.86552,-118.09552
1032,SA,0,1,14,183RD-LOS CERRITOS CENTER (FARSIDE),33.86553,-118.0943
1033,SA,0,1,19,DEL AMO-MAMMOTH,33.84638,-118.05782
1034,SA,0,1,19,DEL AMO-BLOOMFIELD,33.84625,-118.06358
1035,SA,0,1,19,DEL AMO-CLARETTA,33.84628,-118.06795
1036,SA,0,1,19,DEL AMO-NORWALK,33.84628,-118.07235
1038,SA,0,1,19,DEL AMO-CABRILLO,33.84626,-118.08001
1039,SA,0,1,14,GRIDLEY-SOUTH,33.8586,-118.09073
104,SA,0,1,15,BALL-WESTVALE,33.8174,-118.00736
1040,SA,0,1,14,GRIDLEY-187TH,33.86091,-118.09106
1046,SA,0,1,14,SOUTH-GRIDLEY,33.85827,-118.09019
1047,SA,0,1,14,SOUTH-PIONEER,33.85834,-118.08172
1048,SA,0,1,14,SOUTH-ELY,33.85843,-118.06875
1049,SA,0,1,14,SOUTH-STEFANI,33.85845,-118.06592
105,SA,0,1,15,BALL-KNOTT,33.81735,-118.01176
1050,SA,0,1,14,SOUTH-BLOOMFIELD,33.85846,-118.06322
1051,SA,0,1,14,SOUTH-ALPHINGTON,33.85848,-118.05831
1052,SA,0,1,14,SOUTH-VICKIE,33.85854,-118.0523
1053,SA,0,1,14,SOUTH-PIRES,33.85854,-118.04959
1054,SA,0,1,14,SOUTH-CARMENITA,33.85855,-118.0452
1055,SA,0,1,14,SOUTH-CARMENITA,33.85879,-118.04647
1056,SA,0,1,14,SOUTH-PIRES,33.85878,-118.05026
1057,SA,0,1,14,SOUTH-VICKIE,33.85875,-118.05314
1058,SA,0,1,14,SOUTH-ALFRED,33.8587,-118.05956
1059,SA,0,1,14,SOUTH-BLOOMFIELD,33.85871,-118.06391
106,SA,0,1,48,BEACH-BALL,33.81813,-117.9931
1060,SA,0,1,14,SOUTH-STEFANI,33.85866,-118.0664
1061,SA,0,1,14,SOUTH-ELY,33.85867,-118.06914
1062,SA,0,1,14,SOUTH-PIONEER,33.85853,-118.08292
1063,SA,0,1,14,SOUTH-GRIDLEY,33.8585,-118.08783
1067,SA,0,1,33,17TH-PLACENTIA,33.63604,-117.93098
1068,SA,0,1,33,17TH-POMONA,33.63607,-117.92709
1069,SA,0,1,33,17TH-SUPERIOR,33.63603,-117.92327
107,SA,0,1,48,BEACH-ROME,33.82059,-117.99315
1070,SA,0,1,33,17TH-NEWPORT,33.63634,-117.92142
1071,SA,0,1,33,17TH-ORANGE,33.6349,-117.91821
1072,SA,0,1,33,17TH-SANTA ANA,33.63283,-117.91523
1073,SA,0,1,33,17TH-TUSTIN,33.6305,-117.91187
1074,SA,0,1,33,17TH-IRVINE,33.62864,-117.90922
1075,SA,0,1,32,17TH-IRVINE,33.62893,-117.90911
1076,SA,0,1,32,17TH-TUSTIN,33.63064,-117.91174
1077,SA,0,1,32,17TH-SANTA ANA,33.63336,-117.91565
1078,SA,0,1,32,17TH-ORANGE,33.63537,-117.91846
1079,SA,0,1,32,17TH-NEWPORT,33.63658,-117.92097
108,SA,0,1,48,BEACH-ORANGE,33.82545,-117.99317
1080,SA,0,1,32,17TH-SUPERIOR,33.63631,-117.92393
1081,SA,0,1,32,17TH-POMONA,33.63629,-117.92716
109,SA,0,1,48,BEACH-YOUTH CENTER,33.829,-117.99323
1090,SA,0,1,32,19TH-POMONA,33.64329,-117.92709
1091,SA,0,1,32,19TH-ANAHEIM,33.64331,-117.92285
1096,SA,0,1,10,19TH-NEWPORT,33.64356,-117.91692
1097,SA,0,1,33,19TH-HARBOR,33.64355,-117.92002
1099,SA,0,1,33,19TH-MEYERS,33.6435,-117.92512
11,SA,0,1,39,ANAHEIM-SOUTH,33.8266,-117.91086
110,SA,0,2,62,BEACH-LINCOLN,33.83231,-117.99329
1102,SA,0,1,11,ADAMS-ALBATROSS,33.67234,-117.94011
1103,SA,0,1,11,ADAMS-PLACENTIA,33.67239,-117.93483
1104,SA,0,1,11,ADAMS-MESA VERDE,33.67276,-117.92479
1105,SA,0,1,11,ADAMS-ROYAL PALM,33.67317,-117.92241
1106,SA,0,1,11,ADAMS-HARBOR,33.67314,-117.91875
1107,SA,0,1,11,ADAMS-PINECREEK,33.67477,-117.91391
1108,SA,0,1,10,ADAMS-FAIRVIEW,33.6758,-117.90882
1109,SA,0,1,10,ADAMS-ENT 1250 OUR TOWN,33.67579,-117.911
111,SA,0,1,48,BEACH-LINCOLN,33.83154,-117.99372
1110,SA,0,1,10,ADAMS-PINECREEK,33.67487,-117.91432
1111,SA,0,1,10,ADAMS-HARBOR,33.67344,-117.91879
1112,SA,0,1,10,ADAMS-ROYAL PALM,33.67338,-117.92253
1113,SA,0,1,10,ADAMS-MESA VERDE,33.673,-117.925
1114,SA,0,1,10,ADAMS-MESA VERDE,33.67265,-117.936
1115,SA,0,1,10,ADAMS-SHANTAR,33.67262,-117.94019
1117,SA,0,1,49,ANTON-SAKIOKA,33.69026,-117.87826
1119,SA,0,1,24,ANTON-PARK CENTER,33.69027,-117.8836
112,SA,0,1,48,BEACH-YOUTH CENTER,33.82905,-117.9935
1122,SA,0,1,34,BAKER-COOLIDGE,33.68001,-117.90375
1123,SA,0,1,34,BAKER-MENDOZA,33.68,-117.90065
1124,SA,0,1,34,BAKER-HYDE,33.67997,-117.896
1125,SA,0,1,34,BAKER-BEAR,33.67997,-117.89392
1126,SA,0,1,34,BAKER-CENTURY,33.67998,-117.88981
1132,SA,0,1,33,BAKER-RANDOLPH,33.68022,-117.88759
1133,SA,0,1,33,BAKER-JEFFREY,33.6802,-117.89073
1134,SA,0,1,33,BAKER-BEAR,33.6802,-117.89524
1135,SA,0,1,33,BAKER-POWELL,33.68022,-117.89731
1136,SA,0,1,33,BAKER-GRANT,33.68022,-117.90068
1137,SA,0,1,33,BAKER-FAIRVIEW,33.68023,-117.90555
1138,SA,0,2,56,BRISTOL-RED HILL,33.6671,-117.8825
1139,SA,0,1,37,BRISTOL-RANDOLPH,33.67676,-117.88734
114,SA,0,1,48,BEACH-ORANGE,33.82434,-117.99354
1140,SA,0,2,71,BRISTOL-BAKER,33.68102,-117.88553
1141,SA,0,2,71,BRISTOL-PAULARINO,33.68265,-117.88545
1142,SA,0,2,95,BRISTOL-ANTON,33.69112,-117.88535
1143,SA,0,2,70,BRISTOL-TOWN CENTER,33.69206,-117.8857
1144,SA,0,2,70,BRISTOL-PAULARINO,33.68203,-117.88585
1145,SA,0,1,33,BRISTOL-BAKER,33.68046,-117.88593
1146,SA,0,1,37,BRISTOL-BAKER,33.67915,-117.88594
1147,SA,0,1,37,BRISTOL-RANDOLPH,33.67676,-117.88774
1148,SA,0,1,37,BRISTOL-BEAR,33.67441,-117.8893
115,SA,0,1,48,BEACH-STONYBROOK,33.82164,-117.99339
1155,SA,0,1,11,FAIR-FAIRVIEW,33.66372,-117.90633
1156,SA,0,1,11,FAIR-ENT VANGUARD,33.66375,-117.90166
116,SA,0,1,48,BEACH-BALL,33.81698,-117.9935
1163,SA,0,1,21,FAIR-ENT 88 OC FAIRGROUNDS,33.66398,-117.90308
1168,SA,0,2,71,FAIRVIEW-WILSON,33.65681,-117.90756
1170,SA,0,2,71,FAIRVIEW-YORKTOWN,33.66097,-117.9076
1171,SA,0,3,81,FAIRVIEW-FAIR,33.66425,-117.90752
1172,SA,0,3,81,FAIRVIEW-MERRIMAC,33.66678,-117.90754
1173,SA,0,3,83,FAIRVIEW-ARLINGTON,33.67026,-117.9076
1174,SA,0,2,73,FAIRVIEW-EL CAMINO,33.67541,-117.90767
1175,SA,0,2,73,FAIRVIEW-BAKER,33.67905,-117.90761
1176,SA,0,1,39,FAIRVIEW-PAULARINO,33.68276,-117.90771
1178,SA,0,1,39,FAIRVIEW-SOUTH COAST,33.69175,-117.90765
1179,SA,0,1,39,FAIRVIEW-SUNFLOWER,33.69532,-117.90792
1180,SA,0,1,39,FAIRVIEW-SOUTH COAST,33.69313,-117.90796
1181,SA,0,1,39,FAIRVIEW-SOUTH COAST,33.6916,-117.90794
1183,SA,0,1,39,FAIRVIEW-PAULARINO,33.68268,-117.90797
1184,SA,0,2,72,FAIRVIEW-BAKER,33.68004,-117.90792
1185,SA,0,3,83,FAIRVIEW-ADAMS,33.67509,-117.908
1186,SA,0,3,83,FAIRVIEW-ARLINGTON,33.66996,-117.90796
1187,SA,0,3,83,FAIRVIEW-MERRIMAC,33.66784,-117.90794
1188,SA,0,2,72,FAIRVIEW-FAIR,33.66341,-117.90784
1189,SA,0,2,72,FAIRVIEW-LOYOLA,33.66071,-117.90785
1192,SA,0,2,86,HARBOR-BERNARD,33.64499,-117.91889
1194,SA,0,2,86,HARBOR-BAY,33.64933,-117.91891
1195,SA,0,3,112,HARBOR-VICTORIA,33.65349,-117.91897
1196,SA,0,1,54,HARBOR-WILSON,33.65749,-117.91898
1197,SA,0,1,54,HARBOR-ENT 2300 HARBOR CENTER,33.66015,-117.91902
1198,SA,0,1,54,HARBOR-FAIR,33.66294,-117.91901
1199,SA,0,1,54,HARBOR-MERRIMAC,33.66817,-117.91906
12,SA,0,1,39,ANAHEIM-WATER,33.82879,-117.91157
120,SA,0,1,19,BROOKHURST-KATELLA,33.80363,-117.95875
1200,SA,0,1,54,HARBOR-PETERSON,33.67003,-117.91908
1201,SA,0,1,54,HARBOR-ADAMS,33.67284,-117.91911
1202,SA,0,1,54,HARBOR-PONDEROSA,33.67592,-117.91914
1203,SA,0,1,54,HARBOR-BAKER,33.67973,-117.91912
1204,SA,0,1,54,HARBOR-NUTMEG,33.68169,-117.91914
1205,SA,0,1,54,HARBOR-GISLER,33.68573,-117.91923
1206,SA,0,1,54,HARBOR-SOUTH COAST,33.69233,-117.91926
1207,SA,0,1,54,HARBOR-MACARTHUR,33.7016,-117.91976
1208,SA,0,1,54,HARBOR-SCENIC,33.69815,-117.91974
1209,SA,0,1,54,HARBOR-SUNFLOWER,33.69601,-117.91972
121,SA,0,1,19,BROOKHURST-CRESTWOOD,33.80667,-117.95875
1210,SA,0,1,54,HARBOR-LAW COURT,33.69294,-117.91965
1211,SA,0,1,54,HARBOR-GISLER,33.68582,-117.91962
1212,SA,0,1,54,HARBOR-NUTMEG,33.68163,-117.91958
1213,SA,0,1,54,HARBOR-BAKER,33.67884,-117.91953
1214,SA,0,1,54,HARBOR-PONDEROSA,33.67542,-117.91942
1215,SA,0,1,54,HARBOR-ADAMS,33.67244,-117.9195
1216,SA,0,1,54,HARBOR-MESA VERDE EAST,33.67066,-117.91944
1217,SA,0,1,54,HARBOR-MERRIMAC,33.66779,-117.91944
1218,SA,0,1,54,HARBOR-FAIR,33.66262,-117.91942
1219,SA,0,1,54,HARBOR-ENT 2300 HARBOR CENTER,33.65932,-117.91939
122,SA,0,1,19,BROOKHURST-CERRITOS,33.81124,-117.95877
1220,SA,0,3,112,HARBOR-WILSON,33.65541,-117.9193
1221,SA,0,2,87,HARBOR-VICTORIA,33.65315,-117.91927
1222,SA,0,2,87,HARBOR-BAY,33.64864,-117.91921
1223,SA,0,2,87,HARBOR-FORD,33.64609,-117.91921
1224,SA,0,1,54,HARBOR-19TH,33.64282,-117.91915
123,SA,0,1,19,BROOKHURST-PALAIS,33.81427,-117.95879
1233,SA,0,1,21,MAIN-SUNFLOWER,33.69389,-117.86846
1234,SA,0,1,19,NEWPORT-17TH,33.637,-117.92175
1236,SA,0,1,19,NEWPORT-BROADWAY,33.64204,-117.91762
1237,SA,0,1,19,NEWPORT-19TH,33.64396,-117.91576
1239,SA,0,1,19,NEWPORT-BAY,33.64718,-117.91252
124,SA,0,1,19,BROOKHURST-BALL,33.81879,-117.95879
1240,SA,0,1,19,NEWPORT-21ST,33.64945,-117.91027
1241,SA,0,1,19,NEWPORT-22ND,33.65118,-117.90859
1242,SA,0,1,19,NEWPORT-23RD,33.65429,-117.90549
1243,SA,0,1,19,NEWPORT-WILSON,33.6565,-117.9033
1244,SA,0,2,30,NEWPORT-MONTE VISTA,33.6604,-117.89942
1245,SA,0,2,30,NEWPORT-FAIR,33.66312,-117.89862
1246,SA,0,1,19,NEWPORT-VANGUARD,33.65755,-117.90411
1247,SA,0,1,19,NEWPORT-FAIRVIEW,33.6531,-117.90806
1248,SA,0,1,19,NEWPORT-VICTORIA,33.65157,-117.90962
1249,SA,0,1,19,NEWPORT-BAY,33.64891,-117.91224
125,SA,0,1,19,BROOKHURST-BROOKMORE,33.82053,-117.95878
1250,SA,0,1,19,NEWPORT-FORD,33.64547,-117.91534
1251,SA,0,1,19,NEWPORT-19TH,33.64267,-117.91744
1252,SA,0,2,68,NEWPORT-18TH,33.64026,-117.9199
126,SA,0,1,19,BROOKHURST-NIOBE,33.82295,-117.9588
127,SA,0,1,19,BROOKHURST-ORANGE,33.82556,-117.95878
128,SA,0,1,19,BROOKHURST-BROADWAY,33.82842,-117.95881
1285,SA,0,1,98,PARK-19TH,33.64187,-117.92106
129,SA,0,1,19,BROOKHURST-LINCOLN,33.83316,-117.95883
1290,SA,0,1,39,PLACENTIA-16TH,33.63282,-117.93178
1291,SA,0,2,71,PLACENTIA-17TH,33.63679,-117.93182
1292,SA,0,2,71,PLACENTIA-18TH,33.63955,-117.93187
1293,SA,0,2,71,PLACENTIA-19TH,33.64241,-117.93189
1294,SA,0,1,39,PLACENTIA-20TH,33.64683,-117.93194
1295,SA,0,1,39,PLACENTIA-VICTORIA,33.65181,-117.93197
1296,SA,0,1,14,PLACENTIA-WILSON,33.65501,-117.93227
1297,SA,0,1,39,PLACENTIA-VICTORIA,33.65143,-117.9322
1298,SA,0,1,39,PLACENTIA-20TH,33.64651,-117.93216
1299,SA,0,2,72,PLACENTIA-19TH,33.6426,-117.9321
13,SA,0,1,39,ANAHEIM-SANTA ANA,33.83152,-117.91247
130,SA,0,1,19,BROOKHURST-CATALINA,33.83653,-117.95888
1300,SA,0,2,72,PLACENTIA-18TH,33.63936,-117.93207
1301,SA,0,1,39,PLACENTIA-17TH,33.6354,-117.93202
1302,SA,0,1,39,PLACENTIA-16TH,33.63215,-117.93198
131,SA,0,1,19,BROOKHURST-CRESCENT,33.83905,-117.95889
1314,SA,0,1,19,RED HILL-BRISTOL,33.66685,-117.88165
1315,SA,0,1,19,RED HILL-CLINTON,33.6688,-117.87969
1316,SA,0,1,19,RED HILL-KALMUS,33.67271,-117.87839
1317,SA,0,1,19,RED HILL-FISCHER,33.67491,-117.87839
1318,SA,0,1,19,RED HILL-BAKER,33.67811,-117.87559
1319,SA,0,1,19,RED HILL-PAULARINO,33.67956,-117.87414
132,SA,0,1,19,BROOKHURST-LA PALMA,33.84795,-117.95903
1320,SA,0,1,19,RED HILL-MCCORMICK,33.68162,-117.87209
1321,SA,0,1,19,RED HILL-AIRPORT LOOP,33.68483,-117.86892
1322,SA,0,1,19,RED HILL-PULLMAN,33.68429,-117.86979
1323,SA,0,1,19,RED HILL-MCCORMICK,33.68112,-117.87293
1324,SA,0,1,19,RED HILL-PAULARINO,33.67962,-117.87449
1325,SA,0,1,19,RED HILL-BAKER,33.67762,-117.87647
1326,SA,0,1,19,RED HILL-FISCHER,33.67508,-117.87863
1327,SA,0,1,19,RED HILL-KALMUS,33.67156,-117.87864
1328,SA,0,1,19,RED HILL-CLINTON,33.66875,-117.88012
1334,SA,0,1,15,SUNFLOWER-FAIRVIEW,33.69566,-117.90695
1335,SA,0,1,15,SUNFLOWER-WIMBLEDON,33.69617,-117.90369
1336,SA,0,1,15,SUNFLOWER-SMALLEY,33.69623,-117.90038
1337,SA,0,1,15,SUNFLOWER-FUCHSIA,33.69624,-117.89799
1338,SA,0,1,15,SUNFLOWER-BEAR,33.69405,-117.8928
1340,SA,0,2,39,SUNFLOWER-PARK CENTER,33.69401,-117.88384
1341,SA,0,2,39,SUNFLOWER-AVE OF THE ARTS,33.69403,-117.8806
1351,SA,0,1,26,VICTORIA-PLACENTIA,33.65236,-117.93067
1352,SA,0,1,26,VICTORIA-POMONA,33.65239,-117.9271
1353,SA,0,1,26,VICTORIA-MAPLE,33.65242,-117.9231
136,SA,0,1,19,BROOKHURST-LA PALMA,33.84809,-117.95937
1360,SA,0,1,25,VICTORIA-HARBOR,33.65268,-117.91967
1361,SA,0,1,25,VICTORIA-MAPLE,33.65264,-117.92212
1362,SA,0,1,25,VICTORIA-POMONA,33.6526,-117.92811
1367,SA,0,1,13,WILSON-PLACENTIA,33.65597,-117.9316
1368,SA,0,1,13,WILSON-POMONA,33.65602,-117.92857
1369,SA,0,1,13,WILSON-ANAHEIM,33.65607,-117.92339
137,SA,0,1,19,BROOKHURST-CRESCENT,33.83921,-117.95926
1370,SA,0,1,13,WILSON-HARBOR,33.65605,-117.92074
1371,SA,0,2,71,WILSON-HARBOR,33.65608,-117.91792
1373,SA,0,2,71,WILSON-COLGATE,33.65619,-117.91127
1375,SA,0,2,72,WILSON-FORDHAM,33.65631,-117.9145
1376,SA,0,2,72,WILSON-COLLEGE,33.65634,-117.91678
1377,SA,0,1,14,WILSON-HARBOR,33.6563,-117.91989
1378,SA,0,1,14,WILSON-MAPLE,33.65627,-117.9228
1379,SA,0,1,14,WILSON-MEYER,33.65625,-117.92478
138,SA,0,1,19,BROOKHURST-WOODLEY,33.83561,-117.95921
1380,SA,0,1,14,WILSON-POMONA,33.65622,-117.92818
1385,SA,0,1,16,BALL-BLOOMFIELD,33.81746,-118.06267
1386,SA,0,1,16,BALL-DELANO,33.81744,-118.05774
1387,SA,0,1,16,BALL-DENNI,33.81675,-118.05405
1388,SA,0,1,16,BALL-LARWIN,33.81674,-118.04809
1389,SA,0,1,16,BALL-MOODY,33.81677,-118.04503
139,SA,0,1,19,BROOKHURST-LINCOLN,33.83155,-117.95917
1390,SA,0,1,16,BALL-SAINT CHARLES,33.81681,-118.04114
1391,SA,0,1,16,BALL-WALKER,33.81687,-118.03649
1392,SA,0,1,16,BALL-MYRA,33.81696,-118.03157
1393,SA,0,1,15,BALL-HOLDER,33.81726,-118.02013
1394,SA,0,1,15,BALL-JUANITA,33.81722,-118.02452
1395,SA,0,1,15,BALL-VALLEY VIEW,33.81718,-118.02914
1396,SA,0,1,15,BALL-CABRILLO,33.81714,-118.03275
1397,SA,0,1,15,BALL-WALKER,33.8171,-118.0372
1398,SA,0,1,15,BALL-GRINDLAY,33.81706,-118.04147
1399,SA,0,1,15,BALL-MOODY,33.81703,-118.04624
14,SA,0,1,39,ANAHEIM-BROADWAY,33.83309,-117.9129
140,SA,0,1,19,BROOKHURST-ORANGE,33.82463,-117.95914
1400,SA,0,1,15,BALL-LARWIN,33.81698,-118.04886
1401,SA,0,1,15,BALL-SORRENTO,33.81696,-118.05245
1402,SA,0,1,15,BALL-DENNI,33.8171,-118.05502
1403,SA,0,1,15,BALL-VIA LARGO,33.81768,-118.0591
141,SA,0,1,19,BROOKHURST-STONEYBROOK,33.82226,-117.95915
1412,SA,0,1,21,KATELLA-WARLAND,33.8028,-118.03388
1413,SA,0,1,21,KATELLA-VALLEY VIEW,33.80272,-118.02771
1414,SA,0,1,21,KATELLA-HOPE,33.80276,-118.02362
1415,SA,0,1,21,KATELLA-HOLDER,33.80274,-118.01933
1416,SA,0,1,21,KATELLA-MERIDIAN,33.80272,-118.014
1417,SA,0,1,21,KATELLA-KNOTT,33.80302,-118.01167
1418,SA,0,1,21,KATELLA-MERIDIAN,33.80301,-118.01466
1419,SA,0,1,21,KATELLA-HOLDER,33.80305,-118.02032
142,SA,0,1,19,BROOKHURST-COLCHESTER,33.82052,-117.95913
1420,SA,0,1,21,KATELLA-HOPE,33.80307,-118.02459
1421,SA,0,1,21,KATELLA-VALLEY VIEW,33.80312,-118.02899
1422,SA,0,1,21,KATELLA-DOUGLAS,33.80309,-118.03399
1423,SA,0,1,21,KATELLA-WALKER,33.80311,-118.03776
1424,SA,0,1,21,KATELLA-WINNERS CIRCLE,33.80313,-118.04044
1425,SA,0,1,21,KATELLA-SIBONEY,33.80313,-118.04328
1426,SA,0,1,21,KATELLA-MIDWAY,33.80315,-118.04975
1427,SA,0,1,12,KNOTT-CERRITOS,33.80957,-118.01087
1428,SA,0,1,12,KNOTT-JONATHON,33.8064,-118.01084
1429,SA,0,1,12,KNOTT-KATELLA,33.80222,-118.01121
143,SA,0,1,19,BROOKHURST-BALL,33.81734,-117.95914
1430,SA,0,1,12,KNOTT-LONGFORD,33.79959,-118.01126
1431,SA,0,1,12,KNOTT-ORANGEWOOD,33.79525,-118.01125
1432,SA,0,1,12,KNOTT-LEILANI,33.79339,-118.01125
1433,SA,0,1,30,LINCOLN-BLOOMFIELD,33.83157,-118.06077
1434,SA,0,1,30,LINCOLN-LINCOLN PLAZA,33.83154,-118.05741
1435,SA,0,1,30,LINCOLN-DENNI,33.83151,-118.05493
1436,SA,0,1,30,LINCOLN-SUMNER,33.83163,-118.05064
1437,SA,0,1,30,LINCOLN-MOODY,33.83159,-118.04507
1438,SA,0,1,30,LINCOLN-GRINDLAY,33.8316,-118.04208
1439,SA,0,1,30,LINCOLN-WALKER,33.8316,-118.03684
144,SA,0,1,19,BROOKHURST-CERRITOS,33.81019,-117.95905
1440,SA,0,1,30,LINCOLN-HOME DEPOT,33.83168,-118.03127
1441,SA,0,1,30,LINCOLN-LOS ALTOS,33.83184,-118.03248
1442,SA,0,1,30,LINCOLN-WALKER,33.83179,-118.03771
1443,SA,0,1,30,LINCOLN-GRINDLAY,33.83184,-118.04122
1444,SA,0,1,30,LINCOLN-MOODY,33.8318,-118.04629
1445,SA,0,1,30,LINCOLN-SUMNER,33.83177,-118.05016
1446,SA,0,1,30,LINCOLN-DENNI,33.83179,-118.05532
1448,SA,0,1,30,LINCOLN-BLOOMFIELD,33.83169,-118.06121
146,SA,0,1,19,BROOKHURST-CRESTWOOD,33.80599,-117.95909
1485,SA,0,1,13,CAMINO CAPISTRANO-VIA VERDE,33.46212,-117.67519
1486,SA,0,1,13,CAMINO CAPISTRANO-VIA CALIFORNIA,33.46045,-117.67332
1487,SA,0,1,13,CAMINO CAPISTRANO-VIA CATALINA,33.45929,-117.66993
1488,SA,0,1,13,CAMINO CAPISTRANO-PALISADE,33.45876,-117.66854
1489,SA,0,1,13,CAMINO CAPISTRANO-DOHENY,33.45594,-117.66559
1490,SA,0,1,13,CAMINO CAPISTRANO-CALLE HERMOSA,33.4539,-117.66258
1491,SA,0,1,13,CAMINO CAPISTRANO-CALLE FORTUNA,33.45416,-117.66317
1492,SA,0,1,13,CAMINO CAPISTRANO-DOHENY,33.45619,-117.66544
1493,SA,0,1,13,CAMINO CAPISTRANO-PALISADE,33.45848,-117.66812
1494,SA,0,1,13,CAMINO CAPISTRANO-VIA CATALINA,33.45949,-117.67019
1495,SA,0,1,13,CAMINO CAPISTRANO-VIA CALIFORNIA,33.46077,-117.67341
1496,SA,0,1,13,CAMINO CAPISTRANO-VIA VERDE,33.46212,-117.67492
1498,SA,0,1,13,CAMINO DE ESTRELLA-AVD LAS PALMAS,33.45781,-117.65717
1499,SA,0,1,13,CAMINO DE ESTRELLA-CALLE VERANO,33.45348,-117.66084
15,SA,0,1,39,ANAHEIM-CENTER ST PROMENADE,33.83499,-117.91349
1501,SA,0,2,31,PACIFIC COAST-DEL OBISPO,33.46513,-117.68714
1503,SA,0,1,15,PACIFIC COAST-ALCAZAR,33.467,-117.69442
1504,SA,0,1,15,PACIFIC COAST-COLEGIO,33.46756,-117.69706
1505,SA,0,1,15,PACIFIC COAST-VIOLET LANTERN,33.467,-117.69985
1506,SA,0,1,15,PACIFIC COAST-AMBER LANTERN,33.46645,-117.70258
1507,SA,0,1,15,PACIFIC COAST-RUBY LANTERN,33.46592,-117.70526
1508,SA,0,1,15,PACIFIC COAST-SELVA,33.47045,-117.71286
1509,SA,0,2,24,PACIFIC COAST-NIGUEL,33.47632,-117.71676
1510,SA,0,2,24,PACIFIC COAST-MONARCH BAY PLAZA,33.48547,-117.72538
1511,SA,0,1,15,PACIFIC COAST-CROWN VALLEY,33.48735,-117.72754
1512,SA,0,1,15,PACIFIC COAST-VIA MENTONE,33.49034,-117.7311
1513,SA,0,2,24,PACIFIC COAST-MONARCH BAY,33.48651,-117.72691
1514,SA,0,2,24,PACIFIC COAST-RITZ CARLTON,33.47847,-117.71864
1515,SA,0,2,24,PACIFIC COAST-RITZ CARLTON,33.47548,-117.71661
1516,SA,0,1,15,PACIFIC COAST-SELVA,33.47001,-117.71303
1517,SA,0,3,37,PACIFIC COAST-BINNACLE LANTERN,33.46593,-117.69166
1518,SA,0,2,31,PACIFIC COAST-DANA POINT HARBOR,33.46492,-117.68725
1520,SA,0,1,9,CROWN VALLEY-SEVEN SEAS,33.48711,-117.72533
1521,SA,0,1,9,CROWN VALLEY-SEA ISLAND,33.48903,-117.7214
1522,SA,0,1,9,CROWN VALLEY-ENT 32400 THE BLUFFS,33.49257,-117.71979
1523,SA,0,1,9,CROWN VALLEY-PACIFIC ISLAND,33.49424,-117.72024
1524,SA,0,1,9,CROWN VALLEY-SEA ISLAND,33.48854,-117.72207
1525,SA,0,1,9,CROWN VALLEY-SEVEN SEAS,33.4875,-117.72552
1528,SA,0,2,22,DANA POINT HARBOR-PARK LANTERN,33.46429,-117.68856
153,SA,0,1,24,CHAPMAN-SOMERSET,33.78895,-117.9108
1530,SA,0,1,16,DEL OBISPO-COMMUNITY CENTER,33.4673,-117.68514
1531,SA,0,1,16,DEL OBISPO-QUAIL RUN,33.47079,-117.68378
1532,SA,0,1,16,DEL OBISPO-LIGHTHOUSE,33.47329,-117.68422
1533,SA,0,1,16,DEL OBISPO-STONEHILL,33.47513,-117.68486
1534,SA,0,1,16,DEL OBISPO-GOLDEN SPRING,33.47753,-117.68532
1535,SA,0,1,16,DEL OBISPO-BLUE SAIL,33.47946,-117.68525
1536,SA,0,1,16,DEL OBISPO-WESTBORNE,33.48497,-117.68414
1537,SA,0,1,16,DEL OBISPO-BLUE FIN,33.48176,-117.68524
1538,SA,0,1,16,DEL OBISPO-GOLDEN SPRING,33.47696,-117.68543
1539,SA,0,1,16,DEL OBISPO-STONEHILL,33.47541,-117.68503
1540,SA,0,1,16,DEL OBISPO-LIGHTHOUSE,33.47299,-117.68449
1541,SA,0,1,16,DEL OBISPO-VILLAGE,33.46715,-117.68552
1542,SA,0,1,15,DEL PRADO-RUBY LANTERN,33.46542,-117.70487
1543,SA,0,1,15,DEL PRADO-AMBER LANTERN,33.4654,-117.70201
1544,SA,0,1,15,DEL PRADO-VIOLET LANTERN,33.4654,-117.70003
1545,SA,0,3,37,DEL PRADO-GOLDEN LANTERN,33.46564,-117.69707
1546,SA,0,3,37,DEL PRADO-COPPER LANTERN,33.46642,-117.69429
1547,SA,0,1,13,DOHENY PARK-DOMINGO,33.46575,-117.6779
1548,SA,0,1,13,DOHENY PARK-CAMINO CAPISTRANO,33.46986,-117.67554
1550,SA,0,1,13,DOMINGO-DOHENY PARK,33.46516,-117.67738
1551,SA,0,2,43,GOLDEN LANTERN-DANA POINT HARBOR,33.46286,-117.69359
1553,SA,0,2,21,GOLDEN LANTERN-LA CRESTA,33.46869,-117.6978
1554,SA,0,2,21,GOLDEN LANTERN-LA PAZ,33.47115,-117.69773
1555,SA,0,1,12,GOLDEN LANTERN-SELVA,33.47321,-117.69769
1556,SA,0,1,12,GOLDEN LANTERN-MERIDIAN,33.4754,-117.69744
1557,SA,0,1,12,GOLDEN LANTERN-ACAPULCO,33.47968,-117.69755
1558,SA,0,1,12,GOLDEN LANTERN-OCEAN SPRAY,33.4812,-117.6976
1559,SA,0,1,12,GOLDEN LANTERN-DANA WOODS,33.48593,-117.69789
1560,SA,0,1,12,GOLDEN LANTERN-SEABROOK,33.48807,-117.69791
1561,SA,0,1,13,GOLDEN LANTERN-CAMINO DEL AVION,33.49076,-117.69774
1562,SA,0,1,13,GOLDEN LANTERN-SEABROOK,33.48767,-117.6982
1563,SA,0,1,13,GOLDEN LANTERN-DANA WOODS,33.48488,-117.6982
1564,SA,0,1,13,GOLDEN LANTERN-PRISCILLA,33.48054,-117.69791
1565,SA,0,1,13,GOLDEN LANTERN-ACAPULCO,33.47878,-117.69789
1566,SA,0,1,13,GOLDEN LANTERN-STONEHILL,33.47589,-117.69789
1567,SA,0,1,13,GOLDEN LANTERN-SELVA,33.47334,-117.69806
1568,SA,0,2,22,GOLDEN LANTERN-LA CRESTA,33.4688,-117.69811
1577,SA,0,1,9,SELVA-GARIBALDI,33.47235,-117.70849
1578,SA,0,1,9,SELVA-CHULA VISTA,33.47268,-117.70678
1579,SA,0,1,9,SELVA-GRANADA,33.47269,-117.70412
158,SA,0,1,14,DALE-LINCOLN,33.8327,-117.98467
1580,SA,0,1,9,SELVA-ROBLES,33.47269,-117.70201
1582,SA,0,1,9,SELVA-GOLDEN LANTERN,33.47268,-117.69833
1583,SA,0,1,9,SELVA-DISCOVERY,33.47293,-117.70177
1584,SA,0,1,9,SELVA-GRANADA,33.47293,-117.70425
1585,SA,0,1,9,SELVA-CHULA VISTA,33.47288,-117.70707
1586,SA,0,1,9,SELVA-GARIBALDI,33.47241,-117.7088
1587,SA,0,1,9,SELVA-PACIFIC COAST,33.47101,-117.71257
159,SA,0,1,14,DALE-CRESCENT,33.83937,-117.9853
1598,SA,0,1,13,VICTORIA-SEPULVEDA,33.46503,-117.67511
1599,SA,0,1,13,VICTORIA-SANTA ROSA,33.46474,-117.67416
16,SA,0,1,39,ANAHEIM-LINCOLN,33.83729,-117.91433
160,SA,0,1,14,DALE-TYLER,33.83396,-117.98489
1600,SA,0,1,15,ASSOCIATED-YORBA LINDA,33.8893,-117.88551
1602,SA,0,1,15,ASSOCIATED-BASTANCHURY,33.89393,-117.88546
1603,SA,0,1,15,ASSOCIATED-ENT 2600 PARKSIDE,33.89807,-117.88342
1604,SA,0,1,15,ASSOCIATED-PARK VISTA,33.90108,-117.883
1605,SA,0,1,15,ASSOCIATED-ROLLING HILLS,33.90387,-117.88314
1606,SA,0,1,15,ASSOCIATED-GINGERWOOD,33.90799,-117.8808
1607,SA,0,1,16,ASSOCIATED-IMPERIAL,33.91029,-117.88028
1608,SA,0,1,16,ASSOCIATED-GINGERWOOD,33.90771,-117.88138
1609,SA,0,1,16,ASSOCIATED-PARK VISTA,33.90284,-117.88333
1610,SA,0,1,16,ASSOCIATED-CRAIG,33.90033,-117.88328
1611,SA,0,1,16,ASSOCIATED-ENT 2600 PARKSIDE,33.89741,-117.8841
1612,SA,0,1,16,ASSOCIATED-BASTANCHURY,33.89288,-117.8858
1624,SA,0,1,11,BRADFORD-YORBA LINDA,33.88786,-117.86599
1625,SA,0,1,11,BRADFORD-TOPAZ,33.88476,-117.86694
1626,SA,0,1,16,BREA-LEMON,33.88634,-117.92127
1627,SA,0,1,16,BREA-LONGVIEW,33.88888,-117.91834
1628,SA,0,1,16,BREA-PANORAMA,33.89278,-117.91633
1629,SA,0,1,16,BREA-BASTANCHURY,33.89985,-117.90897
1630,SA,0,1,16,BREA-ROLLING HILLS,33.90347,-117.90725
1631,SA,0,1,16,BREA-EVERGREEN,33.90665,-117.90554
1632,SA,0,1,17,BREA-ROLLING HILLS,33.90335,-117.90763
1634,SA,0,1,17,BREA-BASTANCHURY,33.89899,-117.90967
1635,SA,0,1,17,BREA-PANORAMA,33.8923,-117.91718
1636,SA,0,1,17,BREA-LONGVIEW,33.8891,-117.91871
1637,SA,0,1,17,BREA-MARION,33.88661,-117.92126
1638,SA,0,1,19,BROOKHURST-ROBERTA,33.85645,-117.95911
1639,SA,0,1,19,BROOKHURST-ORANGETHORPE,33.85964,-117.95923
1640,SA,0,1,19,BROOKHURST-SOUTHGATE,33.86107,-117.95924
1641,SA,0,1,19,BROOKHURST-OAK,33.8645,-117.95928
1642,SA,0,1,19,BROOKHURST-VALENCIA,33.86676,-117.95932
1643,SA,0,1,19,BROOKHURST-ENT 140 HUNT-WESSON,33.86844,-117.95934
1644,SA,0,1,19,BROOKHURST-COMMONWEALTH,33.8695,-117.95955
1645,SA,0,1,19,BROOKHURST-VALENCIA,33.86681,-117.95952
1646,SA,0,1,19,BROOKHURST-OAK,33.8639,-117.95951
1647,SA,0,1,19,BROOKHURST-SOUTHGATE,33.86096,-117.95946
1648,SA,0,1,19,BROOKHURST-ORANGETHORPE,33.85876,-117.95944
1649,SA,0,1,19,BROOKHURST-PAGE,33.85548,-117.95941
1660,SA,0,1,54,CHAPMAN-HARBOR,33.87382,-117.92351
1689,SA,0,1,54,CHAPMAN-POMONA,33.874,-117.92315
17,SA,0,1,39,ANAHEIM-SYCAMORE,33.8397,-117.91519
1704,SA,0,2,30,COMMONWEALTH-MAGNOLIA,33.86989,-117.97582
1705,SA,0,2,30,COMMONWEALTH-PRITCHARD,33.86991,-117.9738
1707,SA,0,2,30,COMMONWEALTH-GILBERT,33.86993,-117.9678
1708,SA,0,2,30,COMMONWEALTH-LLOYD,33.86998,-117.96291
1709,SA,0,1,11,COMMONWEALTH-BROOKHURST,33.87001,-117.95891
1710,SA,0,1,11,COMMONWEALTH-BASQUE,33.87006,-117.95026
1711,SA,0,1,11,COMMONWEALTH-CITRUS,33.87013,-117.94614
1712,SA,0,1,11,COMMONWEALTH-EUCLID,33.87011,-117.9412
1713,SA,0,1,11,COMMONWEALTH-WOODS,33.87013,-117.93718
1714,SA,0,1,11,COMMONWEALTH-RICHMAN,33.87018,-117.93277
1716,SA,0,1,11,COMMONWEALTH-HIGHLAND,33.87021,-117.92848
1717,SA,0,1,11,COMMONWEALTH-MALDEN,33.87021,-117.92622
1718,SA,0,1,11,COMMONWEALTH-LEMON,33.87026,-117.91957
1719,SA,0,1,11,COMMONWEALTH-LAWRENCE,33.87028,-117.91727
1720,SA,0,1,11,COMMONWEALTH-BALCOM,33.87029,-117.91523
1721,SA,0,1,11,COMMONWEALTH-YALE,33.87036,-117.91183
1722,SA,0,1,11,COMMONWEALTH-CORNELL,33.87039,-117.90957
1723,SA,0,1,11,COMMONWEALTH-RAYMOND,33.87037,-117.9061
1724,SA,0,1,11,COMMONWEALTH-ANNIN,33.87041,-117.9014
1725,SA,0,1,11,COMMONWEALTH-ACACIA,33.8704,-117.89867
1726,SA,0,1,11,COMMONWEALTH-MOUNTAIN VIEW,33.87044,-117.89586
1728,SA,0,1,11,COMMONWEALTH-STATE COLLEGE,33.87044,-117.88985
1729,SA,0,1,11,COMMONWEALTH-SAN CARLOS,33.87163,-117.88539
1730,SA,0,1,11,COMMONWEALTH-CHAPMAN,33.8746,-117.8841
1731,SA,0,1,11,COMMONWEALTH-NUTWOOD,33.87791,-117.88413
1732,SA,0,1,11,COMMONWEALTH-NUTWOOD,33.87743,-117.88442
1734,SA,0,1,11,COMMONWEALTH-CHAPMAN,33.87443,-117.88432
1735,SA,0,1,11,COMMONWEALTH-SAN CARLOS,33.87143,-117.88592
1736,SA,0,1,11,COMMONWEALTH-MISSION,33.87069,-117.88771
1737,SA,0,1,11,COMMONWEALTH-STATE COLLEGE,33.87075,-117.89001
1738,SA,0,1,11,COMMONWEALTH-LADERA VISTA,33.87063,-117.89391
1740,SA,0,1,11,COMMONWEALTH-ACACIA,33.8706,-117.89866
1741,SA,0,1,11,COMMONWEALTH-ANNIN,33.87057,-117.9021
1743,SA,0,1,11,COMMONWEALTH-RAYMOND,33.87056,-117.90673
1744,SA,0,1,11,COMMONWEALTH-YALE,33.87055,-117.91157
1746,SA,0,1,11,COMMONWEALTH-BALCOM,33.87051,-117.91576
1748,SA,0,1,11,COMMONWEALTH-LEMON,33.87048,-117.91947
1749,SA,0,1,11,COMMONWEALTH-MALDEN,33.87043,-117.92633
1750,SA,0,1,11,COMMONWEALTH-HIGHLAND,33.87043,-117.92903
1752,SA,0,1,11,COMMONWEALTH-RICHMAN,33.87036,-117.93334
1753,SA,0,1,11,COMMONWEALTH-DRAKE,33.87038,-117.93563
1754,SA,0,1,11,COMMONWEALTH-WOODS,33.87036,-117.93783
1755,SA,0,1,11,COMMONWEALTH-EUCLID,33.87029,-117.94246
1756,SA,0,1,11,COMMONWEALTH-CITRUS,33.87025,-117.94654
1757,SA,0,1,11,COMMONWEALTH-BASQUE,33.87027,-117.95049
1758,SA,0,1,11,COMMONWEALTH-ALBERTA,33.87025,-117.95316
1759,SA,0,2,30,COMMONWEALTH-BROOKHURST,33.87021,-117.95981
1760,SA,0,2,30,COMMONWEALTH-LLOYD,33.87016,-117.9633
1761,SA,0,2,30,COMMONWEALTH-GILBERT,33.87012,-117.96884
1762,SA,0,2,30,COMMONWEALTH-JENSEN,33.8701,-117.9715
1763,SA,0,2,30,COMMONWEALTH-PRITCHARD,33.87009,-117.97388
1766,SA,0,1,21,EUCLID-BAKER,33.85666,-117.9417
1767,SA,0,1,21,EUCLID-ORANGETHORPE,33.85866,-117.94173
1768,SA,0,1,21,EUCLID-SOUTHGATE,33.86158,-117.94176
177,SA,0,1,21,EUCLID-ORD,33.79291,-117.94115
1770,SA,0,1,21,EUCLID-VALENCIA,33.86604,-117.94183
1771,SA,0,1,21,EUCLID-COMMONWEALTH,33.8707,-117.94187
1772,SA,0,1,21,EUCLID-CHAPMAN,33.87359,-117.94193
1774,SA,0,1,21,EUCLID-FERN,33.87899,-117.94198
1775,SA,0,1,21,EUCLID-VALENCIA MESA,33.88687,-117.94139
1776,SA,0,1,21,EUCLID-BASTANCHURY,33.88975,-117.94275
178,SA,0,1,21,EUCLID-ORANGEWOOD,33.79617,-117.94119
1780,SA,0,1,21,EUCLID-LAGUNA,33.90046,-117.94073
1781,SA,0,1,21,EUCLID-LAKEVIEW,33.90443,-117.94126
1782,SA,0,1,21,EUCLID-LA SENDA,33.9056,-117.94398
1783,SA,0,1,22,EUCLID-COUNTRY HILLS,33.90823,-117.94791
1784,SA,0,1,22,EUCLID-LAGUNA,33.90012,-117.94133
1785,SA,0,1,22,EUCLID-LAGUNA TERRACE,33.89539,-117.94414
1786,SA,0,1,22,EUCLID-ROSECRANS,33.89315,-117.94454
1787,SA,0,1,22,EUCLID-PASEO DORADO,33.89145,-117.94367
1788,SA,0,1,22,EUCLID-BASTANCHURY,33.88926,-117.94288
179,SA,0,1,21,EUCLID-KATELLA,33.80344,-117.94132
1790,SA,0,1,22,EUCLID-ARROYO,33.87898,-117.9422
1791,SA,0,1,22,EUCLID-CHAPMAN,33.87335,-117.94214
1792,SA,0,1,22,EUCLID-COMMONWEALTH,33.87069,-117.94213
1793,SA,0,1,22,EUCLID-VALENCIA,33.86586,-117.94205
1795,SA,0,1,22,EUCLID-HILL,33.86215,-117.942
1796,SA,0,1,22,EUCLID-ORANGETHORPE,33.85899,-117.94194
1797,SA,0,1,22,EUCLID-BAKER,33.85669,-117.94193
18,SA,0,1,39,ANAHEIM-WILHELMINA,33.84192,-117.91593
180,SA,0,1,21,EUCLID-SALLIE,33.80515,-117.94131
1804,SA,0,1,54,HARBOR-ORANGEFAIR,33.85659,-117.92414
1805,SA,0,1,54,HARBOR-ORANGETHORPE,33.86001,-117.92411
1806,SA,0,1,54,HARBOR-COSTCO,33.86231,-117.92416
1807,SA,0,1,54,HARBOR-VALENCIA,33.86562,-117.9242
1808,SA,0,1,17,HARBOR-COMMONWEALTH,33.87071,-117.92424
1809,SA,0,1,17,HARBOR-CHAPMAN,33.87367,-117.92422
181,SA,0,1,21,EUCLID-CRIS,33.80799,-117.94132
1810,SA,0,2,71,HARBOR-ELLIS,33.87513,-117.92417
1811,SA,0,2,71,HARBOR-UNION,33.87763,-117.92421
1812,SA,0,2,87,HARBOR-BERKELEY,33.87955,-117.92427
1813,SA,0,1,17,HARBOR-BREA,33.88454,-117.92556
1814,SA,0,1,17,HARBOR-ENT BREA DAM,33.88907,-117.92728
1815,SA,0,1,17,HARBOR-VALENCIA MESA,33.8939,-117.92847
1816,SA,0,1,17,HARBOR-BASTANCHURY,33.89591,-117.92885
1817,SA,0,1,17,HARBOR-ENT 2700 FULLERTON,33.90074,-117.92913
1818,SA,0,1,17,HARBOR-ENT 2800 FAIRWAY,33.90227,-117.92916
1819,SA,0,1,17,HARBOR-LA ENTRADA,33.90733,-117.93019
182,SA,0,1,21,EUCLID-CERRITOS,33.81082,-117.9413
1820,SA,0,1,17,HARBOR-HERMOSA,33.90942,-117.93072
1821,SA,0,1,17,HARBOR-IMPERIAL,33.91835,-117.93293
1822,SA,0,1,17,HARBOR-BECKMAN,33.9208,-117.93299
1823,SA,0,1,16,HARBOR-LAS RIENDAS,33.9143,-117.93286
1824,SA,0,1,16,HARBOR-LAS PALMAS,33.91118,-117.93124
1825,SA,0,1,16,HARBOR-HERMOSA,33.90899,-117.9309
1826,SA,0,1,16,HARBOR-LA ENTRADA,33.90638,-117.93027
1828,SA,0,1,16,HARBOR-VALENCIA MESA,33.89372,-117.92863
1829,SA,0,1,33,HARBOR-VALLEY VIEW,33.88269,-117.92486
183,SA,0,1,21,EUCLID-PALAIS,33.81401,-117.94131
1830,SA,0,1,16,HARBOR-BERKELEY,33.87978,-117.92457
1831,SA,0,2,70,HARBOR-UNION,33.87753,-117.92445
1832,SA,0,1,16,HARBOR-CHAPMAN,33.8736,-117.92451
1833,SA,0,1,54,HARBOR-SANTA FE,33.86951,-117.92438
1835,SA,0,1,54,HARBOR-SOUTHGATE,33.86208,-117.92443
1836,SA,0,1,54,HARBOR-ORANGETHORPE,33.85938,-117.9244
1837,SA,0,1,54,HARBOR-ORANGEFAIR,33.85621,-117.92436
184,SA,0,1,21,EUCLID-BALL,33.81862,-117.94131
1843,SA,0,1,39,LEMON-VALENCIA,33.86602,-117.91981
1844,SA,0,2,70,LEMON-COMMONWEALTH,33.87078,-117.91975
1845,SA,0,2,70,LEMON-WILSHIRE,33.87258,-117.91968
1846,SA,0,2,71,LEMON-CHAPMAN,33.87387,-117.91998
1848,SA,0,2,71,LEMON-COMMONWEALTH,33.87055,-117.91995
1849,SA,0,1,39,LEMON-VALENCIA,33.86589,-117.92001
185,SA,0,1,21,EUCLID-CRONE,33.82203,-117.94132
1850,SA,0,1,39,LEMON-FREEDOM,33.86201,-117.92004
1851,SA,0,1,39,LEMON-ORANGETHORPE,33.85864,-117.92005
1852,SA,0,1,39,LEMON-ORANGEFAIR,33.85583,-117.92003
1853,SA,0,2,30,MAGNOLIA-PORTER,33.86003,-117.97618
1854,SA,0,2,30,MAGNOLIA-OLIVE,33.86209,-117.97622
1856,SA,0,2,30,MAGNOLIA-VALENCIA,33.86618,-117.97626
1857,SA,0,2,30,MAGNOLIA-COMMONWEALTH,33.86966,-117.97648
1858,SA,0,2,30,MAGNOLIA-ORANGETHORPE,33.85944,-117.97644
186,SA,0,1,21,EUCLID-ORANGE,33.82591,-117.94136
1862,SA,0,1,11,NUTWOOD-PLACENTIA,33.87801,-117.87834
1866,SA,0,5,65,ORANGETHORPE-AUTO CENTER DRIVE,33.85897,-117.98112
1868,SA,0,1,14,ORANGETHORPE-MAGNOLIA,33.85898,-117.97588
187,SA,0,1,21,EUCLID-BROADWAY,33.82927,-117.94135
1870,SA,0,1,14,ORANGETHORPE-PECKHAM,33.85902,-117.97103
1871,SA,0,1,14,ORANGETHORPE-GILBERT,33.85905,-117.96739
1872,SA,0,1,14,ORANGETHORPE-COURTNEY,33.85906,-117.9634
1873,SA,0,1,14,ORANGETHORPE-BROOKHURST,33.85909,-117.95886
1875,SA,0,1,14,ORANGETHORPE-EADINGTON,33.85913,-117.95299
1876,SA,0,1,14,ORANGETHORPE-BASQUE,33.85916,-117.94964
1877,SA,0,1,14,ORANGETHORPE-ORCHARD,33.85918,-117.94659
1878,SA,0,1,14,ORANGETHORPE-EUCLID,33.85922,-117.94142
1879,SA,0,1,14,ORANGETHORPE-WOODS,33.85933,-117.93668
1880,SA,0,1,14,ORANGETHORPE-RICHMAN,33.8593,-117.9327
1881,SA,0,1,14,ORANGETHORPE-HIGHLAND,33.85932,-117.92805
1882,SA,0,1,14,ORANGETHORPE-HARBOR,33.85933,-117.92331
1883,SA,0,1,14,ORANGETHORPE-RAYMOND,33.85944,-117.90645
1884,SA,0,1,14,ORANGETHORPE-MANHATTAN,33.85946,-117.90276
1885,SA,0,1,14,ORANGETHORPE-ACACIA,33.8595,-117.89838
1886,SA,0,1,14,ORANGETHORPE-ENT 2150 VISTA PAINT,33.85953,-117.89393
1887,SA,0,1,14,ORANGETHORPE-PLACENTIA,33.85999,-117.88368
1888,SA,0,1,14,ORANGETHORPE-STATE COLLEGE,33.8598,-117.88957
1889,SA,0,1,14,ORANGETHORPE-ENT 2100 COLT,33.85988,-117.89449
189,SA,0,1,21,EUCLID-LINCOLN,33.83302,-117.94116
1890,SA,0,1,14,ORANGETHORPE-ACACIA,33.85991,-117.89873
1891,SA,0,1,14,ORANGETHORPE-MANHATTAN,33.85989,-117.90253
1892,SA,0,1,14,ORANGETHORPE-LEMON,33.85958,-117.92054
1893,SA,0,1,14,ORANGETHORPE-HARBOR,33.85963,-117.92453
1894,SA,0,1,14,ORANGETHORPE-HIGHLAND,33.85959,-117.92889
1895,SA,0,1,14,ORANGETHORPE-RICHMAN,33.85949,-117.93323
1896,SA,0,1,14,ORANGETHORPE-WOODS,33.85945,-117.93729
1897,SA,0,1,14,ORANGETHORPE-EUCLID,33.85948,-117.94258
1898,SA,0,1,14,ORANGETHORPE-ORCHARD,33.8594,-117.94776
1899,SA,0,1,14,ORANGETHORPE-BASQUE,33.85937,-117.95043
19,SA,0,1,39,ANAHEIM-NORTH,33.84413,-117.91666
190,SA,0,1,21,EUCLID-CRESCENT,33.84024,-117.94143
1900,SA,0,1,14,ORANGETHORPE-EADINGTON,33.85937,-117.95339
1902,SA,0,1,14,ORANGETHORPE-BROOKHURST,33.85932,-117.95987
1903,SA,0,1,14,ORANGETHORPE-COURTNEY,33.85926,-117.96415
1904,SA,0,1,14,ORANGETHORPE-GILBERT,33.85926,-117.96785
1905,SA,0,1,14,ORANGETHORPE-PECKHAM,33.85921,-117.97089
1906,SA,0,1,14,ORANGETHORPE-VINE,33.8592,-117.97435
1907,SA,0,1,15,PLACENTIA-MADISON,33.88247,-117.87641
1909,SA,0,1,15,PLACENTIA-GARNET,33.88707,-117.87508
191,SA,0,1,21,EUCLID-GLENOAKS,33.84323,-117.94152
1910,SA,0,1,16,PLACENTIA-YORBA LINDA,33.88869,-117.87482
1913,SA,0,1,16,PLACENTIA-MADISON,33.88238,-117.87668
1914,SA,0,1,16,PLACENTIA-RUBY,33.87992,-117.87742
1915,SA,0,2,27,PLACENTIA-NUTWOOD,33.87762,-117.87807
1927,SA,0,1,37,STATE COLLEGE-CYPRESS,33.86154,-117.88931
1928,SA,0,1,37,STATE COLLEGE-ENT FULLERTON,33.86521,-117.88936
1929,SA,0,1,37,STATE COLLEGE-FENDER,33.86776,-117.88941
193,SA,0,1,21,EUCLID-LA PALMA,33.84744,-117.94155
1930,SA,0,1,37,STATE COLLEGE-COMMONWEALTH,33.87106,-117.8895
1931,SA,0,1,37,STATE COLLEGE-CHAPMAN,33.87486,-117.88932
1932,SA,0,1,37,STATE COLLEGE-NUTWOOD,33.87803,-117.88955
1933,SA,0,1,37,STATE COLLEGE-CAMPUS,33.88183,-117.88962
1934,SA,0,1,37,STATE COLLEGE-CORPORATION,33.88489,-117.88967
1935,SA,0,1,37,STATE COLLEGE-YORBA LINDA,33.88865,-117.89003
1936,SA,0,1,37,STATE COLLEGE-VISTA DEL SOL,33.89275,-117.89141
1939,SA,0,1,35,STATE COLLEGE-BASTANCHURY,33.89755,-117.89188
194,SA,0,1,21,EUCLID-ROMNEYA,33.85025,-117.94158
1940,SA,0,1,35,STATE COLLEGE-PALMETTO,33.89494,-117.89173
1941,SA,0,1,35,STATE COLLEGE-MENDOCINO,33.89124,-117.89163
1942,SA,0,1,35,STATE COLLEGE-YORBA LINDA,33.88727,-117.89015
1943,SA,0,1,35,STATE COLLEGE-RANCH,33.88412,-117.88995
1944,SA,0,1,35,STATE COLLEGE-DOROTHY,33.88098,-117.88987
1945,SA,0,1,35,STATE COLLEGE-NUTWOOD,33.87762,-117.88973
1946,SA,0,1,35,STATE COLLEGE-CHAPMAN,33.87336,-117.88976
1947,SA,0,1,35,STATE COLLEGE-COMMONWEALTH,33.87012,-117.88971
1948,SA,0,1,35,STATE COLLEGE-VALENCIA,33.8672,-117.88961
1949,SA,0,1,35,STATE COLLEGE-KIMBERLY,33.86344,-117.88952
195,SA,0,1,21,EUCLID-MEDICAL CENTER,33.85209,-117.94162
1950,SA,0,1,86,STATE COLLEGE-ORANGETHORPE,33.85941,-117.88957
196,SA,0,1,22,EUCLID-MEDICAL CENTER,33.85203,-117.94191
1960,SA,0,1,54,FULLERTON TRANS CTR DOCK 1,33.86959,-117.92327
1961,SA,0,1,54,FULLERTON TRANS CTR DOCK 2,33.86978,-117.92307
1962,SA,0,1,78,FULLERTON TRANS CTR DOCK 3,33.86994,-117.92238
1963,SA,0,2,55,FULLERTON TRANS CTR DOCK 4,33.86985,-117.92377
1969,SA,0,1,22,FULLERTON PARK AND RIDE DOCK 5,33.85866,-117.97867
197,SA,0,1,22,EUCLID-ROMNEYA,33.85023,-117.94191
1970,SA,0,1,11,FULLERTON PARK AND RIDE DOCK6,33.85866,-117.97893
1971,SA,0,1,12,FULLERTON PARK AND RIDE DOCK 7,33.85866,-117.9792
1974,SA,0,1,38,FULLERTON PARK AND RIDE DOCK 10,33.85866,-117.97999
1975,SA,0,1,20,FULLERTON PARK AND RIDE DOCK 11,33.85866,-117.98025
1981,SA,0,1,19,BROOKHURST-GARFIELD,33.68771,-117.95394
1983,SA,0,1,19,BROOKHURST-ENT 18650 CHATEAU,33.69166,-117.95404
1984,SA,0,1,19,BROOKHURST-ELLIS,33.69449,-117.95405
1985,SA,0,1,19,BROOKHURST-QUAIL,33.69718,-117.9541
1987,SA,0,1,19,BROOKHURST-TALBERT,33.70224,-117.95417
1988,SA,0,1,19,BROOKHURST-SLATER,33.7094,-117.95427
1989,SA,0,1,19,BROOKHURST-LA ALAMEDA,33.71207,-117.95428
199,SA,0,1,22,EUCLID-LA PALMA,33.84632,-117.94184
1990,SA,0,1,19,BROOKHURST-WARNER,33.71752,-117.95431
1991,SA,0,1,19,BROOKHURST-PETUNIA,33.72045,-117.9544
1992,SA,0,1,19,BROOKHURST-HEIL,33.72332,-117.95442
1993,SA,0,1,19,BROOKHURST-THISTLE,33.72553,-117.95444
1994,SA,0,1,19,BROOKHURST-EDINGER,33.73106,-117.9545
1995,SA,0,1,19,BROOKHURST-EDINGER,33.72959,-117.95484
1996,SA,0,1,19,BROOKHURST-THISTLE,33.72554,-117.95481
1997,SA,0,1,19,BROOKHURST-HEIL,33.72305,-117.95478
1998,SA,0,1,19,BROOKHURST-PETUNIA,33.71985,-117.95472
1999,SA,0,1,19,BROOKHURST-WARNER,33.71556,-117.9547
2,SA,0,1,39,HASTER-ORANGEWOOD,33.79584,-117.90631
20,SA,0,1,39,ANAHEIM-LA VERNE,33.8463,-117.91754
2000,SA,0,1,19,BROOKHURST-LA ALAMEDA,33.71223,-117.95467
2001,SA,0,1,19,BROOKHURST-SLATER,33.70843,-117.95465
2002,SA,0,1,19,BROOKHURST-TALBERT,33.70125,-117.95453
2003,SA,0,1,19,BROOKHURST-PHILLIPS,33.69734,-117.95445
2004,SA,0,1,19,BROOKHURST-ELLIS,33.69363,-117.95437
2005,SA,0,1,19,BROOKHURST-NIAGARA RIVER,33.68983,-117.95432
2006,SA,0,1,45,EDINGER-MAGNOLIA,33.7302,-117.97115
2007,SA,0,1,45,EDINGER-SWEETLEAF,33.73021,-117.96673
2008,SA,0,1,45,EDINGER-BUSHARD,33.73024,-117.96294
201,SA,0,1,22,EUCLID-GLENOAKS,33.84277,-117.94176
2010,SA,0,1,45,EDINGER-LAS FLORES,33.73043,-117.94965
2011,SA,0,1,45,EDINGER-WARD,33.73055,-117.94547
2012,SA,0,1,45,EDINGER-LOS GATOS,33.73065,-117.94168
2013,SA,0,1,45,EDINGER-EUCLID,33.73077,-117.93682
2014,SA,0,1,45,EDINGER-MOUNT HICKS,33.7308,-117.93361
2015,SA,0,1,45,EDINGER-NEWHOPE,33.73082,-117.92822
2016,SA,0,1,45,EDINGER-RICHARDSON,33.73011,-117.92539
2017,SA,0,1,45,EDINGER-IRIS,33.72762,-117.92261
2018,SA,0,1,46,EDINGER-HARBOR,33.7275,-117.92008
202,SA,0,1,22,EUCLID-CRESCENT,33.84002,-117.94177
2020,SA,0,1,46,EDINGER-MOUNT OLANCHA,33.72838,-117.92332
2021,SA,0,1,46,EDINGER-RICHARDSON,33.73058,-117.92564
2022,SA,0,1,46,EDINGER-EUCLID,33.73101,-117.9381
2023,SA,0,1,46,EDINGER-LOS GATOS,33.73087,-117.9422
2024,SA,0,1,46,EDINGER-WARD,33.73077,-117.94649
2025,SA,0,1,46,EDINGER-LAS FLORES,33.73066,-117.9503
2026,SA,0,1,46,EDINGER-BROOKHURST,33.73052,-117.95511
203,SA,0,1,22,EUCLID-LINCOLN,33.83176,-117.94169
2038,SA,0,1,21,EUCLID-TALBERT,33.70246,-117.93679
2039,SA,0,1,21,EUCLID-SOUTHPARK,33.70464,-117.93685
204,SA,0,1,22,EUCLID-BROADWAY,33.82847,-117.94167
2040,SA,0,1,21,EUCLID-SLATER,33.70931,-117.93692
2041,SA,0,1,21,EUCLID-ENT 17300 VALLEY PARK,33.71188,-117.93695
2042,SA,0,1,21,EUCLID-WARNER,33.71472,-117.93698
2043,SA,0,1,21,EUCLID-WARNER,33.71745,-117.93703
2044,SA,0,1,21,EUCLID-CAMELLIA,33.71924,-117.93704
2045,SA,0,1,21,EUCLID-LAVENDER,33.7225,-117.93707
2046,SA,0,1,21,EUCLID-BLUE ALLIUM,33.72605,-117.93711
2047,SA,0,1,21,EUCLID-BELLFLOWER,33.72871,-117.93714
2048,SA,0,1,21,EUCLID-EDINGER,33.7318,-117.93714
205,SA,0,1,22,EUCLID-ORANGE,33.82535,-117.94156
2050,SA,0,1,22,EUCLID-EDINGER,33.73111,-117.93746
2052,SA,0,1,22,EUCLID-BLUE ALLIUM,33.72587,-117.93737
2053,SA,0,1,22,EUCLID-LAVENDER,33.72244,-117.93735
2054,SA,0,1,22,EUCLID-CAMELIA,33.7198,-117.93731
2055,SA,0,1,22,EUCLID-WARNER,33.7159,-117.93729
2056,SA,0,1,22,EUCLID-ENT 17300 VALLEY PARK,33.71137,-117.93723
2057,SA,0,1,22,EUCLID-SLATER,33.70877,-117.93718
2058,SA,0,1,22,EUCLID-SOUTHPARK,33.70442,-117.93714
206,SA,0,1,22,EUCLID-CRONE,33.82133,-117.94163
207,SA,0,1,22,EUCLID-BALL,33.81735,-117.94159
2070,SA,0,1,54,HARBOR-HEIL,33.72348,-117.9197
2071,SA,0,1,54,HARBOR-EDINGER,33.72813,-117.91973
2072,SA,0,1,54,HARBOR-LILAC,33.73054,-117.91976
2073,SA,0,1,54,HARBOR-LILAC,33.7302,-117.92011
2075,SA,0,1,54,HARBOR-EDINGER,33.728,-117.92008
2076,SA,0,1,54,HARBOR-HEIL,33.7232,-117.92003
2077,SA,0,1,10,MAGNOLIA-GARFIELD,33.68718,-117.97132
2078,SA,0,1,10,MAGNOLIA-JAY,33.69097,-117.97138
2079,SA,0,1,10,MAGNOLIA-ELLIS,33.69358,-117.97146
208,SA,0,1,22,EUCLID-CHALET,33.81506,-117.94159
2080,SA,0,1,10,MAGNOLIA-NILE RIVER,33.69587,-117.97148
2081,SA,0,1,10,MAGNOLIA-HELM,33.69826,-117.97151
2082,SA,0,1,10,MAGNOLIA-TALBERT,33.70213,-117.97158
2083,SA,0,1,10,MAGNOLIA-WINDSOR,33.70568,-117.97163
2084,SA,0,1,10,MAGNOLIA-SLATER,33.7089,-117.97167
2085,SA,0,1,10,MAGNOLIA-LA STELLA,33.71126,-117.97168
2086,SA,0,1,10,MAGNOLIA-LA PALOMA,33.71293,-117.97172
2087,SA,0,1,10,MAGNOLIA-WARNER,33.71632,-117.97177
2089,SA,0,1,10,MAGNOLIA-FOXGLOVE,33.72539,-117.97188
209,SA,0,1,22,EUCLID-CERRITOS,33.81075,-117.9416
2090,SA,0,1,10,MAGNOLIA-MINT,33.72827,-117.97193
2091,SA,0,1,10,MAGNOLIA-WARNER,33.71497,-117.97202
2092,SA,0,1,10,MAGNOLIA-LA PALOMA,33.71297,-117.97201
2093,SA,0,1,10,MAGNOLIA-LA STELLA,33.71038,-117.97197
2094,SA,0,1,10,MAGNOLIA-SLATER,33.70821,-117.97194
2095,SA,0,1,10,MAGNOLIA-EL PRESIDENTE,33.705,-117.9719
2096,SA,0,1,10,MAGNOLIA-LA ROCA,33.7032,-117.97187
2097,SA,0,1,10,MAGNOLIA-TALBERT,33.70038,-117.97181
2098,SA,0,1,10,MAGNOLIA-RHINE RIVER,33.69836,-117.97179
2099,SA,0,1,10,MAGNOLIA-NILE RIVER,33.69622,-117.97176
21,SA,0,1,39,ANAHEIM-NORTH,33.84441,-117.91698
210,SA,0,1,22,EUCLID-CRIS,33.80854,-117.94156
2100,SA,0,1,10,MAGNOLIA-ELLIS,33.69351,-117.97172
2101,SA,0,1,10,MAGNOLIA-NIGHTINGALE,33.68976,-117.97165
211,SA,0,1,22,EUCLID-SALLIE,33.80513,-117.9416
212,SA,0,1,54,HARBOR-CHAPMAN,33.78971,-117.91478
213,SA,0,1,54,HARBOR-WILKEN,33.79336,-117.91488
2134,SA,0,1,22,TALBERT-EUCLID,33.70174,-117.93645
2135,SA,0,1,22,TALBERT-MOUNT WASHINGTON,33.70179,-117.93207
2136,SA,0,1,21,TALBERT-MOUNT WASHINGTON,33.70206,-117.9329
214,SA,0,1,54,HARBOR-ORANGEWOOD,33.79718,-117.91497
215,SA,0,1,54,HARBOR-CONVENTION,33.80013,-117.91503
2153,SA,0,1,13,WARNER-NEWLAND,33.71559,-117.97982
2154,SA,0,1,13,WARNER-ROSS,33.71562,-117.97628
2155,SA,0,1,13,WARNER-MAGNOLIA,33.71563,-117.97321
2156,SA,0,1,13,WARNER-BUSHARD,33.71587,-117.96282
2157,SA,0,1,13,WARNER-GREENLEAF,33.71599,-117.95906
2158,SA,0,1,13,WARNER-NECTARINE,33.71604,-117.95672
2159,SA,0,1,13,WARNER-BROOKHURST,33.7161,-117.95372
216,SA,0,1,54,HARBOR-KATELLA,33.80383,-117.91514
2160,SA,0,1,13,WARNER-SAN BRUNO,33.71623,-117.94947
2161,SA,0,1,13,WARNER-WARD,33.71615,-117.94538
2162,SA,0,1,13,WARNER-LOS JARDINES WEST,33.71619,-117.94069
2163,SA,0,1,13,WARNER-EUCLID,33.71621,-117.9362
2164,SA,0,1,13,WARNER-MOUNT HOPE,33.71623,-117.93347
2165,SA,0,1,13,WARNER-NEWHOPE,33.71627,-117.92806
2166,SA,0,1,13,WARNER-WINTERBURG,33.71595,-117.92457
2167,SA,0,1,13,WARNER-WINTERBURG,33.71638,-117.92484
2168,SA,0,1,13,WARNER-NEWHOPE,33.71657,-117.92891
2169,SA,0,1,13,WARNER-MOUNT MARCUS,33.71655,-117.93371
2170,SA,0,1,13,WARNER-EUCLID,33.71652,-117.93772
2171,SA,0,1,13,WARNER-LOS JARDINES WEST,33.71649,-117.94147
2172,SA,0,1,13,WARNER-SAN BRUNO,33.71643,-117.94948
2173,SA,0,1,13,WARNER-BROOKHURST,33.71642,-117.95506
2174,SA,0,1,13,WARNER-GREENLEAF,33.7163,-117.95899
2175,SA,0,1,13,WARNER-BUSHARD,33.71619,-117.96197
2177,SA,0,1,48,BEACH-GARDEN GROVE,33.77473,-117.99304
2178,SA,0,1,14,BELGRAVE-VALLEY VIEW,33.78538,-118.0292
2179,SA,0,1,7,BAILEY-LAURELTON,33.78597,-118.03184
218,SA,0,1,54,HARBOR-EAST SHUTTLE AREA,33.80988,-117.91521
2180,SA,0,1,7,BAILEY-CHAPMAN,33.78827,-118.03213
2183,SA,0,1,19,BROOKHURST-HAZARD,33.75273,-117.95476
2184,SA,0,1,19,BROOKHURST-JENNRICH,33.75523,-117.95477
2185,SA,0,1,19,BROOKHURST-WESTMINSTER,33.76036,-117.95479
2186,SA,0,1,19,BROOKHURST-TRAYLOR,33.76242,-117.95486
2187,SA,0,1,19,BROOKHURST-TRASK,33.76724,-117.95487
2188,SA,0,1,19,BROOKHURST-CENTRAL,33.77085,-117.95489
2189,SA,0,1,19,BROOKHURST-GARDEN GROVE,33.77514,-117.9554
219,SA,0,1,54,HARBOR-BALL,33.81853,-117.91509
2190,SA,0,1,19,BROOKHURST-STANFORD,33.77747,-117.95725
2191,SA,0,1,19,BROOKHURST-LAMPSON,33.78164,-117.95843
2192,SA,0,1,19,BROOKHURST-BIXBY,33.78418,-117.95848
2193,SA,0,1,19,BROOKHURST-PAVILION PLAZA,33.78654,-117.95853
2194,SA,0,1,19,BROOKHURST-CHAPMAN,33.78908,-117.95858
2195,SA,0,1,19,BROOKHURST-MCMICHAEL,33.79325,-117.95854
2196,SA,0,1,19,BROOKHURST-ORANGEWOOD,33.79559,-117.95859
2197,SA,0,1,19,BROOKHURST-BROOKSIDE,33.79978,-117.95861
2198,SA,0,1,19,BROOKHURST-KATELLA,33.80244,-117.95907
2199,SA,0,1,19,BROOKHURST-DEWEY,33.79964,-117.95895
22,SA,0,1,39,ANAHEIM-WILHELMINA,33.84171,-117.9161
220,SA,0,1,54,HARBOR-VERMONT,33.82169,-117.91531
2200,SA,0,1,19,BROOKHURST-ORANGEWOOD,33.79546,-117.95894
2201,SA,0,1,19,BROOKHURST-SKYLARK,33.79269,-117.95889
2202,SA,0,1,19,BROOKHURST-CHAPMAN,33.78744,-117.95892
2203,SA,0,1,19,BROOKHURST-BIXBY,33.78401,-117.95883
2204,SA,0,1,19,BROOKHURST-LAMPSON,33.78154,-117.95879
2205,SA,0,1,19,BROOKHURST-STANFORD,33.77705,-117.95735
2206,SA,0,1,19,BROOKHURST-GARDEN GROVE,33.77356,-117.95526
2207,SA,0,1,19,BROOKHURST-CENTRAL,33.77061,-117.95517
2208,SA,0,1,19,BROOKHURST-TRASK,33.7663,-117.95525
2209,SA,0,1,19,BROOKHURST-WOODBURY,33.76227,-117.95519
221,SA,0,1,54,HARBOR-SOUTH,33.82522,-117.91648
2210,SA,0,1,19,BROOKHURST-WESTMINSTER,33.75866,-117.95515
2211,SA,0,1,19,BROOKHURST-13TH,33.75559,-117.95514
2212,SA,0,2,56,CHAPMAN-VALLEY VIEW,33.78828,-118.02751
2213,SA,0,1,24,CHAPMAN-JASPER,33.78836,-118.02411
2214,SA,0,1,24,CHAPMAN-SPRINGDALE,33.78835,-118.01952
2215,SA,0,1,24,CHAPMAN-LAMPLIGHTER,33.78833,-118.01529
2216,SA,0,1,24,CHAPMAN-KNOTT,33.78813,-118.01071
2217,SA,0,1,24,CHAPMAN-INDUSTRY,33.78814,-118.00761
2218,SA,0,1,24,CHAPMAN-MONARCH,33.78825,-118.00604
2219,SA,0,1,24,CHAPMAN-WESTERN,33.78817,-118.00186
222,SA,0,1,54,HARBOR-WATER,33.82794,-117.91741
2220,SA,0,1,24,CHAPMAN-SANTA ROSALIA,33.78821,-117.99785
2221,SA,0,1,24,CHAPMAN-MACNAB,33.78831,-117.97808
2222,SA,0,1,24,CHAPMAN-MAGNOLIA,33.78834,-117.97486
2223,SA,0,1,24,CHAPMAN-LORALEEN,33.78836,-117.97199
2224,SA,0,1,24,CHAPMAN-GILBERT,33.7884,-117.9669
2225,SA,0,1,24,CHAPMAN-ENT GARDEN GROVE,33.78844,-117.96249
2226,SA,0,1,24,CHAPMAN-BROOKHURST,33.78844,-117.95921
2228,SA,0,1,24,CHAPMAN-PARK,33.7885,-117.95472
223,SA,0,1,54,HARBOR-SANTA ANA,33.83019,-117.91812
2230,SA,0,1,24,CHAPMAN-NUTWOOD,33.78857,-117.94973
2231,SA,0,1,24,CHAPMAN-NELSON,33.78849,-117.94584
2232,SA,0,1,24,CHAPMAN-EUCLID,33.78852,-117.94069
2233,SA,0,1,24,CHAPMAN-LOARA,33.78854,-117.93693
2234,SA,0,1,24,CHAPMAN-9TH,33.78862,-117.93201
2236,SA,0,1,24,CHAPMAN-JACALENE,33.78866,-117.92601
2237,SA,0,1,24,CHAPMAN-WEST,33.78866,-117.923
2238,SA,0,1,24,CHAPMAN-BUARO,33.78868,-117.91896
2239,SA,0,1,24,CHAPMAN-HARBOR,33.78869,-117.91404
224,SA,0,1,54,HARBOR-BROADWAY,33.83174,-117.91863
2240,SA,0,1,24,CHAPMAN-SOMERSET,33.78871,-117.91019
2241,SA,0,2,63,CHAPMAN-HASTER,33.78873,-117.90507
2242,SA,0,2,63,CHAPMAN-JETTY,33.78877,-117.90073
2243,SA,0,1,24,CHAPMAN-HASTER,33.78898,-117.90669
2244,SA,0,1,24,CHAPMAN-HARBOR,33.78896,-117.91599
2245,SA,0,1,24,CHAPMAN-BUARO,33.78893,-117.919
2246,SA,0,1,24,CHAPMAN-WEST,33.78886,-117.92451
2247,SA,0,1,24,CHAPMAN-JACALENE,33.78887,-117.92676
2249,SA,0,1,24,CHAPMAN-9TH,33.78883,-117.93292
225,SA,0,1,54,HARBOR-LINCOLN,33.83363,-117.91915
2250,SA,0,1,24,CHAPMAN-LOARA,33.78879,-117.93729
2251,SA,0,1,24,CHAPMAN-EUCLID,33.78879,-117.94175
2252,SA,0,1,24,CHAPMAN-MEDINA,33.78873,-117.94554
2253,SA,0,1,24,CHAPMAN-NUTWOOD,33.7887,-117.95042
2254,SA,0,1,24,CHAPMAN-SEACREST,33.78869,-117.95312
2256,SA,0,1,24,CHAPMAN-BROOKHURST,33.78866,-117.9598
2257,SA,0,1,24,CHAPMAN-ENT GARDEN GROVE,33.7887,-117.96266
2258,SA,0,1,24,CHAPMAN-GILBERT,33.78864,-117.9671
2259,SA,0,1,24,CHAPMAN-LORALEEN,33.78856,-117.97142
2260,SA,0,1,24,CHAPMAN-MAGNOLIA,33.78855,-117.97614
2261,SA,0,1,24,CHAPMAN-MACNAB,33.78853,-117.97851
2262,SA,0,1,24,CHAPMAN-DALE,33.78852,-117.98464
2263,SA,0,1,24,CHAPMAN-WESTERN,33.78842,-118.0021
2264,SA,0,1,24,CHAPMAN-MONARCH,33.7884,-118.00645
2265,SA,0,1,24,CHAPMAN-INDUSTRY,33.78839,-118.00821
2266,SA,0,1,24,CHAPMAN-KNOTT,33.7884,-118.01162
2267,SA,0,1,24,CHAPMAN-LAMPLIGHTER,33.7885,-118.01575
227,SA,0,1,54,HARBOR-SYCAMORE,33.83846,-117.92087
2271,SA,0,1,21,EUCLID-WESTMINSTER,33.76,-117.93754
2272,SA,0,1,21,EUCLID-WOODBURY,33.76319,-117.93758
2273,SA,0,1,21,EUCLID-TRASK,33.76733,-117.93762
2274,SA,0,1,21,EUCLID-CENTURY,33.76987,-117.9377
2275,SA,0,1,21,EUCLID-SHERMAN,33.77208,-117.93777
2276,SA,0,1,21,EUCLID-GARDEN GROVE,33.77465,-117.93781
2277,SA,0,1,21,EUCLID-ACACIA,33.77635,-117.93786
2278,SA,0,1,21,EUCLID-STANFORD,33.77769,-117.93851
2279,SA,0,1,21,EUCLID-COLLEGE,33.77933,-117.94044
2280,SA,0,1,21,EUCLID-LAMPSON,33.78178,-117.94099
2281,SA,0,1,21,EUCLID-JERRY,33.7844,-117.94099
2282,SA,0,1,21,EUCLID-MARIAN,33.78673,-117.94102
2283,SA,0,1,21,EUCLID-CHAPMAN,33.78942,-117.9411
2284,SA,0,1,21,EUCLID-WAKEFIELD,33.79922,-117.94127
2285,SA,0,1,22,EUCLID-KATELLA,33.80229,-117.9416
2286,SA,0,1,22,EUCLID-PALMA VISTA,33.79923,-117.94155
2287,SA,0,1,22,EUCLID-ORANGEWOOD,33.79612,-117.94148
2288,SA,0,1,22,EUCLID-PATRICIA,33.79199,-117.9414
2289,SA,0,1,22,EUCLID-CHAPMAN,33.78817,-117.94136
229,SA,0,1,54,HARBOR-NORTH,33.84328,-117.9224
2290,SA,0,1,22,EUCLID-MARION,33.78603,-117.94132
2291,SA,0,1,22,EUCLID-LAMPSON,33.78104,-117.94124
2292,SA,0,1,22,EUCLID-MAIN,33.77908,-117.94058
2293,SA,0,1,22,EUCLID-STANFORD,33.77743,-117.93868
2294,SA,0,1,22,EUCLID-ACACIA,33.77543,-117.93815
2295,SA,0,1,22,EUCLID-GARDEN GROVE,33.77347,-117.93808
2297,SA,0,1,22,EUCLID-CENTURY,33.7689,-117.93798
2298,SA,0,1,22,EUCLID-TRASK,33.76648,-117.93796
2299,SA,0,1,22,EUCLID-BLAKE,33.76306,-117.9378
23,SA,0,1,39,ANAHEIM-SYCAMORE,33.83951,-117.91541
2300,SA,0,1,22,EUCLID-WESTMINSTER,33.75918,-117.9378
2301,SA,0,1,22,EUCLID-BUSINESS CENTER,33.75496,-117.93778
2302,SA,0,1,22,EUCLID-HAZARD,33.75265,-117.93775
2303,SA,0,1,39,FAIRVIEW-GARDEN GROVE,33.77353,-117.90311
2304,SA,0,1,39,FAIRVIEW-DOWNIE,33.771,-117.90315
2305,SA,0,1,39,FAIRVIEW-TRASK,33.7668,-117.90312
2306,SA,0,1,11,GARDEN GROVE-BEACH,33.77371,-117.99235
2307,SA,0,1,11,GARDEN GROVE-COAST,33.77368,-117.98962
2308,SA,0,1,11,GARDEN GROVE-MONROE,33.77371,-117.98598
2309,SA,0,1,11,GARDEN GROVE-WILSON,33.77375,-117.98309
231,SA,0,1,54,HARBOR-LA PALMA,33.847,-117.92369
2310,SA,0,1,11,GARDEN GROVE-JOSEPHINE,33.77376,-117.97972
2312,SA,0,1,11,GARDEN GROVE-MAGNOLIA,33.77379,-117.97544
2313,SA,0,1,11,GARDEN GROVE-CANNERY,33.77382,-117.97211
2314,SA,0,1,11,GARDEN GROVE-CASA LINDA,33.77384,-117.96875
2315,SA,0,1,11,GARDEN GROVE-GILBERT,33.77385,-117.96655
2316,SA,0,1,11,GARDEN GROVE-GALWAY,33.77393,-117.96279
2317,SA,0,1,11,GARDEN GROVE-BROOKHURST WAY,33.7739,-117.95789
2318,SA,0,1,11,GARDEN GROVE-BROOKHURST,33.77394,-117.95441
2319,SA,0,1,11,GARDEN GROVE-NUTWOOD,33.77397,-117.94987
232,SA,0,1,54,HARBOR-CARL KARCHER,33.8505,-117.92408
2320,SA,0,1,11,GARDEN GROVE-CENTURY,33.77401,-117.94554
2321,SA,0,1,11,GARDEN GROVE-MAIN,33.77396,-117.94046
2322,SA,0,1,11,GARDEN GROVE-EUCLID,33.77408,-117.93744
2323,SA,0,1,11,GARDEN GROVE-CIVIC CENTER,33.77412,-117.93542
2324,SA,0,1,11,GARDEN GROVE-NINA,33.77415,-117.93248
2325,SA,0,1,11,GARDEN GROVE-NEWHOPE,33.77417,-117.92876
2326,SA,0,1,11,GARDEN GROVE-LEMONWOOD,33.77421,-117.92687
2327,SA,0,1,11,GARDEN GROVE-WEST,33.77421,-117.92375
2328,SA,0,1,11,GARDEN GROVE-HARBOR,33.77426,-117.91935
2329,SA,0,1,11,GARDEN GROVE-RAINBOW,33.77428,-117.91731
233,SA,0,1,54,HARBOR-ROMNEYA,33.85104,-117.92436
2331,SA,0,1,11,GARDEN GROVE-PARTRIDGE,33.77429,-117.91034
2333,SA,0,2,50,GARDEN GROVE-FAIRVIEW,33.7743,-117.9026
2335,SA,0,1,11,GARDEN GROVE-LEWIS,33.77442,-117.89703
2337,SA,0,2,50,GARDEN GROVE-LEWIS,33.77457,-117.89786
2338,SA,0,1,11,GARDEN GROVE-FAIRVIEW,33.77458,-117.9017
2339,SA,0,1,11,GARDEN GROVE-HASTER,33.77452,-117.90672
234,SA,0,1,54,HARBOR-LA PALMA,33.84741,-117.92401
2340,SA,0,1,11,GARDEN GROVE-PARTRIDGE,33.7745,-117.91086
2341,SA,0,1,11,GARDEN GROVE-PALM,33.77452,-117.91449
2342,SA,0,1,11,GARDEN GROVE-HARBOR,33.77451,-117.919
2343,SA,0,1,11,GARDEN GROVE-WEST,33.77446,-117.92396
2344,SA,0,1,11,GARDEN GROVE-LEMONWOOD,33.77443,-117.92751
2345,SA,0,1,11,GARDEN GROVE-NEWHOPE,33.7744,-117.92951
2346,SA,0,1,11,GARDEN GROVE-9TH,33.77438,-117.93258
2348,SA,0,1,11,GARDEN GROVE-EUCLID,33.77434,-117.93854
2349,SA,0,1,11,GARDEN GROVE-GROVE,33.77424,-117.94187
2350,SA,0,1,11,GARDEN GROVE-NELSON,33.77423,-117.94575
2351,SA,0,1,11,GARDEN GROVE-NUTWOOD,33.77418,-117.95016
2352,SA,0,1,11,GARDEN GROVE-BROOKHURST,33.77415,-117.95557
2353,SA,0,1,11,GARDEN GROVE-BROOKHURST,33.77412,-117.95826
2354,SA,0,1,11,GARDEN GROVE-GALWAY,33.77411,-117.96281
2355,SA,0,1,11,GARDEN GROVE-GILBERT,33.77407,-117.96744
2356,SA,0,1,11,GARDEN GROVE-CASA LINDA,33.77408,-117.96913
2357,SA,0,1,11,GARDEN GROVE-LUCILLE,33.77407,-117.97336
2358,SA,0,1,11,GARDEN GROVE-MAGNOLIA,33.77401,-117.97576
2359,SA,0,1,11,GARDEN GROVE-JOSEPHINE,33.774,-117.97934
236,SA,0,1,54,HARBOR-NORTH,33.84308,-117.92261
2360,SA,0,1,11,GARDEN GROVE-DALE,33.77397,-117.98438
2361,SA,0,1,11,GARDEN GROVE-FERN,33.77394,-117.98808
2362,SA,0,1,11,GARDEN GROVE-BEACH,33.77393,-117.99345
2363,SA,0,1,11,GARDEN GROVE-HOOVER,33.77388,-117.99845
2364,SA,0,1,11,GARDEN GROVE-WESTERN,33.77386,-118.00179
2365,SA,0,1,11,GARDEN GROVE-EAGLE,33.77382,-118.00521
2366,SA,0,1,11,GARDEN GROVE-GOLDEN WEST,33.77388,-118.00971
2367,SA,0,1,54,HARBOR-WOODBURY,33.76398,-117.92018
2368,SA,0,1,54,HARBOR-TRASK,33.76604,-117.9202
2369,SA,0,1,54,HARBOR-BANNER,33.76963,-117.92023
2370,SA,0,1,54,HARBOR-HARBOR PLACE CENTER,33.77207,-117.92022
2371,SA,0,1,54,HARBOR-GARDEN GROVE,33.7751,-117.91877
2372,SA,0,1,54,HARBOR-PALM,33.77687,-117.91521
2373,SA,0,1,54,HARBOR-LAMPSON,33.78117,-117.91473
2374,SA,0,1,54,HARBOR-TWINTREE,33.78456,-117.91473
2375,SA,0,1,54,HARBOR-CHAPMAN,33.78697,-117.91475
2376,SA,0,1,54,HARBOR-CHAPMAN,33.7877,-117.91507
2377,SA,0,1,54,HARBOR-TWINTREE,33.78344,-117.91505
2378,SA,0,1,54,HARBOR-LAMPSON,33.78125,-117.91504
2379,SA,0,1,54,HARBOR-PALM,33.77688,-117.91561
238,SA,0,1,54,HARBOR-SYCAMORE,33.83868,-117.92117
2380,SA,0,1,54,HARBOR-BUARO,33.77544,-117.91867
2381,SA,0,1,54,HARBOR-GARDEN GROVE,33.7734,-117.92064
2382,SA,0,1,54,HARBOR-BANNER,33.76953,-117.92048
2383,SA,0,1,54,HARBOR-TRASK,33.76661,-117.92053
2384,SA,0,1,54,HARBOR-WOODBURY,33.76359,-117.9205
2389,SA,0,1,39,HASTER-CHAPMAN,33.78923,-117.90609
2390,SA,0,1,39,HASTER-TILLER,33.79205,-117.90618
2399,SA,0,1,21,KATELLA-DALE,33.80283,-117.98405
24,SA,0,1,39,ANAHEIM-LINCOLN,33.83586,-117.91419
240,SA,0,1,54,HARBOR-LINCOLN,33.83377,-117.91962
2400,SA,0,1,21,KATELLA-MACMURRAY,33.80301,-117.97845
2401,SA,0,1,21,KATELLA-MAGNOLIA,33.80289,-117.97506
2402,SA,0,1,21,KATELLA-GARZA,33.80292,-117.97034
2403,SA,0,1,21,KATELLA-GILBERT,33.80296,-117.96696
2404,SA,0,1,21,KATELLA-BARCLAY,33.80306,-117.96337
2405,SA,0,1,21,KATELLA-BROOKHURST,33.80297,-117.95985
2406,SA,0,1,21,KATELLA-DALLAS,33.80309,-117.9537
2407,SA,0,1,21,KATELLA-NUTWOOD,33.8031,-117.94994
2408,SA,0,1,21,KATELLA-DINO,33.80299,-117.9438
2409,SA,0,1,11,KNOTT-ACACIA,33.77625,-118.0087
241,SA,0,1,54,HARBOR-BROADWAY,33.83158,-117.91876
2410,SA,0,1,11,KNOTT-STANFORD,33.77831,-118.01096
2411,SA,0,1,11,KNOTT-LAMPSON,33.78146,-118.01105
2412,SA,0,1,11,KNOTT-BELGRAVE,33.78537,-118.01102
2413,SA,0,1,11,KNOTT-CHAPMAN,33.78798,-118.01103
2414,SA,0,1,11,KNOTT-LEILANI,33.79344,-118.01098
2415,SA,0,1,11,KNOTT-ORANGEWOOD,33.79602,-118.01097
2416,SA,0,1,11,KNOTT-PATTERSON,33.79871,-118.01095
2417,SA,0,1,12,KNOTT-CHAPMAN,33.78758,-118.01129
2418,SA,0,1,12,KNOTT-BELGRAVE,33.78475,-118.01131
2419,SA,0,1,12,KNOTT-LAMPSON,33.78033,-118.01126
242,SA,0,1,54,HARBOR-SANTA ANA,33.82994,-117.91833
2420,SA,0,1,12,KNOTT-STANFORD,33.77751,-118.01084
2421,SA,0,1,12,KNOTT-ACACIA,33.77553,-118.00824
243,SA,0,1,54,HARBOR-WATER,33.82776,-117.91765
244,SA,0,1,54,HARBOR-SOUTH,33.8251,-117.91674
2442,SA,0,1,24,LAMPSON-SPRINGDALE,33.78118,-118.02041
2443,SA,0,1,24,LAMPSON-TOPAZ,33.78144,-118.02819
2449,SA,0,1,39,LEWIS-LAMPSON,33.78116,-117.8976
245,SA,0,1,54,HARBOR-VERMONT,33.82152,-117.9156
2450,SA,0,1,39,LEWIS-EL PRADO,33.77618,-117.89734
2451,SA,0,1,10,MAGNOLIA-WESTMINSTER,33.75971,-117.97228
2452,SA,0,1,10,MAGNOLIA-MAYS,33.76347,-117.97231
2453,SA,0,1,10,MAGNOLIA-TRASK,33.767,-117.9723
2454,SA,0,1,10,MAGNOLIA-IMPERIAL,33.76971,-117.97227
2455,SA,0,1,10,MAGNOLIA-GARDEN GROVE,33.77432,-117.97517
2456,SA,0,1,10,MAGNOLIA-STANFORD,33.77781,-117.97523
2457,SA,0,1,10,MAGNOLIA-LAMPSON,33.78157,-117.97529
2458,SA,0,1,10,MAGNOLIA-HEALEY,33.7844,-117.97528
2459,SA,0,1,10,MAGNOLIA-CHAPMAN,33.78708,-117.97531
246,SA,0,1,54,HARBOR-BALL,33.81875,-117.91544
2460,SA,0,1,10,MAGNOLIA-TRISTAN,33.79055,-117.97529
2461,SA,0,1,10,MAGNOLIA-SHELLEY,33.79418,-117.97537
2462,SA,0,1,10,MAGNOLIA-ORANGEWOOD,33.79601,-117.97542
2463,SA,0,1,10,MAGNOLIA-ROSANNA,33.79916,-117.97548
2464,SA,0,1,10,MAGNOLIA-KATELLA,33.80276,-117.97582
2465,SA,0,1,10,MAGNOLIA-ROSANNA,33.79934,-117.97577
2466,SA,0,1,10,MAGNOLIA-ORANGEWOOD,33.79516,-117.97572
2467,SA,0,1,10,MAGNOLIA-MACALPINE,33.79145,-117.97559
2468,SA,0,1,10,MAGNOLIA-CHAPMAN,33.788,-117.97561
2469,SA,0,1,10,MAGNOLIA-HEALEY,33.78468,-117.97557
247,SA,0,2,112,HARBOR-EAST SHUTTLE AREA,33.80971,-117.91544
2470,SA,0,1,10,MAGNOLIA-LAMPSON,33.78089,-117.9755
2471,SA,0,1,10,MAGNOLIA-STANFORD,33.77807,-117.9755
2472,SA,0,1,10,MAGNOLIA-GARDEN GROVE,33.77428,-117.97544
2473,SA,0,1,10,MAGNOLIA-IMPERIAL,33.77013,-117.97258
2474,SA,0,1,10,MAGNOLIA-TRASK,33.76727,-117.97261
2475,SA,0,1,10,MAGNOLIA-MAYS,33.76337,-117.97259
2476,SA,0,1,29,MCFADDEN-WARD,33.73783,-117.94572
2486,SA,0,1,11,VALLEY VIEW-TIFFANY,33.77711,-118.03467
2487,SA,0,1,11,VALLEY VIEW-CERULEAN,33.77976,-118.03155
2488,SA,0,2,35,VALLEY VIEW-LAMPSON,33.78237,-118.02907
2489,SA,0,1,24,VALLEY VIEW-BELGRAVE,33.78521,-118.02829
2493,SA,0,1,11,VALLEY VIEW-CHAPMAN,33.78802,-118.02868
2494,SA,0,1,11,VALLEY VIEW-BELGRAVE,33.78465,-118.02871
2495,SA,0,1,11,VALLEY VIEW-LAMPSON,33.78158,-118.02998
2496,SA,0,1,11,VALLEY VIEW-CERULEAN,33.77932,-118.03253
25,SA,0,1,39,ANAHEIM-BROADWAY,33.83384,-117.91347
250,SA,0,1,54,HARBOR-KATELLA,33.80284,-117.91551
251,SA,0,1,54,HARBOR-CONVENTION,33.79896,-117.91539
252,SA,0,1,54,HARBOR-ORANGEWOOD,33.79571,-117.91527
2520,SA,0,1,52,WESTMINSTER-BUSHARD,33.75936,-117.96326
2521,SA,0,1,52,WESTMINSTER-ERIN,33.75938,-117.96081
2522,SA,0,1,52,WESTMINSTER-KERRY,33.75947,-117.95842
2523,SA,0,1,52,WESTMINSTER-BROOKHURST,33.75942,-117.95437
2524,SA,0,1,52,WESTMINSTER-HOPE,33.75945,-117.95038
2525,SA,0,1,52,WESTMINSTER-BOWEN,33.75946,-117.94723
2526,SA,0,1,52,WESTMINSTER-LAKE,33.75948,-117.94386
2527,SA,0,1,52,WESTMINSTER-TAFT,33.75949,-117.94132
2528,SA,0,1,52,WESTMINSTER-CLINTON,33.75971,-117.91119
2529,SA,0,1,52,WESTMINSTER-BUENA,33.75972,-117.90745
253,SA,0,1,54,HARBOR-WILKEN,33.79252,-117.91519
2532,SA,0,1,55,WESTMINSTER-CLINTON,33.75992,-117.91207
2534,SA,0,1,55,WESTMINSTER-ENTERPRISE,33.75989,-117.91693
2535,SA,0,1,55,WESTMINSTER-HARBOR,33.75987,-117.9215
2536,SA,0,1,55,WESTMINSTER-WEST,33.75985,-117.92446
2538,SA,0,1,55,WESTMINSTER-NEWHOPE,33.75981,-117.92952
2540,SA,0,1,55,WESTMINSTER-ROSITA,33.75978,-117.93464
2541,SA,0,1,55,WESTMINSTER-EUCLID,33.75973,-117.93848
2542,SA,0,1,55,WESTMINSTER-TAFT,33.75971,-117.9418
2543,SA,0,1,55,WESTMINSTER-LAKE,33.75969,-117.94449
2544,SA,0,1,55,WESTMINSTER-BOWEN,33.75966,-117.9479
2545,SA,0,1,55,WESTMINSTER-DAWSON,33.75964,-117.95135
2546,SA,0,1,55,WESTMINSTER-BROOKHURST,33.75962,-117.95577
2547,SA,0,1,55,WESTMINSTER-KERRY,33.7596,-117.95894
2548,SA,0,1,55,WESTMINSTER-ERIN,33.75959,-117.96198
2549,SA,0,1,55,WESTMINSTER-BUSHARD,33.75955,-117.96371
2550,SA,0,1,55,WESTMINSTER-ATLANTIS,33.75956,-117.96858
2551,SA,0,1,55,WESTMINSTER-MAGNOLIA,33.75954,-117.97269
2552,SA,0,1,55,WESTMINSTER-YOCKEY,33.7595,-117.97709
2553,SA,0,1,11,17TH-PALM,33.67015,-118.00682
2555,SA,0,1,11,17TH-ADAMS,33.67308,-118.00382
2556,SA,0,1,12,17TH-MAIN,33.67492,-118.00222
2557,SA,0,1,12,17TH-ADAMS,33.67318,-118.00401
2559,SA,0,1,12,17TH-PALM,33.67021,-118.00705
2560,SA,0,1,12,17TH-PECAN,33.66805,-118.00925
2561,SA,0,2,60,1ST-ORANGE,33.65755,-117.99767
2565,SA,0,1,11,ADAMS-BEACH,33.67204,-117.98776
2566,SA,0,1,11,ADAMS-SEABRIDGE,33.6721,-117.985
2567,SA,0,1,11,ADAMS-NEW BRITAIN,33.67205,-117.983
2568,SA,0,1,11,ADAMS-NEWLAND,33.67206,-117.97954
2569,SA,0,1,11,ADAMS-CROWN REEF,33.67217,-117.97618
2570,SA,0,1,11,ADAMS-MAGNOLIA,33.6721,-117.97057
2571,SA,0,1,11,ADAMS-MARINA,33.67213,-117.96678
2572,SA,0,1,11,ADAMS-BUSHARD,33.67214,-117.96206
2573,SA,0,1,11,ADAMS-DERBYSHIRE,33.67218,-117.95952
2574,SA,0,1,11,ADAMS-BROOKHURST,33.67219,-117.95522
2575,SA,0,1,11,ADAMS-BROOKHURST,33.67225,-117.95158
2576,SA,0,1,11,ADAMS-LAWSON,33.67227,-117.94989
2577,SA,0,1,10,ADAMS-PICADILLAY,33.67247,-117.95108
2578,SA,0,1,10,ADAMS-BROOKHURST,33.67248,-117.95529
2579,SA,0,1,10,ADAMS-SUTTON,33.67245,-117.95804
2580,SA,0,1,10,ADAMS-DERBYSHIRE,33.6724,-117.96024
2581,SA,0,1,10,ADAMS-BUSHARD,33.67238,-117.96276
2582,SA,0,1,10,ADAMS-LOTUS,33.67239,-117.96823
2583,SA,0,1,10,ADAMS-MAGNOLIA,33.67239,-117.9723
2584,SA,0,1,10,ADAMS-FELLCLIFF,33.67236,-117.97699
2585,SA,0,1,10,ADAMS-NEWLAND,33.67236,-117.98054
2586,SA,0,1,10,ADAMS-ROTHERT,33.67231,-117.98387
2587,SA,0,1,10,ADAMS-COLDWATER,33.67233,-117.98627
2592,SA,0,1,22,ALGONQUIN-DAVENPORT,33.71612,-118.05001
2593,SA,0,1,22,ALGONQUIN-PEARCE,33.7194,-118.05005
2594,SA,0,1,22,ALGONQUIN-HEIL,33.72202,-118.05009
2595,SA,0,1,23,ALGONQUIN-HEIL,33.72212,-118.05032
2596,SA,0,1,23,ALGONQUIN-BOARDWALK,33.71767,-118.05025
26,SA,0,1,39,ANAHEIM-SANTA ANA,33.83075,-117.91249
2609,SA,0,1,48,BEACH-PACIFIC COAST,33.64898,-117.98808
2610,SA,0,1,48,BEACH-SUNRISE,33.65423,-117.98815
2611,SA,0,1,48,BEACH-ATLANTA,33.65805,-117.98817
2612,SA,0,1,48,BEACH-INDIANAPOLIS,33.66535,-117.98831
2613,SA,0,1,48,BEACH-SEABRIDGE,33.66896,-117.98834
2614,SA,0,2,58,BEACH-ADAMS,33.67269,-117.98837
2615,SA,0,2,58,BEACH-UTICA,33.67628,-117.98844
2616,SA,0,1,48,BEACH-YORKTOWN,33.68017,-117.9885
2617,SA,0,1,48,BEACH-CLAY,33.68261,-117.98853
2618,SA,0,1,48,BEACH-GARFIELD,33.68738,-117.9886
2619,SA,0,1,48,BEACH-GRAZIADIO,33.69132,-117.98865
262,SA,0,1,21,KATELLA-EUCLID,33.803,-117.94103
2620,SA,0,1,48,BEACH-ELLIS,33.69485,-117.98868
2621,SA,0,1,48,BEACH-TAYLOR,33.69742,-117.98891
2622,SA,0,1,48,BEACH-TALBERT,33.70168,-117.98899
2623,SA,0,1,48,BEACH-NEWMAN,33.70447,-117.98902
2624,SA,0,1,48,BEACH-SLATER,33.70786,-117.98906
2625,SA,0,1,48,BEACH-HOLLAND,33.71084,-117.9889
2626,SA,0,1,48,BEACH-BLAYLOCK,33.71354,-117.98891
2627,SA,0,1,48,BEACH-WARNER,33.71673,-117.98895
2628,SA,0,1,48,BEACH-TERRY,33.71999,-117.98899
2629,SA,0,1,48,BEACH-STARK,33.72786,-117.9894
263,SA,0,1,21,KATELLA-CARNELIAN,33.80303,-117.93761
2630,SA,0,1,48,BEACH-MCDONALD,33.72538,-117.98935
2631,SA,0,1,48,BEACH-HEIL,33.72252,-117.98943
2632,SA,0,1,48,BEACH-TERRY,33.71882,-117.98937
2633,SA,0,1,48,BEACH-WARNER,33.71498,-117.98936
2634,SA,0,1,48,BEACH-CYPRESS,33.71304,-117.98928
2635,SA,0,1,48,BEACH-HOLLAND,33.71097,-117.98929
2636,SA,0,1,48,BEACH-SLATER,33.70768,-117.98945
2637,SA,0,1,48,BEACH-LIBERTY,33.70531,-117.98942
2638,SA,0,1,48,BEACH-TALBERT,33.70026,-117.98935
2639,SA,0,1,48,BEACH-TAYLOR,33.69717,-117.98924
264,SA,0,1,21,KATELLA-9TH,33.80307,-117.93315
2640,SA,0,1,48,BEACH-MAIN,33.69315,-117.98907
2641,SA,0,1,48,BEACH-CONSTANTINE,33.68923,-117.98901
2642,SA,0,1,48,BEACH-GARFIELD,33.68577,-117.98897
2643,SA,0,1,48,BEACH-CLAY,33.68273,-117.98891
2644,SA,0,2,59,BEACH-YORKTOWN,33.67907,-117.98887
2645,SA,0,2,59,BEACH-UTICA,33.67552,-117.98883
2646,SA,0,1,48,BEACH-ADAMS,33.67143,-117.98875
2647,SA,0,1,48,BEACH-MEMPHIS,33.66882,-117.98874
2648,SA,0,1,48,BEACH-INDIANAPOLIS,33.66517,-117.98868
2649,SA,0,1,48,BEACH-SUNSET,33.66208,-117.98856
265,SA,0,1,21,KATELLA-CASA VISTA,33.80312,-117.92721
2650,SA,0,1,48,BEACH-ATLANTA,33.65702,-117.98853
2651,SA,0,1,48,BEACH-SUNRISE,33.6539,-117.98842
266,SA,0,1,21,KATELLA-WEST,33.80317,-117.92324
2661,SA,0,1,55,BOLSA-VICTORIA,33.74436,-118.01059
2662,SA,0,1,55,BOLSA-GOLDEN WEST,33.74431,-118.00818
2668,SA,0,1,22,BOLSA CHICA-HEIL,33.72294,-118.04138
2669,SA,0,1,22,BOLSA CHICA-SISSON,33.7271,-118.04143
267,SA,0,1,21,KATELLA-CONVENTION CENTER,33.80314,-117.91962
2672,SA,0,1,23,BOLSA CHICA-EDINGER,33.72943,-118.0418
2673,SA,0,1,23,BOLSA CHICA-OAHU,33.72524,-118.04173
2676,SA,0,1,19,BROOKHURST-BUSHARD,33.6381,-117.96132
2677,SA,0,1,19,BROOKHURST-ENT COUNTY SANITATION,33.64071,-117.95892
2678,SA,0,1,19,BROOKHURST-BANNING,33.64335,-117.95646
2679,SA,0,1,19,BROOKHURST-BAYBREEZE,33.6458,-117.95467
268,SA,0,2,49,KATELLA-HARBOR,33.80314,-117.91479
2680,SA,0,1,19,BROOKHURST-HAMILTON,33.64855,-117.9535
2681,SA,0,1,19,BROOKHURST-HAMILTON,33.65108,-117.95343
2683,SA,0,1,19,BROOKHURST-EFFINGHAM,33.6543,-117.95347
2685,SA,0,1,19,BROOKHURST-ATLANTA,33.65873,-117.95355
2686,SA,0,1,19,BROOKHURST-CLIFF,33.66184,-117.95359
2687,SA,0,1,19,BROOKHURST-INDIANAPOLIS,33.66547,-117.95364
2688,SA,0,1,19,BROOKHURST-STONYBROOK,33.66748,-117.95371
2689,SA,0,1,19,BROOKHURST-MEREDITH,33.66978,-117.9537
269,SA,0,2,49,KATELLA-CLEMENTINE,33.80315,-117.9096
2690,SA,0,1,19,BROOKHURST-ADAMS,33.67306,-117.95375
2691,SA,0,1,19,BROOKHURST-CONSTITUTION,33.67722,-117.95384
2692,SA,0,1,19,BROOKHURST-YORKTOWN,33.67999,-117.95386
2693,SA,0,1,19,BROOKHURST-KAMUELA,33.68251,-117.95389
2694,SA,0,1,19,BROOKHURST-KUKUI,33.6846,-117.9539
2695,SA,0,1,19,BROOKHURST-GARFIELD,33.68633,-117.95428
2696,SA,0,1,19,BROOKHURST-KUKUI,33.68427,-117.95423
2697,SA,0,1,19,BROOKHURST-ENT 19361 RANCHO MOBILE,33.68187,-117.9542
2698,SA,0,1,19,BROOKHURST-YORKTOWN,33.67921,-117.95416
2699,SA,0,1,19,BROOKHURST-CONSTITUTION,33.67658,-117.95411
27,SA,0,1,39,ANAHEIM-WATER,33.82861,-117.91177
270,SA,0,2,49,KATELLA-HASTER,33.80314,-117.90548
2700,SA,0,1,19,BROOKHURST-CONTINENTAL,33.6746,-117.95409
2701,SA,0,1,19,BROOKHURST-ADAMS,33.67084,-117.95404
2702,SA,0,1,19,BROOKHURST-PECK,33.66751,-117.95399
2703,SA,0,1,19,BROOKHURST-INDIANAPOLIS,33.66471,-117.95395
2704,SA,0,1,19,BROOKHURST-CLIFF,33.66163,-117.95392
2706,SA,0,1,19,BROOKHURST-ATLANTA,33.65731,-117.95386
2708,SA,0,1,19,BROOKHURST-VILLA PACIFIC,33.6528,-117.95381
2709,SA,0,1,19,BROOKHURST-HAMILTON,33.65019,-117.95377
271,SA,0,1,21,KATELLA-LEWIS,33.80319,-117.89701
2710,SA,0,1,19,BROOKHURST-HAMILTON,33.64797,-117.954
2711,SA,0,1,19,BROOKHURST-BAYBREEZE,33.64511,-117.95538
2712,SA,0,1,19,BROOKHURST-BANNING,33.6429,-117.95735
2713,SA,0,1,19,BROOKHURST-ENT COUNTY SANITATION,33.64067,-117.95942
2714,SA,0,1,19,BROOKHURST-BUSHARD,33.63764,-117.96219
2715,SA,0,1,38,BROOKHURST-PACIFIC COAST,33.63466,-117.96413
2716,SA,0,1,48,CENTER-GOTHARD,33.73367,-117.99989
2717,SA,0,1,48,CENTER-BELLA TERRA,33.73384,-117.99657
2718,SA,0,1,48,CENTER-HUNTINGTON VILLAGE,33.73379,-117.9934
2719,SA,0,1,48,CENTER-ONE PACIFIC PLAZA,33.73404,-117.99463
2720,SA,0,1,48,CENTER-HUNTINGTON VILLAGE,33.73402,-117.9968
273,SA,0,1,21,KATELLA-STATE COLLEGE,33.80319,-117.88871
274,SA,0,1,21,KATELLA-HOWELL,33.80519,-117.88375
2740,SA,0,1,22,EDINGER-BOLSA CHICA,33.72973,-118.04102
2741,SA,0,1,22,EDINGER-WARREN,33.72975,-118.0373
2742,SA,0,1,22,EDINGER-GRAHAM,33.72977,-118.03292
2743,SA,0,1,22,EDINGER-CLUBHOUSE,33.7298,-118.02894
2744,SA,0,1,22,EDINGER-SPRINGDALE,33.72983,-118.02524
2745,SA,0,1,22,EDINGER-PLYMOUTH,33.72988,-118.02144
2746,SA,0,1,22,EDINGER-STANDISH,33.72985,-118.0178
2747,SA,0,1,22,EDINGER-EDWARDS,33.72988,-118.01503
2748,SA,0,1,22,EDINGER-BELFAST,33.7299,-118.0126
2749,SA,0,1,22,EDINGER-MARJAN,33.72992,-118.00957
275,SA,0,1,21,KATELLA-DOUGLASS,33.80592,-117.87718
2750,SA,0,1,22,EDINGER-GOLDEN WEST,33.72996,-118.0063
2752,SA,0,2,93,EDINGER-GOTHARD,33.73,-117.9998
2753,SA,0,2,93,EDINGER-ENT 7552 CITICORP,33.73,-117.9965
2754,SA,0,2,93,EDINGER-SHER,33.73004,-117.99388
2755,SA,0,2,93,EDINGER-PARKSIDE,33.73004,-117.99199
2756,SA,0,1,45,EDINGER-NEWLAND,33.73013,-117.98276
2757,SA,0,2,94,EDINGER-BEACH,33.73033,-117.99041
2758,SA,0,2,94,EDINGER-SHER,33.73027,-117.99535
2759,SA,0,2,94,EDINGER-GOTHARD,33.73026,-117.99769
276,SA,0,1,21,KATELLA-DOUGLASS,33.80625,-117.87693
2760,SA,0,1,23,EDINGER-GOTHARD,33.73021,-118.00118
2761,SA,0,1,23,EDINGER-GOLDEN WEST,33.73019,-118.00399
2762,SA,0,1,23,EDINGER-GOLDEN WEST,33.73017,-118.00732
2763,SA,0,1,23,EDINGER-SHERBECK,33.73015,-118.01108
2764,SA,0,1,23,EDINGER-EDWARDS,33.73011,-118.01582
2765,SA,0,1,23,EDINGER-STANDISH,33.7301,-118.0191
2766,SA,0,1,23,EDINGER-PLYMOUTH,33.73007,-118.0225
2767,SA,0,1,23,EDINGER-SPRINGDALE,33.73008,-118.02463
2768,SA,0,1,23,EDINGER-CLUBHOUSE,33.72999,-118.02898
2769,SA,0,1,23,EDINGER-GRAHAM,33.72998,-118.03243
277,SA,0,1,21,KATELLA-HOWELL,33.80549,-117.88389
278,SA,0,1,21,KATELLA-STATE COLLEGE,33.80347,-117.88895
2785,SA,0,1,11,GARFIELD-GOLDEN WEST,33.68638,-118.0056
2786,SA,0,1,11,GARFIELD-GOTHARD,33.68643,-118.00138
279,SA,0,1,21,KATELLA-AUBURN,33.80346,-117.89385
28,SA,0,1,39,ANAHEIM-SOUTH,33.82642,-117.91105
280,SA,0,1,21,KATELLA-LEWIS,33.80345,-117.89901
2805,SA,0,2,22,GOLDEN WEST-YORKTOWN,33.67992,-118.00596
2806,SA,0,2,22,GOLDEN WEST-SUMMIT,33.68359,-118.00601
2807,SA,0,1,11,GOLDEN WEST-GARFIELD,33.68792,-118.00612
2808,SA,0,1,11,GOLDEN WEST-ERNEST,33.68982,-118.0061
2809,SA,0,1,11,GOLDEN WEST-ELLIS,33.69432,-118.00617
281,SA,0,2,51,KATELLA-ANAHEIM,33.80349,-117.90717
2810,SA,0,1,11,GOLDEN WEST-ENT 7111 HUNTINGTON,33.69895,-118.00621
2811,SA,0,1,11,GOLDEN WEST-ENT HUNTINGTON BEACH,33.70153,-118.00626
2812,SA,0,1,11,GOLDEN WEST-RIO VISTA,33.70526,-118.00629
2813,SA,0,1,11,GOLDEN WEST-SLATER,33.70876,-118.00639
2814,SA,0,1,11,GOLDEN WEST-BETTY,33.71213,-118.00645
2815,SA,0,1,11,GOLDEN WEST-WARNER,33.7162,-118.00645
2816,SA,0,1,11,GOLDEN WEST-NORMA,33.71859,-118.00653
2817,SA,0,1,11,GOLDEN WEST-HEIL,33.72316,-118.00655
2818,SA,0,1,11,GOLDEN WEST-VALENTINE,33.72464,-118.0066
2819,SA,0,1,11,GOLDEN WEST-STONEWOOD,33.7276,-118.00665
282,SA,0,2,51,KATELLA-CLEMENTINE,33.80348,-117.91131
2820,SA,0,1,11,GOLDEN WEST-EDINGER,33.73067,-118.00668
2821,SA,0,1,11,GOLDEN WEST-ENT 15744 GOLDENWEST,33.73369,-118.00671
2822,SA,0,1,12,GOLDEN WEST-BOLSA,33.74398,-118.00716
2824,SA,0,1,12,GOLDEN WEST-BRUNSWICK,33.73976,-118.0071
2825,SA,0,1,12,GOLDEN WEST-MCFADDEN,33.73688,-118.00707
2826,SA,0,1,12,GOLDEN WEST-ENT 15744 GOLDENWEST,33.73285,-118.00701
2827,SA,0,1,12,GOLDEN WEST-EDINGER,33.72939,-118.00695
2828,SA,0,1,12,GOLDEN WEST-LAURELHURST,33.72643,-118.00691
2829,SA,0,1,12,GOLDEN WEST-HEIL,33.72241,-118.00685
283,SA,0,2,51,KATELLA-HARBOR,33.80342,-117.91587
2830,SA,0,1,12,GOLDEN WEST-LYDIA,33.71848,-118.0068
2831,SA,0,1,12,GOLDEN WEST-WARNER,33.71499,-118.00676
2832,SA,0,1,12,GOLDEN WEST-TUCANA,33.71178,-118.00672
2834,SA,0,1,12,GOLDEN WEST-SLATER,33.70779,-118.00665
2835,SA,0,1,12,GOLDEN WEST-RIO VISTA,33.70467,-118.0066
2836,SA,0,1,12,GOLDEN WEST-ENT HUNTINGTON BEACH,33.70049,-118.00657
2837,SA,0,1,12,GOLDEN WEST-ENT 7111 HUNTINGTON,33.69874,-118.00656
2838,SA,0,1,12,GOLDEN WEST-ELLIS,33.69407,-118.00649
2839,SA,0,1,12,GOLDEN WEST-ERNEST,33.68906,-118.0064
284,SA,0,2,51,KATELLA-CONVENTION CENTER,33.80347,-117.9192
2840,SA,0,1,12,GOLDEN WEST-GARFIELD,33.68599,-118.00635
2841,SA,0,1,12,GOLDEN WEST-SUMMIT,33.68263,-118.00633
2846,SA,0,2,116,GOTHARD-EDINGER,33.73131,-118.00014
2847,SA,0,1,27,GOTHARD-MCFADDEN,33.73717,-117.99935
2848,SA,0,2,116,GOTHARD-CENTER,33.73328,-118.00047
285,SA,0,2,51,KATELLA-DISNEYLAND,33.80343,-117.92453
286,SA,0,1,21,KATELLA-WALNUT,33.80334,-117.92878
287,SA,0,1,21,KATELLA-9TH,33.80338,-117.93249
2872,SA,0,1,22,HEIL-LE GRANDE,33.7225,-118.04762
2873,SA,0,1,22,HEIL-WATERWAY,33.72252,-118.04422
2874,SA,0,1,23,HEIL-BOLSA CHICA,33.72266,-118.04225
2875,SA,0,1,23,HEIL-WATERWAY,33.72268,-118.045
2876,SA,0,1,23,HEIL-LA VILLA,33.72266,-118.04756
2877,SA,0,2,59,HUNTINGTON-PACIFIC COAST,33.65346,-117.99518
2878,SA,0,1,10,MAGNOLIA-PACIFIC COAST,33.64058,-117.97299
2879,SA,0,1,10,MAGNOLIA-BANNING,33.64358,-117.97096
288,SA,0,1,21,KATELLA-EUCLID,33.8033,-117.94234
2880,SA,0,1,10,MAGNOLIA-BERMUDA,33.64676,-117.97081
2881,SA,0,1,10,MAGNOLIA-HAMILTON,33.65086,-117.97084
2882,SA,0,1,10,MAGNOLIA-STILWELL,33.65433,-117.97088
2883,SA,0,1,10,MAGNOLIA-ATLANTA,33.65815,-117.97094
2884,SA,0,1,10,MAGNOLIA-CARROLLTOWN,33.66119,-117.97098
2886,SA,0,1,10,MAGNOLIA-INDIANAPOLIS,33.66538,-117.97103
2887,SA,0,1,10,MAGNOLIA-VILLAGE,33.66742,-117.97107
2888,SA,0,1,10,MAGNOLIA-MEDITERRANEAN,33.66956,-117.97108
2889,SA,0,1,10,MAGNOLIA-ADAMS,33.67294,-117.97113
289,SA,0,1,21,KATELLA-HUMOR,33.80325,-117.94502
2890,SA,0,1,10,MAGNOLIA-PIONEER,33.67498,-117.97115
2891,SA,0,1,10,MAGNOLIA-MADELINE,33.67655,-117.97118
2892,SA,0,1,10,MAGNOLIA-YORKTOWN,33.67985,-117.97123
2893,SA,0,1,10,MAGNOLIA-MOORPARK,33.68152,-117.97125
2894,SA,0,1,10,MAGNOLIA-HYDE PARK,33.68358,-117.97129
2895,SA,0,1,10,MAGNOLIA-GARFIELD,33.6863,-117.97161
2896,SA,0,1,10,MAGNOLIA-HYDE PARK,33.68381,-117.97157
2897,SA,0,1,10,MAGNOLIA-SEAHURST,33.68204,-117.97155
2898,SA,0,1,10,MAGNOLIA-YORKTOWN,33.67911,-117.97151
2899,SA,0,1,10,MAGNOLIA-MADELINE,33.67712,-117.97148
290,SA,0,1,21,KATELLA-NUTWOOD,33.80326,-117.95039
2900,SA,0,1,10,MAGNOLIA-PIONEER,33.67451,-117.97144
2901,SA,0,1,10,MAGNOLIA-ADAMS,33.67157,-117.97139
2902,SA,0,1,10,MAGNOLIA-MEDITERRANEAN,33.66947,-117.97136
2903,SA,0,1,10,MAGNOLIA-BEDEL,33.66735,-117.97132
2904,SA,0,1,10,MAGNOLIA-INDIANAPOLIS,33.66455,-117.97131
2905,SA,0,1,10,MAGNOLIA-CARROLLTOWN,33.66094,-117.97125
2906,SA,0,1,10,MAGNOLIA-ATLANTA,33.65731,-117.97121
2908,SA,0,1,10,MAGNOLIA-HAMILTON,33.65276,-117.97115
2909,SA,0,1,10,MAGNOLIA-HAMILTON,33.65071,-117.97112
291,SA,0,1,21,KATELLA-DALLAS,33.80326,-117.9543
2910,SA,0,1,10,MAGNOLIA-BERMUDA,33.64624,-117.9711
2911,SA,0,1,10,MAGNOLIA-BANNING,33.64317,-117.97155
2912,SA,0,1,20,MAGNOLIA-PACIFIC COAST,33.63916,-117.97362
2919,SA,0,1,11,MAIN-UTICA,33.67601,-118.00148
292,SA,0,1,21,KATELLA-BROOKHURST,33.80324,-117.95913
2929,SA,0,1,11,MAIN-GARFIELD,33.68542,-117.99946
293,SA,0,1,11,KNOTT-THORNTON,33.81341,-118.01064
2930,SA,0,1,11,MAIN-GOTHARD,33.68276,-118.00111
2931,SA,0,1,12,MAIN-YORKTOWN,33.67884,-118.00187
294,SA,0,1,11,KNOTT-BALL,33.81786,-118.01069
2949,SA,0,1,29,MCFADDEN-GOTHARD,33.73731,-117.99838
295,SA,0,1,11,KNOTT-ROME,33.82032,-118.01071
2958,SA,0,1,12,ORANGE-17TH,33.66704,-118.00963
2959,SA,0,1,12,ORANGE-14TH,33.66561,-118.00761
296,SA,0,1,11,KNOTT-ORANGE,33.8249,-118.01076
2960,SA,0,1,12,ORANGE-12TH,33.66448,-118.00593
2961,SA,0,1,12,ORANGE-9TH,33.66272,-118.00361
2962,SA,0,1,12,ORANGE-7TH,33.66128,-118.0016
2963,SA,0,1,12,ORANGE-MAIN,33.65951,-117.99912
2965,SA,0,1,11,ORANGE-1ST,33.65827,-117.99733
2966,SA,0,1,11,ORANGE-MAIN,33.65974,-117.99907
2968,SA,0,1,11,ORANGE-9TH,33.66267,-118.0031
2969,SA,0,1,11,ORANGE-12TH,33.66446,-118.00557
297,SA,0,1,11,KNOTT-DANBROOK,33.82801,-118.0108
2970,SA,0,1,11,ORANGE-14TH,33.66583,-118.0075
2971,SA,0,1,11,ORANGE-17TH,33.66727,-118.00955
2972,SA,0,1,14,PACIFIC COAST-BROOKHURST,33.6357,-117.96462
2973,SA,0,1,14,PACIFIC COAST-MAGNOLIA,33.64031,-117.97405
2974,SA,0,1,14,PACIFIC COAST-NEWLAND,33.64469,-117.98163
2975,SA,0,2,62,PACIFIC COAST-BEACH,33.64918,-117.98887
2977,SA,0,1,14,PACIFIC COAST-HUNTINGTON,33.65333,-117.9958
2979,SA,0,1,14,PACIFIC COAST-1ST,33.65575,-117.99983
298,SA,0,1,11,KNOTT-DEL MONTE,33.82989,-118.01085
2980,SA,0,1,14,PACIFIC COAST-MAIN,33.65701,-118.00168
2981,SA,0,1,14,PACIFIC COAST-6TH,33.65857,-118.00381
2982,SA,0,1,14,PACIFIC COAST-9TH,33.65996,-118.00573
2983,SA,0,1,14,PACIFIC COAST-11TH,33.66123,-118.00738
2984,SA,0,1,14,PACIFIC COAST-14TH,33.66293,-118.00979
2985,SA,0,1,14,PACIFIC COAST-17TH,33.66468,-118.01219
2986,SA,0,1,14,PACIFIC COAST-GOLDEN WEST,33.66871,-118.01757
2987,SA,0,1,14,PACIFIC COAST-WARNER,33.71247,-118.06384
2988,SA,0,1,14,PACIFIC COAST-CORAL CAY,33.71456,-118.06624
2989,SA,0,1,14,PACIFIC COAST-BROADWAY,33.71853,-118.07084
299,SA,0,1,12,KNOTT-LINCOLN,33.83144,-118.01112
2990,SA,0,1,14,PACIFIC COAST-ADMIRALTY,33.72102,-118.0739
2991,SA,0,1,14,PACIFIC COAST-24TH,33.72319,-118.07588
2992,SA,0,1,14,PACIFIC COAST-ANDERSON,33.72483,-118.07838
2993,SA,0,1,14,PACIFIC COAST-MARINER,33.72809,-118.08255
2994,SA,0,1,15,PACIFIC COAST-SEAPOINT,33.68007,-118.03229
2995,SA,0,1,15,PACIFIC COAST-GOLDEN WEST,33.66784,-118.01707
2996,SA,0,1,15,PACIFIC COAST-17TH,33.66438,-118.01224
2997,SA,0,1,15,PACIFIC COAST-14TH,33.66266,-118.00987
2998,SA,0,1,15,PACIFIC COAST-11TH,33.661,-118.00755
2999,SA,0,1,15,PACIFIC COAST-8TH,33.65922,-118.00517
30,SA,0,1,39,ANAHEIM-VERMONT,33.82275,-117.90984
300,SA,0,1,12,KNOTT-DEL MONTE,33.8293,-118.0111
3000,SA,0,1,15,PACIFIC COAST-MAIN,33.65728,-118.00249
3001,SA,0,1,15,PACIFIC COAST-2ND,33.65572,-118.00034
3002,SA,0,1,96,PACIFIC COAST-1ST,33.65435,-117.99821
3003,SA,0,1,15,PACIFIC COAST-1ST,33.65402,-117.99767
3004,SA,0,1,23,PACIFIC COAST-1ST,33.65387,-117.99739
3005,SA,0,2,63,PACIFIC COAST-HUNTINGTON,33.65286,-117.99539
3006,SA,0,2,63,PACIFIC COAST-BEACH,33.65029,-117.99122
3007,SA,0,1,15,PACIFIC COAST-BEACH,33.64747,-117.98695
3008,SA,0,1,15,PACIFIC COAST-NEWLAND,33.64329,-117.97993
3009,SA,0,1,15,PACIFIC COAST-MAGNOLIA,33.639,-117.97233
301,SA,0,1,12,KNOTT-OLINDA,33.82716,-118.01111
3010,SA,0,1,15,PACIFIC COAST-BROOKHURST,33.63425,-117.96288
302,SA,0,1,12,KNOTT-ORANGE,33.82419,-118.01104
303,SA,0,1,12,KNOTT-SAVANNA,33.81958,-118.011
3038,SA,0,2,35,WARNER-PACIFIC COAST,33.71154,-118.06097
3039,SA,0,1,13,WARNER-LOS PATOS,33.71323,-118.05016
304,SA,0,1,12,KNOTT-BALL,33.81754,-118.01097
3040,SA,0,1,13,WARNER-LYNN,33.71522,-118.04539
3041,SA,0,1,13,WARNER-GREEN,33.71516,-118.04323
3042,SA,0,1,13,WARNER-BOLSA CHICA,33.71518,-118.04078
3043,SA,0,1,13,WARNER-LESLIE,33.7152,-118.03777
3044,SA,0,1,13,WARNER-GRAHAM,33.71524,-118.0322
3045,SA,0,1,13,WARNER-REMINGTON,33.71524,-118.02909
3046,SA,0,1,13,WARNER-SPRINGDALE,33.71529,-118.0232
3047,SA,0,1,13,WARNER-ENT 6242 CALIFORNIAN,33.71534,-118.01971
3048,SA,0,1,13,WARNER-EDWARDS,33.71535,-118.0148
3049,SA,0,1,13,WARNER-SCULPIN,33.71548,-118.01174
305,SA,0,1,12,KNOTT-THORNTON,33.81352,-118.01085
3050,SA,0,1,13,WARNER-GOLDEN WEST,33.71541,-118.00607
3051,SA,0,1,13,WARNER-GOTHARD,33.71545,-118.00083
3052,SA,0,1,13,WARNER-NICHOLS,33.71546,-117.99624
3053,SA,0,1,13,WARNER-OAK,33.7155,-117.99383
3054,SA,0,1,13,WARNER-BEACH,33.71548,-117.99065
3055,SA,0,1,13,WARNER-ROTTERDAM,33.71555,-117.98396
3056,SA,0,1,13,WARNER-MAGNOLIA,33.71593,-117.97258
3057,SA,0,1,13,WARNER-ROSS,33.71589,-117.97622
3058,SA,0,1,13,WARNER-NEWLAND,33.71587,-117.98105
3059,SA,0,1,13,WARNER-ROTTERDAM,33.71585,-117.98475
306,SA,0,1,14,KRAEMER-FRONTERA,33.84614,-117.85427
3060,SA,0,1,13,WARNER-BEACH,33.71578,-117.98981
3061,SA,0,1,13,WARNER-OAK,33.71579,-117.99334
3062,SA,0,1,13,WARNER-NICHOLS,33.71578,-117.99628
3063,SA,0,1,13,WARNER-GOTHARD,33.71575,-118.00063
3064,SA,0,1,13,WARNER-GOLDEN WEST,33.71572,-118.00406
3065,SA,0,1,13,WARNER-GOLDEN WEST,33.71567,-118.00745
3066,SA,0,1,13,WARNER-SCULPIN,33.71566,-118.01177
3067,SA,0,1,13,WARNER-EDWARDS,33.71564,-118.01581
3068,SA,0,1,13,WARNER-PINEHURST,33.71561,-118.02141
3069,SA,0,1,13,WARNER-SPRINGDALE,33.71561,-118.02483
3070,SA,0,1,13,WARNER-LARK,33.71555,-118.02834
3071,SA,0,1,13,WARNER-GRAHAM,33.71551,-118.03314
3072,SA,0,1,13,WARNER-PLAZA,33.71553,-118.03779
3073,SA,0,1,13,WARNER-BOLSA CHICA,33.71545,-118.04195
3074,SA,0,1,13,WARNER-LYNN,33.71547,-118.04448
3076,SA,0,2,36,WARNER-ALGONQUIN,33.71455,-118.04991
3077,SA,0,2,36,WARNER-EDGEWATER,33.71179,-118.05478
3078,SA,0,2,36,WARNER-SCEPTRE,33.71177,-118.05756
3079,SA,0,1,12,YORKTOWN-GOLDEN WEST,33.67915,-118.00577
308,SA,0,1,16,KRAEMER-CORONADO,33.85496,-117.85849
3080,SA,0,1,11,YORKTOWN-MAIN,33.67918,-118.00114
3081,SA,0,1,11,YORKTOWN-LAKE,33.67829,-117.99753
3084,SA,0,1,10,YORKTOWN-PACIFIC RANCH,33.67872,-117.99837
3085,SA,0,2,21,YORKTOWN-MAIN,33.67942,-118.00289
3087,SA,0,1,46,GOLDENWEST TRANS CTR DOCK 1,33.73475,-117.99963
3088,SA,0,1,45,GOLDENWEST TRANS CTR DOCK 2,33.73456,-117.99963
3089,SA,0,1,45,GOLDENWEST TRANS CTR DOCK 3,33.73435,-117.99963
309,SA,0,1,16,KRAEMER-MIRALOMA,33.85873,-117.85985
3090,SA,0,1,29,GOLDENWEST TRANS CTR DOCK 4,33.73414,-117.99962
3091,SA,0,1,56,GOLDENWEST TRANS CTR DOCK5,33.73394,-117.99963
3098,SA,0,1,19,CARSON-NORWALK,33.83135,-118.07162
3099,SA,0,1,30,CARSON-CLARETTA,33.83138,-118.06788
31,SA,0,1,39,ANAHEIM-LORRAINE,33.82076,-117.90912
310,SA,0,1,16,KRAEMER-LA JOLLA,33.86184,-117.86109
3101,SA,0,1,30,CARSON (EB)-BLOOMFIELD (OPP),33.8315,-118.06373
3102,SA,0,1,30,CARSON (WB)-BLOOMFIELD (FS),33.83171,-118.06431
3103,SA,0,1,30,CARSON-CLARETTA,33.83161,-118.06817
3105,SA,0,1,19,NORWALK-221ST,33.82712,-118.07175
3106,SA,0,1,19,NORWALK-BINGO CLUB,33.82994,-118.07188
3107,SA,0,1,30,NORWALK-CIVIC CENTER,33.82995,-118.07209
3108,SA,0,1,18,NORWALK-221ST,33.82735,-118.07206
3109,SA,0,1,18,NORWALK-226TH,33.82337,-118.07198
311,SA,0,1,16,KRAEMER-ORANGETHORPE,33.8654,-117.86245
312,SA,0,1,16,KRAEMER-CROWTHER,33.86818,-117.86295
313,SA,0,1,16,KRAEMER-CROWTHER,33.86806,-117.86321
314,SA,0,1,16,KRAEMER-ORANGETHORPE,33.86462,-117.86244
315,SA,0,1,16,KRAEMER-LA JOLLA,33.86128,-117.86116
316,SA,0,1,16,KRAEMER-MIRALOMA,33.85771,-117.85987
317,SA,0,2,31,KRAEMER-CORONADO,33.8542,-117.85859
318,SA,0,1,15,KRAEMER-LA PALMA,33.85144,-117.8576
319,SA,0,1,15,KRAEMER-FRONTERA,33.84591,-117.85446
32,SA,0,1,39,ANAHEIM-BALL,33.81768,-117.90831
320,SA,0,2,61,KRAEMER PLACE-LA PALMA,33.85132,-117.85876
3202,SA,0,1,21,BARRANCA-CULVER,33.68336,-117.8076
321,SA,0,1,21,LA PALMA-MAGNOLIA,33.8467,-117.9758
322,SA,0,1,21,LA PALMA-MAYFLOWER,33.84672,-117.97228
3227,SA,0,1,10,BRYAN-JAMBOREE,33.72473,-117.78951
3228,SA,0,1,10,BRYAN-MARKET,33.72308,-117.78715
3229,SA,0,1,10,BRYAN-EL CAMINO REAL NORTH,33.71987,-117.78246
323,SA,0,1,21,LA PALMA-GILBERT,33.84675,-117.96753
3230,SA,0,2,22,BRYAN-CULVER,33.71547,-117.77607
3231,SA,0,2,22,BRYAN-GURLEY,33.71439,-117.77452
3232,SA,0,2,22,BRYAN-WESTWOOD,33.71256,-117.77188
3233,SA,0,2,22,BRYAN-YALE,33.71031,-117.76819
3234,SA,0,2,22,BRYAN-WESTWOOD,33.71278,-117.77174
3235,SA,0,2,22,BRYAN-COLONIAL,33.71443,-117.77409
3236,SA,0,1,20,BRYAN-CULVER,33.71628,-117.77683
3237,SA,0,1,10,BRYAN-EL CAMINO REAL NORTH,33.72028,-117.78259
3238,SA,0,1,10,BRYAN-MARKET,33.72441,-117.78859
324,SA,0,1,21,LA PALMA-BROOKHURST,33.84691,-117.95874
3246,SA,0,1,12,CAMPUS-UNIVERSITY CENTER,33.64904,-117.83982
3247,SA,0,1,12,CAMPUS-EAST PELTASON,33.64774,-117.83478
3248,SA,0,1,12,CAMPUS-CORNELL,33.64833,-117.83185
3249,SA,0,1,12,CAMPUS-CALIFORNIA,33.64875,-117.82964
325,SA,0,1,21,LA PALMA-FAIRVIEW,33.84689,-117.95198
3250,SA,0,1,12,CAMPUS-CULVER,33.64987,-117.82523
3251,SA,0,1,12,CAMPUS-CALIFORNIA,33.64886,-117.83063
3252,SA,0,1,12,CAMPUS-CORNELL,33.64839,-117.83281
3253,SA,0,1,12,CAMPUS-BERKELEY,33.64796,-117.83485
3254,SA,0,1,12,CAMPUS-UNIVERSITY CENTER,33.64936,-117.83981
326,SA,0,1,21,LA PALMA-FAIRVIEW,33.84692,-117.9497
3262,SA,0,1,12,CULVER-CAMPUS,33.65049,-117.82464
3263,SA,0,1,12,CULVER-HARVARD,33.65432,-117.82694
3264,SA,0,1,12,CULVER-UNIVERSITY,33.65776,-117.82761
3265,SA,0,1,12,CULVER-SANDBURG,33.66258,-117.82745
3266,SA,0,1,12,CULVER-MICHELSON,33.66547,-117.8265
3268,SA,0,1,12,CULVER-SAN LEANDRO,33.67307,-117.81903
3269,SA,0,2,33,CULVER-MAIN,33.6769,-117.8152
327,SA,0,1,21,LA PALMA-ONONDAGA,33.84694,-117.94677
3270,SA,0,2,33,CULVER-ALTON,33.6811,-117.811
3271,SA,0,1,12,CULVER-BARRANCA,33.68431,-117.80781
3272,SA,0,1,12,CULVER-WARNER,33.68853,-117.80367
3273,SA,0,1,12,CULVER-IRVINE CENTER,33.69415,-117.79798
3274,SA,0,1,12,CULVER-DEERFIELD,33.69634,-117.79581
3275,SA,0,1,12,CULVER-LOMA,33.70171,-117.79048
3276,SA,0,1,12,CULVER-WALNUT,33.70504,-117.78715
3277,SA,0,1,12,CULVER-SCOTTSDALE,33.70779,-117.78442
3278,SA,0,1,12,CULVER-ESCUDERO,33.71202,-117.78018
3279,SA,0,1,12,CULVER-FARWELL,33.71425,-117.77789
328,SA,0,1,21,LA PALMA-EUCLID,33.84696,-117.94125
3285,SA,0,1,12,CULVER-BRYAN,33.71555,-117.7772
3286,SA,0,1,12,CULVER-FARWELL,33.71379,-117.77875
3288,SA,0,1,12,CULVER-SCOTTSDALE,33.7079,-117.78478
3289,SA,0,1,12,CULVER-WALNUT,33.7044,-117.78827
329,SA,0,1,21,LA PALMA-LAGUNA,33.84702,-117.93527
3290,SA,0,1,12,CULVER-DEERFIELD,33.69584,-117.79682
3291,SA,0,1,12,CULVER-IRVINE CENTER,33.69167,-117.80094
3292,SA,0,1,12,CULVER-WARNER,33.6879,-117.80474
3293,SA,0,1,12,CULVER-BARRANCA,33.68354,-117.80915
3294,SA,0,2,32,CULVER-ALTON,33.68048,-117.81213
3295,SA,0,1,12,CULVER-MAIN,33.67471,-117.81787
3296,SA,0,1,12,CULVER-SAN LEANDRO,33.673,-117.81952
3298,SA,0,1,12,CULVER-MICHELSON,33.66555,-117.82685
3299,SA,0,1,12,CULVER-ETHEL COPLEN,33.66188,-117.8278
33,SA,0,1,39,ANAHEIM-WINSTON,33.81462,-117.90687
330,SA,0,1,21,LA PALMA-WEST,33.84703,-117.93158
3300,SA,0,1,12,CULVER-UNIVERSITY,33.65687,-117.82798
3301,SA,0,1,12,CULVER-HARVARD,33.65325,-117.82667
331,SA,0,1,21,LA PALMA-CITRON,33.84702,-117.92735
332,SA,0,1,21,LA PALMA-HARBOR,33.84709,-117.92412
333,SA,0,2,60,LA PALMA-LEMON,33.84712,-117.91941
334,SA,0,1,21,LA PALMA-CLAUDINA,33.84713,-117.91693
3348,SA,0,1,12,IRVINE-JAMBOREE,33.73039,-117.78701
3349,SA,0,1,12,IRVINE-CULVER,33.72127,-117.77086
335,SA,0,1,21,LA PALMA-OLIVE,33.84717,-117.91335
3350,SA,0,1,12,IRVINE-PALO LADO,33.71878,-117.76725
336,SA,0,1,21,LA PALMA-PAULINE,33.84718,-117.91086
3360,SA,0,1,12,IRVINE-YALE,33.71487,-117.76126
3361,SA,0,1,12,IRVINE-PALO LADO,33.71917,-117.76754
3362,SA,0,1,12,IRVINE-CULVER,33.72157,-117.77102
3363,SA,0,1,13,IRVINE CENTER-HARVARD,33.70009,-117.80217
3364,SA,0,1,13,IRVINE CENTER-HEARTHSTONE,33.69676,-117.80139
3365,SA,0,1,13,IRVINE CENTER-CULVER,33.69331,-117.79876
3366,SA,0,1,13,IRVINE CENTER-DEERWOOD,33.68977,-117.79362
3367,SA,0,1,13,IRVINE CENTER-YALE,33.68591,-117.78803
3368,SA,0,1,13,IRVINE CENTER-FONTAINE,33.68298,-117.78389
3369,SA,0,2,32,IRVINE CENTER-JEFFREY,33.67912,-117.77848
3370,SA,0,1,13,IRVINE CENTER-ORANGETREE,33.67442,-117.77184
3371,SA,0,1,13,IRVINE CENTER-VALLEY OAK,33.67186,-117.76809
3372,SA,0,1,13,IRVINE CENTER-SAND CANYON,33.66966,-117.765
3373,SA,0,1,13,IRVINE CENTER-ODYSSEY,33.66856,-117.76312
3374,SA,0,1,13,IRVINE CENTER-LAGUNA CANYON,33.66608,-117.75988
3375,SA,0,1,13,IRVINE CENTER-DISCOVERY,33.66461,-117.75768
3376,SA,0,1,13,IRVINE CENTER-BARRANCA,33.65874,-117.75008
3377,SA,0,1,13,IRVINE CENTER-ALTON,33.65492,-117.74903
3378,SA,0,1,13,IRVINE CENTER-SPECTRUM,33.65286,-117.74913
3379,SA,0,1,13,IRVINE CENTER-RESEARCH,33.64431,-117.74491
338,SA,0,1,21,LA PALMA-EAST,33.84715,-117.90515
3380,SA,0,1,13,IRVINE CENTER-HUBBLE,33.64192,-117.74368
3381,SA,0,1,13,IRVINE CENTER-BAKE,33.63699,-117.7403
3382,SA,0,1,13,IRVINE CENTER-TESLA,33.63457,-117.73578
3383,SA,0,1,13,IRVINE CENTER-SCIENTIFIC,33.63255,-117.732
3387,SA,0,1,12,IRVINE CENTER-SCIENTIFIC,33.6331,-117.73224
3388,SA,0,1,12,IRVINE CENTER-TESLA,33.6351,-117.7362
3389,SA,0,1,12,IRVINE CENTER-BAKE,33.63827,-117.74102
339,SA,0,1,21,LA PALMA-BUTTONWOOD,33.84717,-117.90078
3390,SA,0,1,12,IRVINE CENTER-HUBBLE,33.64107,-117.74262
3391,SA,0,1,12,IRVINE CENTER-RESEARCH,33.64393,-117.7443
3392,SA,0,1,12,IRVINE CENTER-PACIFICA,33.65154,-117.7486
3393,SA,0,1,12,IRVINE CENTER-ALTON,33.65584,-117.74878
3394,SA,0,1,12,IRVINE CENTER-GATEWAY,33.65817,-117.74932
3395,SA,0,1,12,IRVINE CENTER-CHARTER,33.66125,-117.75214
3396,SA,0,1,12,IRVINE CENTER-DISCOVERY,33.66489,-117.75733
3397,SA,0,1,12,IRVINE CENTER-LAGUNA CANYON,33.66637,-117.75911
3398,SA,0,1,12,IRVINE CENTER-ODYSSEY,33.66874,-117.7629
3399,SA,0,1,12,IRVINE CENTER-SAND CANYON,33.67091,-117.76598
340,SA,0,1,21,LA PALMA-ANNA,33.84713,-117.8974
3400,SA,0,1,12,IRVINE CENTER-VALLEY OAK,33.67296,-117.76893
3401,SA,0,1,12,IRVINE CENTER-GOLF CLUB,33.67522,-117.77222
3402,SA,0,1,12,IRVINE CENTER-JEFFREY,33.67999,-117.77916
3404,SA,0,1,12,IRVINE CENTER-FONTAINE,33.6831,-117.78362
3405,SA,0,1,12,IRVINE CENTER-YALE,33.6866,-117.78853
3406,SA,0,1,12,IRVINE CENTER-DEERWOOD,33.69037,-117.79401
3407,SA,0,1,12,IRVINE CENTER-BEAR PAW,33.69242,-117.79696
3408,SA,0,1,12,IRVINE CENTER-CULVER,33.69422,-117.79955
3409,SA,0,1,12,IRVINE CENTER-HEARTHSTONE,33.69793,-117.80116
341,SA,0,1,21,LA PALMA-BAXTER,33.84712,-117.89326
3410,SA,0,1,12,IRVINE CENTER-HARVARD,33.7016,-117.80302
342,SA,0,1,21,LA PALMA-STATE COLLEGE,33.84711,-117.88877
3421,SA,0,1,10,JAMBOREE-EL CAMINO REAL,33.72251,-117.79218
343,SA,0,1,21,LA PALMA-WHITTIER,33.84715,-117.88476
3435,SA,0,1,16,JEFFREY-SMOKETREE,33.68271,-117.77553
3436,SA,0,1,16,JEFFREY-THE MEADOWS,33.6864,-117.77174
3437,SA,0,1,19,JEFFREY-THE MEADOWS,33.68642,-117.77214
3438,SA,0,1,19,JEFFREY-SMOKETREE,33.68238,-117.77614
344,SA,0,2,36,LA PALMA-SUNKIST,33.84712,-117.87999
345,SA,0,2,36,LA PALMA-CHANTILLY,33.84714,-117.87526
3459,SA,0,1,21,MAIN-MCDURMOTT WEST,33.69065,-117.86671
346,SA,0,1,21,LA PALMA-BLUE GUM,33.84822,-117.86831
3460,SA,0,1,21,MAIN-RED HILL,33.68902,-117.86438
3461,SA,0,1,21,MAIN-EXECUTIVE PARK,33.68614,-117.8577
3462,SA,0,1,21,MAIN-MACARTHUR,33.68555,-117.85575
3463,SA,0,1,21,MAIN-GILLETTE,33.68461,-117.85113
3464,SA,0,1,21,MAIN-VON KARMAN,33.68393,-117.84723
3465,SA,0,1,21,MAIN-CARTWRIGHT,33.68296,-117.845
3466,SA,0,1,21,MAIN-SIGLO,33.68151,-117.84171
3467,SA,0,1,21,MAIN-UNION,33.67935,-117.83699
3468,SA,0,1,21,MAIN-VENETO,33.67802,-117.83296
3469,SA,0,1,21,MAIN-HARVARD,33.67722,-117.83061
347,SA,0,1,21,LA PALMA-RED GUM,33.84937,-117.86368
3470,SA,0,1,21,MAIN-SAN MATEO,33.67755,-117.8257
3471,SA,0,1,21,MAIN-PASEO WESTPARK,33.67859,-117.82109
3472,SA,0,1,21,MAIN-SAN PAULO,33.67746,-117.81853
3473,SA,0,1,20,MAIN-CULVER,33.67695,-117.81743
3474,SA,0,1,20,MAIN-PASEO WESTPARK,33.67885,-117.82102
3475,SA,0,1,20,MAIN-SAN MATEO,33.67743,-117.82664
3476,SA,0,1,20,MAIN-HARVARD,33.6776,-117.83064
3477,SA,0,1,20,MAIN-VENETO,33.6787,-117.83382
3478,SA,0,1,20,MAIN-UNION,33.67976,-117.83704
3479,SA,0,1,20,MAIN-JAMBOREE,33.68114,-117.84016
348,SA,0,1,21,LA PALMA-KRAEMER,33.85111,-117.85683
3480,SA,0,1,20,MAIN-CARTWRIGHT,33.68329,-117.84501
3481,SA,0,1,20,MAIN-VON KARMAN,33.68451,-117.84834
3483,SA,0,1,20,MAIN-MERCANTILE,33.68526,-117.85279
3484,SA,0,1,20,MAIN-MACARTHUR,33.68585,-117.8559
3485,SA,0,1,20,MAIN-RED HILL,33.6897,-117.86477
3486,SA,0,1,20,MAIN-MCDURMOTT WEST,33.69092,-117.86656
35,SA,0,1,39,ANAHEIM-CERRITOS,33.81075,-117.90621
350,SA,0,1,21,LA PALMA-SHEPARD,33.85242,-117.85162
352,SA,0,1,21,LA PALMA-MILLER,33.85371,-117.84658
353,SA,0,1,21,LA PALMA-GROVE,33.85468,-117.8427
3548,SA,0,1,19,RED HILL-MAIN,33.68975,-117.86398
355,SA,0,1,21,LA PALMA-TUSTIN,33.85537,-117.83695
3550,SA,0,1,19,RED HILL-SKY PARK NORTH,33.69237,-117.85772
3551,SA,0,1,19,RED HILL-MACARTHUR,33.69304,-117.8557
3552,SA,0,1,19,RED HILL-REYNOLDS,33.69556,-117.85302
3553,SA,0,1,19,RED HILL-MCGAW,33.69788,-117.85067
3554,SA,0,1,19,RED HILL-ALTON,33.70035,-117.84827
3555,SA,0,1,19,RED HILL-DEERE,33.70239,-117.84621
3556,SA,0,1,19,RED HILL-ALTON,33.70002,-117.84902
3557,SA,0,1,19,RED HILL-MCGAW,33.6969,-117.85214
3558,SA,0,1,19,RED HILL-REYNOLDS,33.69559,-117.85345
3559,SA,0,1,19,RED HILL-MACARTHUR,33.69368,-117.85535
356,SA,0,1,21,LA PALMA-HAWK,33.85575,-117.83363
3560,SA,0,1,19,RED HILL-MITCHELL NORTH,33.69262,-117.8591
3562,SA,0,1,19,RED HILL-MITCHELL SOUTH,33.69077,-117.86337
3563,SA,0,1,19,RED HILL-MAIN,33.68894,-117.86515
357,SA,0,1,21,LA PALMA-VAN BUREN,33.8581,-117.83084
358,SA,0,1,21,LA PALMA-RICHFIELD,33.85928,-117.82618
359,SA,0,1,21,LA PALMA-FEE ANA,33.85925,-117.823
36,SA,0,1,39,HASTER-KATELLA,33.80211,-117.90679
360,SA,0,1,21,LA PALMA-LAKEVIEW,33.85925,-117.81778
361,SA,0,1,21,LA PALMA-MANASSERO,33.85931,-117.81187
362,SA,0,1,21,LA PALMA-KELLOGG,33.85933,-117.80625
363,SA,0,1,21,LA PALMA-BRASHER,33.85937,-117.79919
3636,SA,0,1,19,WALNUT-HARVARD,33.71058,-117.79684
3637,SA,0,1,19,WALNUT-THE MALL,33.70806,-117.79175
3638,SA,0,1,19,WALNUT-LIME,33.70634,-117.78994
3639,SA,0,1,19,WALNUT-CULVER,33.70428,-117.78723
364,SA,0,1,21,LA PALMA-WESCOM CORPORATE CENTER,33.85969,-117.7936
3640,SA,0,1,19,WALNUT-BUTTERFLY,33.70293,-117.78527
3641,SA,0,1,19,WALNUT-RAVENWOOD,33.70117,-117.78276
3643,SA,0,1,19,WALNUT-YALE,33.69778,-117.77783
3644,SA,0,1,19,WALNUT-RYEWOOD,33.69607,-117.7754
3645,SA,0,1,19,WALNUT-KAZAN,33.69489,-117.77372
3646,SA,0,1,19,WALNUT-AUSTIN,33.6918,-117.77287
3647,SA,0,1,19,WALNUT-WISTERIA,33.68885,-117.77056
3648,SA,0,1,16,WALNUT-WISTERIA,33.68951,-117.77107
3649,SA,0,1,16,WALNUT-AUSTIN,33.69236,-117.77229
365,SA,0,2,35,LA PALMA-IMPERIAL,33.85952,-117.78986
3650,SA,0,1,16,WALNUT-KAZAN,33.69471,-117.77302
3651,SA,0,1,16,WALNUT-HARTFORD,33.69657,-117.77572
3652,SA,0,1,16,WALNUT-YALE,33.69886,-117.77897
3654,SA,0,1,16,WALNUT-RAVENWOOD,33.70146,-117.7827
3655,SA,0,1,16,WALNUT-BUTTERFLY,33.7033,-117.78536
3656,SA,0,1,16,WALNUT-CULVER,33.70544,-117.78845
3657,SA,0,1,16,WALNUT-LIME,33.70686,-117.79013
3658,SA,0,1,16,WALNUT-THE MALL,33.70901,-117.79238
3659,SA,0,1,16,WALNUT-HARVARD,33.71077,-117.79676
366,SA,0,1,21,LA PALMA-EMOGENE,33.86834,-117.7713
3663,SA,0,1,12,WEST PELTASON-@ UCI CRAWFORD HALL,33.64783,-117.84715
3665,SA,0,1,12,WEST PELTASON-MESA,33.64887,-117.84485
3666,SA,0,1,12,WEST PELTASON-MESA,33.64905,-117.84516
3667,SA,0,1,12,WEST PELTASON-@ UCI CRAWFORD HALL,33.64796,-117.84735
367,SA,0,1,21,LA PALMA-POTOMAC,33.87028,-117.76803
3672,SA,0,1,21,WEST YALE LOOP-BARRANCA,33.68214,-117.80645
3679,SA,0,1,10,WESTWOOD-ADAMS,33.70997,-117.77375
3685,SA,0,1,10,YALE-SOUTHWOOD,33.70742,-117.77074
3686,SA,0,1,12,YALE-BRYAN,33.71008,-117.76722
3687,SA,0,1,12,YALE-MONTICELLO,33.71106,-117.76429
3688,SA,0,1,12,YALE-NORTHWOOD,33.71286,-117.76241
3689,SA,0,1,12,YALE-IRVINE,33.71413,-117.76145
369,SA,0,1,21,LA PALMA-LYNWOOD,33.87249,-117.76007
3692,SA,0,1,12,YALE-NORTHWOOD,33.7125,-117.76299
3693,SA,0,1,12,YALE-MONTICELLO,33.71101,-117.76496
370,SA,0,1,19,LA PALMA-YORBA LINDA,33.87459,-117.75134
3705,SA,0,2,60,COLLEGE-IRVINE CENTER,33.67653,-117.77649
371,SA,0,1,19,LA PALMA-JENIFER,33.87354,-117.75615
373,SA,0,1,19,LA PALMA-MARK,33.87107,-117.76632
374,SA,0,1,19,LA PALMA-POTOMAC,33.87008,-117.76972
375,SA,0,1,19,LA PALMA-EMOGENE,33.86821,-117.77187
376,SA,0,1,19,LA PALMA-HONDO,33.8633,-117.77636
377,SA,0,1,19,LA PALMA-ENT 5815 FRIENDLY VILLAGE,33.85978,-117.78882
378,SA,0,1,19,LA PALMA-IMPERIAL,33.85986,-117.79128
379,SA,0,1,19,LA PALMA-WESCOM CORPORATE CENTER,33.85999,-117.79467
3795,SA,0,1,15,COAST-VISTA DEL SOL,33.49314,-117.73539
3796,SA,0,1,15,COAST-10TH,33.49768,-117.73933
3797,SA,0,1,15,COAST-7TH,33.49986,-117.74225
3798,SA,0,1,15,COAST-3RD,33.5024,-117.74421
3799,SA,0,1,15,COAST-CATALINA,33.5041,-117.74544
38,SA,0,1,39,HASTER-ORANGEWOOD,33.79643,-117.90655
380,SA,0,1,19,LA PALMA-BRASHER,33.85962,-117.79947
3800,SA,0,1,15,COAST-WEST,33.50544,-117.74675
3801,SA,0,1,15,COAST-ALISO,33.51066,-117.75168
3802,SA,0,1,15,COAST-WESLEY,33.51441,-117.75561
3803,SA,0,1,15,COAST-ENT 30806 LAGUNA REEF,33.51651,-117.75746
3804,SA,0,1,15,COAST-VICTORIA,33.52136,-117.76195
3805,SA,0,1,15,COAST-SOLANA,33.52371,-117.76495
3806,SA,0,1,15,COAST-MOSS,33.52613,-117.76787
3807,SA,0,1,15,COAST-DIAMOND,33.52762,-117.76966
3808,SA,0,1,15,COAST-PEARL,33.52899,-117.77137
3809,SA,0,1,15,COAST-BLUEBIRD CANYON,33.53018,-117.77277
381,SA,0,1,19,LA PALMA-KELLOGG,33.85959,-117.80704
3810,SA,0,1,15,COAST-MOUNTAIN,33.53174,-117.77469
3811,SA,0,1,15,COAST-BROOKS,33.53355,-117.77643
3812,SA,0,1,15,COAST-ANITA,33.53525,-117.77773
3813,SA,0,1,15,COAST-SAINT ANNS,33.53699,-117.77898
3814,SA,0,1,15,COAST-CLEO,33.53825,-117.77993
3815,SA,0,1,15,COAST-LEGION,33.53958,-117.78103
3816,SA,0,1,15,COAST-LAGUNA,33.54173,-117.78291
3817,SA,0,1,15,COAST-JASMINE,33.54471,-117.79042
3818,SA,0,1,15,COAST-MYRTLE,33.54534,-117.79206
382,SA,0,1,19,LA PALMA-MANASSERO,33.85957,-117.81208
3820,SA,0,1,15,COAST-BEVERLY,33.54773,-117.79781
3823,SA,0,1,15,COAST-VIEJO,33.54895,-117.80136
3825,SA,0,1,15,COAST-ENT EMERALD BAY,33.5532,-117.80863
3826,SA,0,1,15,COAST-ENT IRVINE COVES,33.55596,-117.81438
3829,SA,0,1,15,COAST-ENT IRVINE COVE,33.55539,-117.81387
383,SA,0,1,19,LA PALMA-LAKEVIEW,33.85959,-117.81898
3832,SA,0,1,15,COAST-CRESCENT BAY,33.54904,-117.80221
3833,SA,0,1,15,COAST-CLIFF,33.54831,-117.80036
3835,SA,0,1,15,COAST-CLIFF,33.54694,-117.79611
3837,SA,0,1,15,COAST-MYRTLE,33.54506,-117.79202
3838,SA,0,1,15,COAST-JASMINE,33.54437,-117.79017
3839,SA,0,1,15,COAST-LAGUNA,33.54122,-117.78277
384,SA,0,1,19,LA PALMA-FEE ANA,33.8595,-117.8231
3840,SA,0,1,15,COAST-LEGION,33.53953,-117.78133
3841,SA,0,1,15,COAST-CLEO,33.53804,-117.78005
3842,SA,0,1,15,COAST-SAINT ANNS,33.53653,-117.77894
3843,SA,0,1,15,COAST-OAK,33.53393,-117.77703
3844,SA,0,1,15,COAST-MOUNTAIN,33.53151,-117.77481
3845,SA,0,1,15,COAST-BLUEBIRD CANYON,33.53009,-117.77298
3846,SA,0,1,15,COAST-DIAMOND,33.52717,-117.76956
3847,SA,0,1,15,COAST-MOSS,33.52582,-117.76792
3848,SA,0,1,15,COAST-ROCKLEDGE,33.52325,-117.76479
3849,SA,0,1,15,COAST-SUNSET TERRACE,33.52264,-117.76397
385,SA,0,1,19,LA PALMA-RICHFIELD,33.85949,-117.82651
3850,SA,0,1,15,COAST-NYES,33.52108,-117.76194
3851,SA,0,1,15,COAST-ENT 30781 BLUE,33.51785,-117.75913
3852,SA,0,1,15,COAST-WESLEY,33.51404,-117.75564
3853,SA,0,1,15,COAST-ALISO,33.51072,-117.75228
3854,SA,0,1,15,COAST-BLUFF,33.50533,-117.74694
3855,SA,0,1,15,COAST-TABLE ROCK,33.50331,-117.74519
3856,SA,0,1,15,COAST-SEACLIFF,33.50209,-117.74421
3857,SA,0,1,15,COAST-CIRCLE,33.49955,-117.7422
3858,SA,0,1,15,COAST-POINT,33.49699,-117.73906
3859,SA,0,1,15,COAST-VISTA DEL SOL,33.4923,-117.73455
386,SA,0,1,19,LA PALMA-VAN BUREN,33.85816,-117.83118
3860,SA,0,1,13,EL TORO-CANYON HILLS,33.59549,-117.74911
3861,SA,0,1,13,EL TORO-THE CLUB,33.59345,-117.75007
3863,SA,0,1,13,LAGUNA CANYON-FESTIVAL OF THE ARTS,33.548,-117.78172
3864,SA,0,1,13,LAGUNA CANYON-FRONTAGE,33.54995,-117.78006
3865,SA,0,1,13,LAGUNA CANYON-WOODLAND,33.55215,-117.77723
3866,SA,0,1,13,LAGUNA CANYON-CANYON ACRES,33.55403,-117.77538
3868,SA,0,1,13,LAGUNA CANYON-ENT 2295 LAGUNA CANYON,33.56147,-117.77182
3869,SA,0,1,13,LAGUNA CANYON-STAN OAKS,33.56919,-117.7633
387,SA,0,1,19,LA PALMA-HAWK,33.85626,-117.83323
3870,SA,0,1,13,LAGUNA CANYON-SUN VALLEY,33.57667,-117.7625
3871,SA,0,1,13,LAGUNA CANYON-EL TORO,33.58162,-117.76124
3872,SA,0,1,13,LAGUNA CANYON-ENT 20101 LAGUNA COAST,33.57978,-117.76213
3873,SA,0,1,13,LAGUNA CANYON-SUN VALLEY,33.57719,-117.76266
3874,SA,0,1,13,LAGUNA CANYON-STAN OAKS,33.569,-117.76364
3875,SA,0,1,13,LAGUNA CANYON-ENT 2222 ART INSTITUTE,33.56112,-117.77236
3877,SA,0,1,13,LAGUNA CANYON-CANYON ACRES,33.55357,-117.77608
3878,SA,0,1,13,LAGUNA CANYON-FESTIVAL OF THE ARTS,33.5482,-117.78195
388,SA,0,1,19,LA PALMA-TUSTIN,33.85563,-117.83785
3881,SA,0,2,56,LAGUNA BEACH BUS STATION,33.54487,-117.78271
3882,SA,0,1,11,ALICIA-RAMONA,33.58096,-117.70828
3883,SA,0,1,11,ALICIA-MOULTON,33.58312,-117.70692
3884,SA,0,1,11,ALICIA-ALISO HILLS,33.58669,-117.7037
3886,SA,0,1,11,ALICIA-PASEO DE VALENCIA,33.59246,-117.69848
3887,SA,0,1,11,ALICIA-WILKES,33.59604,-117.69531
3888,SA,0,1,11,ALICIA-COSTEAU,33.59972,-117.69182
389,SA,0,1,19,LA PALMA-FOUNTAIN,33.85462,-117.84392
3890,SA,0,1,11,ALICIA-HON,33.60137,-117.69163
3891,SA,0,1,11,ALICIA-COSTEAU,33.5992,-117.6925
3892,SA,0,1,11,ALICIA-WILKES,33.59583,-117.69606
3893,SA,0,1,11,ALICIA-PASEO DE VALENCIA,33.5916,-117.69953
3894,SA,0,1,11,ALICIA-ALISO HILLS,33.58682,-117.70402
3895,SA,0,1,11,ALICIA-MOULTON,33.58429,-117.70651
3898,SA,0,1,7,AVD DE LA CARLOTA-EL TORO,33.61376,-117.70858
3899,SA,0,1,7,AVD DE LA CARLOTA-SOUTH ENTRANCE,33.61157,-117.70484
39,SA,0,1,39,HASTER-CLIFFWOOD,33.79427,-117.90646
390,SA,0,1,19,LA PALMA-MILLER,33.85379,-117.84735
3900,SA,0,1,7,AVD DE LA CARLOTA-ENT 24231 OAKBROOK,33.60871,-117.70078
3901,SA,0,1,16,CABOT-OSO,33.57973,-117.67411
3903,SA,0,1,16,CABOT-LA PAZ,33.59584,-117.67613
3904,SA,0,1,16,CABOT-LA PAZ,33.59641,-117.67679
3905,SA,0,1,16,CABOT-PASEO DE VALENCIA,33.59066,-117.67455
3906,SA,0,1,16,CABOT-NELLIE GAIL,33.58727,-117.67432
3907,SA,0,1,16,CABOT-EL PASEO,33.58288,-117.67435
3908,SA,0,1,16,CABOT-OSO,33.58059,-117.67447
3909,SA,0,1,16,CABOT-RAPID FALLS,33.56579,-117.67675
391,SA,0,1,19,LA PALMA-OCEAN,33.85335,-117.84895
3910,SA,0,3,48,EL TORO-PASEO DE VALENCIA,33.61249,-117.71243
3912,SA,0,1,16,LA PAZ-PASEO DE VALENCIA,33.59261,-117.68375
3913,SA,0,1,16,LA PAZ-MCINTYRE,33.59602,-117.67922
3915,SA,0,1,16,LA PAZ-MCINTYRE,33.59595,-117.68022
3916,SA,0,1,16,LA PAZ-CHAMPLAIN,33.59448,-117.68283
3918,SA,0,1,12,MOULTON-NELLIE GAIL,33.57042,-117.69974
3919,SA,0,1,12,MOULTON-OSO,33.57308,-117.70056
3920,SA,0,1,12,MOULTON-LA PAZ,33.57668,-117.70235
3921,SA,0,1,12,MOULTON-MANDEVILLE,33.58068,-117.70373
3922,SA,0,1,12,MOULTON-ALICIA,33.58458,-117.70762
3923,SA,0,1,12,MOULTON-RIDGE ROUTE,33.62145,-117.73119
3924,SA,0,1,12,MOULTON-EL PACIFICO,33.62564,-117.73049
3926,SA,0,1,12,MOULTON-LAKE FOREST,33.62829,-117.73003
3927,SA,0,1,13,MOULTON-LAKE FOREST,33.629,-117.73028
3929,SA,0,1,13,MOULTON-LAKE HILLS CHURCH,33.6256,-117.73085
393,SA,0,3,49,LA PALMA-KRAEMER,33.85106,-117.85806
3930,SA,0,1,13,MOULTON-RIDGE ROUTE,33.62059,-117.73171
3931,SA,0,1,13,MOULTON-VIA LOMAS,33.58478,-117.7084
