route_id,stop_id,service_id,direction_id,avghdwy,stdev_hdwy,stop_name,stop_lat,stop_lon,route_short_name,route_long_name
47S-I,P02956,W,1,,,PRIVATE R/WAY AT FIRST AVENUE STATION,40.435245,-79.996595,47S,SOUTH HILLS VILLAGE - DOWNTOWN VIA OVERBROOK - I
47L-I,P02956,W,1,,,PRIVATE R/WAY AT FIRST AVENUE STATION,40.435245,-79.996595,47L,LIBRARY - DOWNTOWN VIA OVERBROOK - I
42S-IB,P02956,W,1,,,PRIVATE R/WAY AT FIRST AVENUE STATION,40.435245,-79.996595,42S,S HILLS VILLAGE - DOWNTOWN VIA BEECHVIEW - IB
42S-I,P02956,W,1,,,PRIVATE R/WAY AT FIRST AVENUE STATION,40.435245,-79.996595,42S,S HILLS VILLAGE - DOWNTOWN VIA BEECHVIEW - I
42C-I,P02956,W,1,,,PRIVATE R/WAY AT FIRST AVENUE STATION,40.435245,-79.996595,42C,CASTLE SHANNON - DOWNTOWN VIA BEECHVIEW - I
052-I,P02956,W,1,,,PRIVATE R/WAY AT FIRST AVENUE STATION,40.435245,-79.996595,052,ALLENTOWN - GATEWAY CENTER VIA ALLENTOWN - I
47L-I,P02956,U,1,,,PRIVATE R/WAY AT FIRST AVENUE STATION,40.435245,-79.996595,47L,LIBRARY - DOWNTOWN VIA OVERBROOK - I
42S-I,P02956,U,1,,,PRIVATE R/WAY AT FIRST AVENUE STATION,40.435245,-79.996595,42S,S HILLS VILLAGE - DOWNTOWN VIA BEECHVIEW - I
47L-I,P02956,S,1,,,PRIVATE R/WAY AT FIRST AVENUE STATION,40.435245,-79.996595,47L,LIBRARY - DOWNTOWN VIA OVERBROOK - I
42S-I,P02956,S,1,,,PRIVATE R/WAY AT FIRST AVENUE STATION,40.435245,-79.996595,42S,S HILLS VILLAGE - DOWNTOWN VIA BEECHVIEW - I
47S-O,P02957,W,0,,,PRIVATE R/WAY AT FIRST AVENUE STATION,40.435279,-79.996689,47S,SOUTH HILLS VILLAGE - VIA OVERBROOK - O
47L-O,P02957,W,0,,,PRIVATE R/WAY AT FIRST AVENUE STATION,40.435279,-79.996689,47L,LIBRARY - LIBRARY VIA OVERBROOK - O
42S-OB,P02957,W,0,,,PRIVATE R/WAY AT FIRST AVENUE STATION,40.435279,-79.996689,42S,S HILLS VILLAGE - S HILLS VILLAGE VIA BEECHVIEW - OB
42S-O,P02957,W,0,,,PRIVATE R/WAY AT FIRST AVENUE STATION,40.435279,-79.996689,42S,S HILLS VILLAGE - S HILLS VILLAGE VIA BEECHVIEW - O
42C-O,P02957,W,0,,,PRIVATE R/WAY AT FIRST AVENUE STATION,40.435279,-79.996689,42C,CASTLE SHANNON - CASTLE SHANNON VIA BEECHVIEW - O
052-O,P02957,W,0,,,PRIVATE R/WAY AT FIRST AVENUE STATION,40.435279,-79.996689,052,ALLENTOWN - S HILLS JUNCTION VIA ALLENTOWN - O
47L-O,P02957,U,0,,,PRIVATE R/WAY AT FIRST AVENUE STATION,40.435279,-79.996689,47L,LIBRARY - LIBRARY VIA OVERBROOK - O
42S-O,P02957,U,0,,,PRIVATE R/WAY AT FIRST AVENUE STATION,40.435279,-79.996689,42S,S HILLS VILLAGE - S HILLS VILLAGE VIA BEECHVIEW - O
47L-O,P02957,S,0,,,PRIVATE R/WAY AT FIRST AVENUE STATION,40.435279,-79.996689,47L,LIBRARY - LIBRARY VIA OVERBROOK - O
42S-O,P02957,S,0,,,PRIVATE R/WAY AT FIRST AVENUE STATION,40.435279,-79.996689,42S,S HILLS VILLAGE - S HILLS VILLAGE VIA BEECHVIEW - O
47S-I,P03510,W,1,,,SUBWAY AT STEEL PLAZA STATION,40.439814,-79.995081,47S,SOUTH HILLS VILLAGE - DOWNTOWN VIA OVERBROOK - I
47L-I,P03510,W,1,,,SUBWAY AT STEEL PLAZA STATION,40.439814,-79.995081,47L,LIBRARY - DOWNTOWN VIA OVERBROOK - I
42S-IB,P03510,W,1,,,SUBWAY AT STEEL PLAZA STATION,40.439814,-79.995081,42S,S HILLS VILLAGE - DOWNTOWN VIA BEECHVIEW - IB
42S-I,P03510,W,1,,,SUBWAY AT STEEL PLAZA STATION,40.439814,-79.995081,42S,S HILLS VILLAGE - DOWNTOWN VIA BEECHVIEW - I
42C-I,P03510,W,1,,,SUBWAY AT STEEL PLAZA STATION,40.439814,-79.995081,42C,CASTLE SHANNON - DOWNTOWN VIA BEECHVIEW - I
052-I,P03510,W,1,,,SUBWAY AT STEEL PLAZA STATION,40.439814,-79.995081,052,ALLENTOWN - GATEWAY CENTER VIA ALLENTOWN - I
47L-I,P03510,U,1,,,SUBWAY AT STEEL PLAZA STATION,40.439814,-79.995081,47L,LIBRARY - DOWNTOWN VIA OVERBROOK - I
42S-I,P03510,U,1,,,SUBWAY AT STEEL PLAZA STATION,40.439814,-79.995081,42S,S HILLS VILLAGE - DOWNTOWN VIA BEECHVIEW - I
47L-I,P03510,S,1,,,SUBWAY AT STEEL PLAZA STATION,40.439814,-79.995081,47L,LIBRARY - DOWNTOWN VIA OVERBROOK - I
42S-I,P03510,S,1,,,SUBWAY AT STEEL PLAZA STATION,40.439814,-79.995081,42S,S HILLS VILLAGE - DOWNTOWN VIA BEECHVIEW - I
47S-O,P03520,W,0,,,SUBWAY AT STEEL PLAZA STATION,40.439807,-79.995172,47S,SOUTH HILLS VILLAGE - VIA OVERBROOK - O
47L-O,P03520,W,0,,,SUBWAY AT STEEL PLAZA STATION,40.439807,-79.995172,47L,LIBRARY - LIBRARY VIA OVERBROOK - O
42S-OB,P03520,W,0,,,SUBWAY AT STEEL PLAZA STATION,40.439807,-79.995172,42S,S HILLS VILLAGE - S HILLS VILLAGE VIA BEECHVIEW - OB
42S-O,P03520,W,0,,,SUBWAY AT STEEL PLAZA STATION,40.439807,-79.995172,42S,S HILLS VILLAGE - S HILLS VILLAGE VIA BEECHVIEW - O
42C-O,P03520,W,0,,,SUBWAY AT STEEL PLAZA STATION,40.439807,-79.995172,42C,CASTLE SHANNON - CASTLE SHANNON VIA BEECHVIEW - O
052-O,P03520,W,0,,,SUBWAY AT STEEL PLAZA STATION,40.439807,-79.995172,052,ALLENTOWN - S HILLS JUNCTION VIA ALLENTOWN - O
47L-O,P03520,U,0,,,SUBWAY AT STEEL PLAZA STATION,40.439807,-79.995172,47L,LIBRARY - LIBRARY VIA OVERBROOK - O
42S-O,P03520,U,0,,,SUBWAY AT STEEL PLAZA STATION,40.439807,-79.995172,42S,S HILLS VILLAGE - S HILLS VILLAGE VIA BEECHVIEW - O
47L-O,P03520,S,0,,,SUBWAY AT STEEL PLAZA STATION,40.439807,-79.995172,47L,LIBRARY - LIBRARY VIA OVERBROOK - O
42S-O,P03520,S,0,,,SUBWAY AT STEEL PLAZA STATION,40.439807,-79.995172,42S,S HILLS VILLAGE - S HILLS VILLAGE VIA BEECHVIEW - O
47S-I,P03530,W,1,,,SUBWAY AT WOOD ST STATION,40.442166,-79.999602,47S,SOUTH HILLS VILLAGE - DOWNTOWN VIA OVERBROOK - I
47L-I,P03530,W,1,,,SUBWAY AT WOOD ST STATION,40.442166,-79.999602,47L,LIBRARY - DOWNTOWN VIA OVERBROOK - I
42S-IB,P03530,W,1,,,SUBWAY AT WOOD ST STATION,40.442166,-79.999602,42S,S HILLS VILLAGE - DOWNTOWN VIA BEECHVIEW - IB
42S-I,P03530,W,1,,,SUBWAY AT WOOD ST STATION,40.442166,-79.999602,42S,S HILLS VILLAGE - DOWNTOWN VIA BEECHVIEW - I
42C-I,P03530,W,1,,,SUBWAY AT WOOD ST STATION,40.442166,-79.999602,42C,CASTLE SHANNON - DOWNTOWN VIA BEECHVIEW - I
052-I,P03530,W,1,,,SUBWAY AT WOOD ST STATION,40.442166,-79.999602,052,ALLENTOWN - GATEWAY CENTER VIA ALLENTOWN - I
47L-I,P03530,U,1,,,SUBWAY AT WOOD ST STATION,40.442166,-79.999602,47L,LIBRARY - DOWNTOWN VIA OVERBROOK - I
42S-I,P03530,U,1,,,SUBWAY AT WOOD ST STATION,40.442166,-79.999602,42S,S HILLS VILLAGE - DOWNTOWN VIA BEECHVIEW - I
47L-I,P03530,S,1,,,SUBWAY AT WOOD ST STATION,40.442166,-79.999602,47L,LIBRARY - DOWNTOWN VIA OVERBROOK - I
42S-I,P03530,S,1,,,SUBWAY AT WOOD ST STATION,40.442166,-79.999602,42S,S HILLS VILLAGE - DOWNTOWN VIA BEECHVIEW - I
47S-O,P03540,W,0,,,SUBWAY AT WOOD ST STATION,40.44213,-79.999645,47S,SOUTH HILLS VILLAGE - VIA OVERBROOK - O
47L-O,P03540,W,0,,,SUBWAY AT WOOD ST STATION,40.44213,-79.999645,47L,LIBRARY - LIBRARY VIA OVERBROOK - O
42S-OB,P03540,W,0,,,SUBWAY AT WOOD ST STATION,40.44213,-79.999645,42S,S HILLS VILLAGE - S HILLS VILLAGE VIA BEECHVIEW - OB
42S-O,P03540,W,0,,,SUBWAY AT WOOD ST STATION,40.44213,-79.999645,42S,S HILLS VILLAGE - S HILLS VILLAGE VIA BEECHVIEW - O
42C-O,P03540,W,0,,,SUBWAY AT WOOD ST STATION,40.44213,-79.999645,42C,CASTLE SHANNON - CASTLE SHANNON VIA BEECHVIEW - O
052-O,P03540,W,0,,,SUBWAY AT WOOD ST STATION,40.44213,-79.999645,052,ALLENTOWN - S HILLS JUNCTION VIA ALLENTOWN - O
47L-O,P03540,U,0,,,SUBWAY AT WOOD ST STATION,40.44213,-79.999645,47L,LIBRARY - LIBRARY VIA OVERBROOK - O
42S-O,P03540,U,0,,,SUBWAY AT WOOD ST STATION,40.44213,-79.999645,42S,S HILLS VILLAGE - S HILLS VILLAGE VIA BEECHVIEW - O
47L-O,P03540,S,0,,,SUBWAY AT WOOD ST STATION,40.44213,-79.999645,47L,LIBRARY - LIBRARY VIA OVERBROOK - O
42S-O,P03540,S,0,,,SUBWAY AT WOOD ST STATION,40.44213,-79.999645,42S,S HILLS VILLAGE - S HILLS VILLAGE VIA BEECHVIEW - O
42S-OB,P70020,W,0,,,WOOD ST STATION BEECHVIEW,40.442066,-79.999402,42S,S HILLS VILLAGE - S HILLS VILLAGE VIA BEECHVIEW - OB
42S-O,P70020,W,0,15.8,5.3,WOOD ST STATION BEECHVIEW,40.442066,-79.999402,42S,S HILLS VILLAGE - S HILLS VILLAGE VIA BEECHVIEW - O
42S-IB,P70020,W,1,,,WOOD ST STATION BEECHVIEW,40.442066,-79.999402,42S,S HILLS VILLAGE - DOWNTOWN VIA BEECHVIEW - IB
42S-I,P70020,W,1,16.1,5.6,WOOD ST STATION BEECHVIEW,40.442066,-79.999402,42S,S HILLS VILLAGE - DOWNTOWN VIA BEECHVIEW - I
42C-O,P70020,W,0,10.0,0.2,WOOD ST STATION BEECHVIEW,40.442066,-79.999402,42C,CASTLE SHANNON - CASTLE SHANNON VIA BEECHVIEW - O
42C-I,P70020,W,1,10.0,0.2,WOOD ST STATION BEECHVIEW,40.442066,-79.999402,42C,CASTLE SHANNON - DOWNTOWN VIA BEECHVIEW - I
052-O,P70020,W,0,44.4,5.5,WOOD ST STATION BEECHVIEW,40.442066,-79.999402,052,ALLENTOWN - S HILLS JUNCTION VIA ALLENTOWN - O
052-I,P70020,W,1,46.4,5.4,WOOD ST STATION BEECHVIEW,40.442066,-79.999402,052,ALLENTOWN - GATEWAY CENTER VIA ALLENTOWN - I
42S-O,P70020,U,0,25.0,0.0,WOOD ST STATION BEECHVIEW,40.442066,-79.999402,42S,S HILLS VILLAGE - S HILLS VILLAGE VIA BEECHVIEW - O
42S-I,P70020,U,1,25.5,3.7,WOOD ST STATION BEECHVIEW,40.442066,-79.999402,42S,S HILLS VILLAGE - DOWNTOWN VIA BEECHVIEW - I
42S-O,P70020,S,0,18.2,2.2,WOOD ST STATION BEECHVIEW,40.442066,-79.999402,42S,S HILLS VILLAGE - S HILLS VILLAGE VIA BEECHVIEW - O
42S-I,P70020,S,1,18.5,3.1,WOOD ST STATION BEECHVIEW,40.442066,-79.999402,42S,S HILLS VILLAGE - DOWNTOWN VIA BEECHVIEW - I
47S-O,P70021,W,0,10.5,3.5,WOOD ST STATION OVERBROOK,40.442266,-79.999502,47S,SOUTH HILLS VILLAGE - VIA OVERBROOK - O
47S-I,P70021,W,1,10.7,6.5,WOOD ST STATION OVERBROOK,40.442266,-79.999502,47S,SOUTH HILLS VILLAGE - DOWNTOWN VIA OVERBROOK - I
47L-O,P70021,W,0,20.3,9.3,WOOD ST STATION OVERBROOK,40.442266,-79.999502,47L,LIBRARY - LIBRARY VIA OVERBROOK - O
47L-I,P70021,W,1,19.6,8.6,WOOD ST STATION OVERBROOK,40.442266,-79.999502,47L,LIBRARY - DOWNTOWN VIA OVERBROOK - I
47L-O,P70021,U,0,50.0,0.0,WOOD ST STATION OVERBROOK,40.442266,-79.999502,47L,LIBRARY - LIBRARY VIA OVERBROOK - O
47L-I,P70021,U,1,50.0,0.0,WOOD ST STATION OVERBROOK,40.442266,-79.999502,47L,LIBRARY - DOWNTOWN VIA OVERBROOK - I
47L-O,P70021,S,0,34.9,0.9,WOOD ST STATION OVERBROOK,40.442266,-79.999502,47L,LIBRARY - LIBRARY VIA OVERBROOK - O
47L-I,P70021,S,1,34.9,0.9,WOOD ST STATION OVERBROOK,40.442266,-79.999502,47L,LIBRARY - DOWNTOWN VIA OVERBROOK - I
42S-IB,S06280,W,1,,,BELTZHOOVER AVE AT WARRINGTON FS,40.421419,-79.997428,42S,S HILLS VILLAGE - DOWNTOWN VIA BEECHVIEW - IB
42S-OB,S06290,W,0,,,BELTZHOOVER AVE AT WARRINGTON NS,40.421438,-79.997318,42S,S HILLS VILLAGE - S HILLS VILLAGE VIA BEECHVIEW - OB
052-O,S21700,W,0,,,HABERMAN RAMP AT HARWOOD STEPS,40.421565,-80.003714,052,ALLENTOWN - S HILLS JUNCTION VIA ALLENTOWN - O
052-I,S21705,W,1,,,HABERMAN RAMP OPP HARWOOD STEPS,40.421518,-80.003553,052,ALLENTOWN - GATEWAY CENTER VIA ALLENTOWN - I
052-I,S35470,W,1,,,NEW ARLINGTON AVE AT NEWTON FS,40.42648,-79.993255,052,ALLENTOWN - GATEWAY CENTER VIA ALLENTOWN - I
052-O,S35480,W,0,,,NEW ARLINGTON AVE OPP NEWTON,40.426356,-79.993126,052,ALLENTOWN - S HILLS JUNCTION VIA ALLENTOWN - O
052-I,S35490,W,1,,,NEW ARLINGTON AVE AT ROANOKE FS,40.426004,-79.991462,052,ALLENTOWN - GATEWAY CENTER VIA ALLENTOWN - I
052-O,S35500,W,0,,,NEW ARLINGTON AVE AT #916,40.427198,-79.994443,052,ALLENTOWN - S HILLS JUNCTION VIA ALLENTOWN - O
052-I,S35510,W,1,,,NEW ARLINGTON AVE AT #1047,40.423443,-79.989104,052,ALLENTOWN - GATEWAY CENTER VIA ALLENTOWN - I
052-O,S35520,W,0,,,NEW ARLINGTON AVE OPP #1047 FS,40.423499,-79.989192,052,ALLENTOWN - S HILLS JUNCTION VIA ALLENTOWN - O
052-O,S35600,W,0,,,NEW ARLINGTON AVE AT WILLIAM FS,40.427872,-79.996344,052,ALLENTOWN - S HILLS JUNCTION VIA ALLENTOWN - O
052-I,S35610,W,1,,,NEW ARLINGTON AVE OPP WILLIAM FS,40.428334,-79.996888,052,ALLENTOWN - GATEWAY CENTER VIA ALLENTOWN - I
42S-IB,S42240,W,1,,,SOUTH BUSWAY AT PALM GARDEN,40.416613,-80.011801,42S,S HILLS VILLAGE - DOWNTOWN VIA BEECHVIEW - IB
42S-I,S42240,W,1,,,SOUTH BUSWAY AT PALM GARDEN,40.416613,-80.011801,42S,S HILLS VILLAGE - DOWNTOWN VIA BEECHVIEW - I
42C-I,S42240,W,1,,,SOUTH BUSWAY AT PALM GARDEN,40.416613,-80.011801,42C,CASTLE SHANNON - DOWNTOWN VIA BEECHVIEW - I
42S-I,S42240,U,1,,,SOUTH BUSWAY AT PALM GARDEN,40.416613,-80.011801,42S,S HILLS VILLAGE - DOWNTOWN VIA BEECHVIEW - I
42S-I,S42240,S,1,,,SOUTH BUSWAY AT PALM GARDEN,40.416613,-80.011801,42S,S HILLS VILLAGE - DOWNTOWN VIA BEECHVIEW - I
42S-OB,S42400,W,0,,,SOUTH BUSWAY AT PALM GARDEN,40.41603,-80.011831,42S,S HILLS VILLAGE - S HILLS VILLAGE VIA BEECHVIEW - OB
42S-O,S42400,W,0,,,SOUTH BUSWAY AT PALM GARDEN,40.41603,-80.011831,42S,S HILLS VILLAGE - S HILLS VILLAGE VIA BEECHVIEW - O
42C-O,S42400,W,0,,,SOUTH BUSWAY AT PALM GARDEN,40.41603,-80.011831,42C,CASTLE SHANNON - CASTLE SHANNON VIA BEECHVIEW - O
42S-O,S42400,U,0,,,SOUTH BUSWAY AT PALM GARDEN,40.41603,-80.011831,42S,S HILLS VILLAGE - S HILLS VILLAGE VIA BEECHVIEW - O
42S-O,S42400,S,0,,,SOUTH BUSWAY AT PALM GARDEN,40.41603,-80.011831,42S,S HILLS VILLAGE - S HILLS VILLAGE VIA BEECHVIEW - O
052-I,S47500,W,1,,,WARRINGTON AVE AT ALLEN,40.421736,-79.993809,052,ALLENTOWN - GATEWAY CENTER VIA ALLENTOWN - I
052-O,S47510,W,0,,,WARRINGTON AVE AT ALLEN,40.421848,-79.993548,052,ALLENTOWN - S HILLS JUNCTION VIA ALLENTOWN - O
052-I,S47530,W,1,,,WARRINGTON AVE AT MILLBRIDGE,40.421709,-79.996588,052,ALLENTOWN - GATEWAY CENTER VIA ALLENTOWN - I
052-O,S47540,W,0,44.4,5.5,WARRINGTON AVE AT BELTZHOOVER,40.421685,-79.997539,052,ALLENTOWN - S HILLS JUNCTION VIA ALLENTOWN - O
052-I,S47560,W,1,46.4,5.4,WARRINGTON AVE AT CURTIN,40.420991,-79.999057,052,ALLENTOWN - GATEWAY CENTER VIA ALLENTOWN - I
052-I,S47580,W,1,,,WARRINGTON AVE AT ESTELLA,40.420996,-80.000164,052,ALLENTOWN - GATEWAY CENTER VIA ALLENTOWN - I
052-O,S47590,W,0,,,WARRINGTON AVE AT ESTELLA,40.421062,-80.000426,052,ALLENTOWN - S HILLS JUNCTION VIA ALLENTOWN - O
052-O,S47610,W,0,,,WARRINGTON AVE AT HABERMAN,40.421079,-80.002171,052,ALLENTOWN - S HILLS JUNCTION VIA ALLENTOWN - O
052-O,S47710,W,0,,,WARRINGTON AVE OPP CURTIN,40.42125,-79.998829,052,ALLENTOWN - S HILLS JUNCTION VIA ALLENTOWN - O
47S-O,TP0870,W,0,10.5,3.5,VILLAGE AT TERMINAL-NO STOP,40.339253,-80.053505,47S,SOUTH HILLS VILLAGE - VIA OVERBROOK - O
47S-I,TP0870,W,1,10.6,6.5,VILLAGE AT TERMINAL-NO STOP,40.339253,-80.053505,47S,SOUTH HILLS VILLAGE - DOWNTOWN VIA OVERBROOK - I
42S-OB,TP0870,W,0,,,VILLAGE AT TERMINAL-NO STOP,40.339253,-80.053505,42S,S HILLS VILLAGE - S HILLS VILLAGE VIA BEECHVIEW - OB
42S-O,TP0870,W,0,15.7,5.2,VILLAGE AT TERMINAL-NO STOP,40.339253,-80.053505,42S,S HILLS VILLAGE - S HILLS VILLAGE VIA BEECHVIEW - O
42S-IB,TP0870,W,1,,,VILLAGE AT TERMINAL-NO STOP,40.339253,-80.053505,42S,S HILLS VILLAGE - DOWNTOWN VIA BEECHVIEW - IB
42S-I,TP0870,W,1,16.1,5.5,VILLAGE AT TERMINAL-NO STOP,40.339253,-80.053505,42S,S HILLS VILLAGE - DOWNTOWN VIA BEECHVIEW - I
42S-O,TP0870,U,0,25.0,0.2,VILLAGE AT TERMINAL-NO STOP,40.339253,-80.053505,42S,S HILLS VILLAGE - S HILLS VILLAGE VIA BEECHVIEW - O
42S-I,TP0870,U,1,25.5,3.7,VILLAGE AT TERMINAL-NO STOP,40.339253,-80.053505,42S,S HILLS VILLAGE - DOWNTOWN VIA BEECHVIEW - I
42S-O,TP0870,S,0,18.2,2.2,VILLAGE AT TERMINAL-NO STOP,40.339253,-80.053505,42S,S HILLS VILLAGE - S HILLS VILLAGE VIA BEECHVIEW - O
42S-I,TP0870,S,1,18.5,3.1,VILLAGE AT TERMINAL-NO STOP,40.339253,-80.053505,42S,S HILLS VILLAGE - DOWNTOWN VIA BEECHVIEW - I
42S-OB,TP0880,W,0,,,NEW ARLINGTON AT END SINGLE TRACK-NO STOP,40.429202,-79.998214,42S,S HILLS VILLAGE - S HILLS VILLAGE VIA BEECHVIEW - OB
42S-IB,TP0880,W,1,,,NEW ARLINGTON AT END SINGLE TRACK-NO STOP,40.429202,-79.998214,42S,S HILLS VILLAGE - DOWNTOWN VIA BEECHVIEW - IB
052-O,TP0880,W,0,44.4,5.5,NEW ARLINGTON AT END SINGLE TRACK-NO STOP,40.429202,-79.998214,052,ALLENTOWN - S HILLS JUNCTION VIA ALLENTOWN - O
052-I,TP0880,W,1,46.4,5.4,NEW ARLINGTON AT END SINGLE TRACK-NO STOP,40.429202,-79.998214,052,ALLENTOWN - GATEWAY CENTER VIA ALLENTOWN - I
42S-IB,X02776,W,1,,,BROADWAY AVE AT BOUSTEAD,40.405903,-80.029295,42S,S HILLS VILLAGE - DOWNTOWN VIA BEECHVIEW - IB
42S-I,X02776,W,1,,,BROADWAY AVE AT BOUSTEAD,40.405903,-80.029295,42S,S HILLS VILLAGE - DOWNTOWN VIA BEECHVIEW - I
42C-I,X02776,W,1,,,BROADWAY AVE AT BOUSTEAD,40.405903,-80.029295,42C,CASTLE SHANNON - DOWNTOWN VIA BEECHVIEW - I
42S-I,X02776,U,1,,,BROADWAY AVE AT BOUSTEAD,40.405903,-80.029295,42S,S HILLS VILLAGE - DOWNTOWN VIA BEECHVIEW - I
42S-I,X02776,S,1,,,BROADWAY AVE AT BOUSTEAD,40.405903,-80.029295,42S,S HILLS VILLAGE - DOWNTOWN VIA BEECHVIEW - I
42S-OB,X02777,W,0,,,BROADWAY AVE AT BOUSTEAD,40.405967,-80.029363,42S,S HILLS VILLAGE - S HILLS VILLAGE VIA BEECHVIEW - OB
42S-O,X02777,W,0,,,BROADWAY AVE AT BOUSTEAD,40.405967,-80.029363,42S,S HILLS VILLAGE - S HILLS VILLAGE VIA BEECHVIEW - O
42C-O,X02777,W,0,,,BROADWAY AVE AT BOUSTEAD,40.405967,-80.029363,42C,CASTLE SHANNON - CASTLE SHANNON VIA BEECHVIEW - O
42S-O,X02777,U,0,,,BROADWAY AVE AT BOUSTEAD,40.405967,-80.029363,42S,S HILLS VILLAGE - S HILLS VILLAGE VIA BEECHVIEW - O
42S-O,X02777,S,0,,,BROADWAY AVE AT BOUSTEAD,40.405967,-80.029363,42S,S HILLS VILLAGE - S HILLS VILLAGE VIA BEECHVIEW - O
42S-IB,X02778,W,1,,,BROADWAY AVE AT BELASCO,40.407072,-80.02694,42S,S HILLS VILLAGE - DOWNTOWN VIA BEECHVIEW - IB
42S-I,X02778,W,1,,,BROADWAY AVE AT BELASCO,40.407072,-80.02694,42S,S HILLS VILLAGE - DOWNTOWN VIA BEECHVIEW - I
42C-I,X02778,W,1,,,BROADWAY AVE AT BELASCO,40.407072,-80.02694,42C,CASTLE SHANNON - DOWNTOWN VIA BEECHVIEW - I
42S-I,X02778,U,1,,,BROADWAY AVE AT BELASCO,40.407072,-80.02694,42S,S HILLS VILLAGE - DOWNTOWN VIA BEECHVIEW - I
42S-I,X02778,S,1,,,BROADWAY AVE AT BELASCO,40.407072,-80.02694,42S,S HILLS VILLAGE - DOWNTOWN VIA BEECHVIEW - I
42S-OB,X02780,W,0,,,BROADWAY AVE AT BELASCO,40.407143,-80.027008,42S,S HILLS VILLAGE - S HILLS VILLAGE VIA BEECHVIEW - OB
42S-O,X02780,W,0,,,BROADWAY AVE AT BELASCO,40.407143,-80.027008,42S,S HILLS VILLAGE - S HILLS VILLAGE VIA BEECHVIEW - O
42C-O,X02780,W,0,,,BROADWAY AVE AT BELASCO,40.407143,-80.027008,42C,CASTLE SHANNON - CASTLE SHANNON VIA BEECHVIEW - O
42S-O,X02780,U,0,,,BROADWAY AVE AT BELASCO,40.407143,-80.027008,42S,S HILLS VILLAGE - S HILLS VILLAGE VIA BEECHVIEW - O
42S-O,X02780,S,0,,,BROADWAY AVE AT BELASCO,40.407143,-80.027008,42S,S HILLS VILLAGE - S HILLS VILLAGE VIA BEECHVIEW - O
42S-IB,X02782,W,1,,,BROADWAY AVE AT COAST,40.408603,-80.024729,42S,S HILLS VILLAGE - DOWNTOWN VIA BEECHVIEW - IB
42S-I,X02782,W,1,,,BROADWAY AVE AT COAST,40.408603,-80.024729,42S,S HILLS VILLAGE - DOWNTOWN VIA BEECHVIEW - I
42C-I,X02782,W,1,,,BROADWAY AVE AT COAST,40.408603,-80.024729,42C,CASTLE SHANNON - DOWNTOWN VIA BEECHVIEW - I
42S-I,X02782,U,1,,,BROADWAY AVE AT COAST,40.408603,-80.024729,42S,S HILLS VILLAGE - DOWNTOWN VIA BEECHVIEW - I
42S-I,X02782,S,1,,,BROADWAY AVE AT COAST,40.408603,-80.024729,42S,S HILLS VILLAGE - DOWNTOWN VIA BEECHVIEW - I
42S-OB,X02784,W,0,,,BROADWAY AVE AT COAST,40.408596,-80.024873,42S,S HILLS VILLAGE - S HILLS VILLAGE VIA BEECHVIEW - OB
42S-O,X02784,W,0,,,BROADWAY AVE AT COAST,40.408596,-80.024873,42S,S HILLS VILLAGE - S HILLS VILLAGE VIA BEECHVIEW - O
42C-O,X02784,W,0,,,BROADWAY AVE AT COAST,40.408596,-80.024873,42C,CASTLE SHANNON - CASTLE SHANNON VIA BEECHVIEW - O
42S-O,X02784,U,0,,,BROADWAY AVE AT COAST,40.408596,-80.024873,42S,S HILLS VILLAGE - S HILLS VILLAGE VIA BEECHVIEW - O
42S-O,X02784,S,0,,,BROADWAY AVE AT COAST,40.408596,-80.024873,42S,S HILLS VILLAGE - S HILLS VILLAGE VIA BEECHVIEW - O
42S-IB,X02795,W,1,,,BROADWAY AVE AT HAMPSHIRE,40.410553,-80.024608,42S,S HILLS VILLAGE - DOWNTOWN VIA BEECHVIEW - IB
42S-I,X02795,W,1,,,BROADWAY AVE AT HAMPSHIRE,40.410553,-80.024608,42S,S HILLS VILLAGE - DOWNTOWN VIA BEECHVIEW - I
42C-I,X02795,W,1,,,BROADWAY AVE AT HAMPSHIRE,40.410553,-80.024608,42C,CASTLE SHANNON - DOWNTOWN VIA BEECHVIEW - I
42S-I,X02795,U,1,,,BROADWAY AVE AT HAMPSHIRE,40.410553,-80.024608,42S,S HILLS VILLAGE - DOWNTOWN VIA BEECHVIEW - I
42S-I,X02795,S,1,,,BROADWAY AVE AT HAMPSHIRE,40.410553,-80.024608,42S,S HILLS VILLAGE - DOWNTOWN VIA BEECHVIEW - I
42S-OB,X02800,W,0,,,BROADWAY AVE AT HAMPSHIRE,40.410544,-80.024719,42S,S HILLS VILLAGE - S HILLS VILLAGE VIA BEECHVIEW - OB
42S-O,X02800,W,0,,,BROADWAY AVE AT HAMPSHIRE,40.410544,-80.024719,42S,S HILLS VILLAGE - S HILLS VILLAGE VIA BEECHVIEW - O
42C-O,X02800,W,0,,,BROADWAY AVE AT HAMPSHIRE,40.410544,-80.024719,42C,CASTLE SHANNON - CASTLE SHANNON VIA BEECHVIEW - O
42S-O,X02800,U,0,,,BROADWAY AVE AT HAMPSHIRE,40.410544,-80.024719,42S,S HILLS VILLAGE - S HILLS VILLAGE VIA BEECHVIEW - O
42S-O,X02800,S,0,,,BROADWAY AVE AT HAMPSHIRE,40.410544,-80.024719,42S,S HILLS VILLAGE - S HILLS VILLAGE VIA BEECHVIEW - O
42S-IB,X02822,W,1,,,BROADWAY AVE AT SHIRAS,40.404065,-80.030164,42S,S HILLS VILLAGE - DOWNTOWN VIA BEECHVIEW - IB
42S-I,X02822,W,1,,,BROADWAY AVE AT SHIRAS,40.404065,-80.030164,42S,S HILLS VILLAGE - DOWNTOWN VIA BEECHVIEW - I
42C-I,X02822,W,1,,,BROADWAY AVE AT SHIRAS,40.404065,-80.030164,42C,CASTLE SHANNON - DOWNTOWN VIA BEECHVIEW - I
42S-I,X02822,U,1,,,BROADWAY AVE AT SHIRAS,40.404065,-80.030164,42S,S HILLS VILLAGE - DOWNTOWN VIA BEECHVIEW - I
42S-I,X02822,S,1,,,BROADWAY AVE AT SHIRAS,40.404065,-80.030164,42S,S HILLS VILLAGE - DOWNTOWN VIA BEECHVIEW - I
42S-OB,X02824,W,0,,,BROADWAY AVE AT SHIRAS,40.404084,-80.030283,42S,S HILLS VILLAGE - S HILLS VILLAGE VIA BEECHVIEW - OB
42S-O,X02824,W,0,,,BROADWAY AVE AT SHIRAS,40.404084,-80.030283,42S,S HILLS VILLAGE - S HILLS VILLAGE VIA BEECHVIEW - O
42C-O,X02824,W,0,,,BROADWAY AVE AT SHIRAS,40.404084,-80.030283,42C,CASTLE SHANNON - CASTLE SHANNON VIA BEECHVIEW - O
42S-O,X02824,U,0,,,BROADWAY AVE AT SHIRAS,40.404084,-80.030283,42S,S HILLS VILLAGE - S HILLS VILLAGE VIA BEECHVIEW - O
42S-O,X02824,S,0,,,BROADWAY AVE AT SHIRAS,40.404084,-80.030283,42S,S HILLS VILLAGE - S HILLS VILLAGE VIA BEECHVIEW - O
42C-I,X13090,W,1,9.9,0.6,PARSE WAY AT MT LEBANON STATION,40.38111,-80.043615,42C,CASTLE SHANNON - DOWNTOWN VIA BEECHVIEW - I
42S-IB,X13800,W,1,,,PRIVATE R/WAY AT ARLINGTON,40.369715,-80.032401,42S,S HILLS VILLAGE - DOWNTOWN VIA BEECHVIEW - IB
42S-I,X13800,W,1,,,PRIVATE R/WAY AT ARLINGTON,40.369715,-80.032401,42S,S HILLS VILLAGE - DOWNTOWN VIA BEECHVIEW - I
42C-I,X13800,W,1,,,PRIVATE R/WAY AT ARLINGTON,40.369715,-80.032401,42C,CASTLE SHANNON - DOWNTOWN VIA BEECHVIEW - I
42S-I,X13800,U,1,,,PRIVATE R/WAY AT ARLINGTON,40.369715,-80.032401,42S,S HILLS VILLAGE - DOWNTOWN VIA BEECHVIEW - I
42S-I,X13800,S,1,,,PRIVATE R/WAY AT ARLINGTON,40.369715,-80.032401,42S,S HILLS VILLAGE - DOWNTOWN VIA BEECHVIEW - I
42S-OB,X13805,W,0,,,PRIVATE R/WAY AT ARLINGTON,40.369638,-80.032545,42S,S HILLS VILLAGE - S HILLS VILLAGE VIA BEECHVIEW - OB
42S-O,X13805,W,0,,,PRIVATE R/WAY AT ARLINGTON,40.369638,-80.032545,42S,S HILLS VILLAGE - S HILLS VILLAGE VIA BEECHVIEW - O
42C-O,X13805,W,0,,,PRIVATE R/WAY AT ARLINGTON,40.369638,-80.032545,42C,CASTLE SHANNON - CASTLE SHANNON VIA BEECHVIEW - O
42S-O,X13805,U,0,,,PRIVATE R/WAY AT ARLINGTON,40.369638,-80.032545,42S,S HILLS VILLAGE - S HILLS VILLAGE VIA BEECHVIEW - O
42S-O,X13805,S,0,,,PRIVATE R/WAY AT ARLINGTON,40.369638,-80.032545,42S,S HILLS VILLAGE - S HILLS VILLAGE VIA BEECHVIEW - O
47L-IA,X13810,W,1,,,PRIVATE R/WAY AT BEAGLE,40.300948,-80.031141,44L,LIBRARY - WASHINGTON JUNCTION - IA
47L-I,X13810,W,1,,,PRIVATE R/WAY AT BEAGLE,40.300948,-80.031141,47L,LIBRARY - DOWNTOWN VIA OVERBROOK - I
47L-I,X13810,U,1,,,PRIVATE R/WAY AT BEAGLE,40.300948,-80.031141,47L,LIBRARY - DOWNTOWN VIA OVERBROOK - I
47L-I,X13810,S,1,,,PRIVATE R/WAY AT BEAGLE,40.300948,-80.031141,47L,LIBRARY - DOWNTOWN VIA OVERBROOK - I
47L-O,X13815,W,0,,,PRIVATE R/WAY AT BEAGLE,40.300908,-80.031402,47L,LIBRARY - LIBRARY VIA OVERBROOK - O
47L-O,X13815,U,0,,,PRIVATE R/WAY AT BEAGLE,40.300908,-80.031402,47L,LIBRARY - LIBRARY VIA OVERBROOK - O
47L-O,X13815,S,0,,,PRIVATE R/WAY AT BEAGLE,40.300908,-80.031402,47L,LIBRARY - LIBRARY VIA OVERBROOK - O
47S-I,X13850,W,1,,,PRIVATE R/WAY AT BETHEL VILLAGE (HULTZ),40.34462,-80.046772,47S,SOUTH HILLS VILLAGE - DOWNTOWN VIA OVERBROOK - I
42S-IB,X13850,W,1,,,PRIVATE R/WAY AT BETHEL VILLAGE (HULTZ),40.34462,-80.046772,42S,S HILLS VILLAGE - DOWNTOWN VIA BEECHVIEW - IB
42S-I,X13850,W,1,,,PRIVATE R/WAY AT BETHEL VILLAGE (HULTZ),40.34462,-80.046772,42S,S HILLS VILLAGE - DOWNTOWN VIA BEECHVIEW - I
42S-I,X13850,U,1,,,PRIVATE R/WAY AT BETHEL VILLAGE (HULTZ),40.34462,-80.046772,42S,S HILLS VILLAGE - DOWNTOWN VIA BEECHVIEW - I
42S-I,X13850,S,1,,,PRIVATE R/WAY AT BETHEL VILLAGE (HULTZ),40.34462,-80.046772,42S,S HILLS VILLAGE - DOWNTOWN VIA BEECHVIEW - I
47S-O,X13855,W,0,,,PRIVATE R/WAY AT BETHEL VILLAGE (HULTZ),40.344752,-80.047094,47S,SOUTH HILLS VILLAGE - VIA OVERBROOK - O
42S-OB,X13855,W,0,,,PRIVATE R/WAY AT BETHEL VILLAGE (HULTZ),40.344752,-80.047094,42S,S HILLS VILLAGE - S HILLS VILLAGE VIA BEECHVIEW - OB
42S-O,X13855,W,0,,,PRIVATE R/WAY AT BETHEL VILLAGE (HULTZ),40.344752,-80.047094,42S,S HILLS VILLAGE - S HILLS VILLAGE VIA BEECHVIEW - O
42S-O,X13855,U,0,,,PRIVATE R/WAY AT BETHEL VILLAGE (HULTZ),40.344752,-80.047094,42S,S HILLS VILLAGE - S HILLS VILLAGE VIA BEECHVIEW - O
42S-O,X13855,S,0,,,PRIVATE R/WAY AT BETHEL VILLAGE (HULTZ),40.344752,-80.047094,42S,S HILLS VILLAGE - S HILLS VILLAGE VIA BEECHVIEW - O
47S-I,X13900,W,1,,,PRIVATE R/WAY AT CASSWELL,40.349269,-80.033971,47S,SOUTH HILLS VILLAGE - DOWNTOWN VIA OVERBROOK - I
42S-IB,X13900,W,1,,,PRIVATE R/WAY AT CASSWELL,40.349269,-80.033971,42S,S HILLS VILLAGE - DOWNTOWN VIA BEECHVIEW - IB
42S-I,X13900,W,1,,,PRIVATE R/WAY AT CASSWELL,40.349269,-80.033971,42S,S HILLS VILLAGE - DOWNTOWN VIA BEECHVIEW - I
42S-I,X13900,U,1,,,PRIVATE R/WAY AT CASSWELL,40.349269,-80.033971,42S,S HILLS VILLAGE - DOWNTOWN VIA BEECHVIEW - I
42S-I,X13900,S,1,,,PRIVATE R/WAY AT CASSWELL,40.349269,-80.033971,42S,S HILLS VILLAGE - DOWNTOWN VIA BEECHVIEW - I
47S-O,X13905,W,0,,,PRIVATE R/WAY AT CASSWELL,40.349449,-80.033897,47S,SOUTH HILLS VILLAGE - VIA OVERBROOK - O
42S-OB,X13905,W,0,,,PRIVATE R/WAY AT CASSWELL,40.349449,-80.033897,42S,S HILLS VILLAGE - S HILLS VILLAGE VIA BEECHVIEW - OB
42S-O,X13905,W,0,,,PRIVATE R/WAY AT CASSWELL,40.349449,-80.033897,42S,S HILLS VILLAGE - S HILLS VILLAGE VIA BEECHVIEW - O
42S-O,X13905,U,0,,,PRIVATE R/WAY AT CASSWELL,40.349449,-80.033897,42S,S HILLS VILLAGE - S HILLS VILLAGE VIA BEECHVIEW - O
42S-O,X13905,S,0,,,PRIVATE R/WAY AT CASSWELL,40.349449,-80.033897,42S,S HILLS VILLAGE - S HILLS VILLAGE VIA BEECHVIEW - O
42S-IB,X13920,W,1,,,PRIVATE R/WAY AT CASTLE SHANNON STATION,40.368145,-80.030106,42S,S HILLS VILLAGE - DOWNTOWN VIA BEECHVIEW - IB
42S-I,X13920,W,1,16.1,5.5,PRIVATE R/WAY AT CASTLE SHANNON STATION,40.368145,-80.030106,42S,S HILLS VILLAGE - DOWNTOWN VIA BEECHVIEW - I
42C-I,X13920,W,1,9.9,0.7,PRIVATE R/WAY AT CASTLE SHANNON STATION,40.368145,-80.030106,42C,CASTLE SHANNON - DOWNTOWN VIA BEECHVIEW - I
42S-I,X13920,U,1,25.5,3.7,PRIVATE R/WAY AT CASTLE SHANNON STATION,40.368145,-80.030106,42S,S HILLS VILLAGE - DOWNTOWN VIA BEECHVIEW - I
42S-I,X13920,S,1,18.5,3.1,PRIVATE R/WAY AT CASTLE SHANNON STATION,40.368145,-80.030106,42S,S HILLS VILLAGE - DOWNTOWN VIA BEECHVIEW - I
42S-OB,X13925,W,0,,,PRIVATE R/WAY AT CASTLE SHANNON STATION,40.368105,-80.03014,42S,S HILLS VILLAGE - S HILLS VILLAGE VIA BEECHVIEW - OB
42S-O,X13925,W,0,15.8,5.3,PRIVATE R/WAY AT CASTLE SHANNON STATION,40.368105,-80.03014,42S,S HILLS VILLAGE - S HILLS VILLAGE VIA BEECHVIEW - O
42C-O,X13925,W,0,10.0,0.2,PRIVATE R/WAY AT CASTLE SHANNON STATION,40.368105,-80.03014,42C,CASTLE SHANNON - CASTLE SHANNON VIA BEECHVIEW - O
42S-O,X13925,U,0,25.0,0.0,PRIVATE R/WAY AT CASTLE SHANNON STATION,40.368105,-80.03014,42S,S HILLS VILLAGE - S HILLS VILLAGE VIA BEECHVIEW - O
42S-O,X13925,S,0,18.2,2.2,PRIVATE R/WAY AT CASTLE SHANNON STATION,40.368105,-80.03014,42S,S HILLS VILLAGE - S HILLS VILLAGE VIA BEECHVIEW - O
47L-IA,X13940,W,1,,,PRIVATE R/WAY AT CENTER,40.337025,-80.031181,44L,LIBRARY - WASHINGTON JUNCTION - IA
47L-I,X13940,W,1,,,PRIVATE R/WAY AT CENTER,40.337025,-80.031181,47L,LIBRARY - DOWNTOWN VIA OVERBROOK - I
47L-I,X13940,U,1,,,PRIVATE R/WAY AT CENTER,40.337025,-80.031181,47L,LIBRARY - DOWNTOWN VIA OVERBROOK - I
47L-I,X13940,S,1,,,PRIVATE R/WAY AT CENTER,40.337025,-80.031181,47L,LIBRARY - DOWNTOWN VIA OVERBROOK - I
47L-O,X13945,W,0,,,PRIVATE R/WAY AT CENTER,40.337035,-80.031351,47L,LIBRARY - LIBRARY VIA OVERBROOK - O
47L-O,X13945,U,0,,,PRIVATE R/WAY AT CENTER,40.337035,-80.031351,47L,LIBRARY - LIBRARY VIA OVERBROOK - O
47L-O,X13945,S,0,,,PRIVATE R/WAY AT CENTER,40.337035,-80.031351,47L,LIBRARY - LIBRARY VIA OVERBROOK - O
42S-IB,X13990,W,1,,,PRIVATE R/WAY AT DAWN,40.413271,-80.010856,42S,S HILLS VILLAGE - DOWNTOWN VIA BEECHVIEW - IB
42S-I,X13990,W,1,,,PRIVATE R/WAY AT DAWN,40.413271,-80.010856,42S,S HILLS VILLAGE - DOWNTOWN VIA BEECHVIEW - I
42C-I,X13990,W,1,,,PRIVATE R/WAY AT DAWN,40.413271,-80.010856,42C,CASTLE SHANNON - DOWNTOWN VIA BEECHVIEW - I
42S-I,X13990,U,1,,,PRIVATE R/WAY AT DAWN,40.413271,-80.010856,42S,S HILLS VILLAGE - DOWNTOWN VIA BEECHVIEW - I
42S-I,X13990,S,1,,,PRIVATE R/WAY AT DAWN,40.413271,-80.010856,42S,S HILLS VILLAGE - DOWNTOWN VIA BEECHVIEW - I
42S-OB,X13995,W,0,,,PRIVATE R/WAY AT DAWN,40.413259,-80.010985,42S,S HILLS VILLAGE - S HILLS VILLAGE VIA BEECHVIEW - OB
42S-O,X13995,W,0,,,PRIVATE R/WAY AT DAWN,40.413259,-80.010985,42S,S HILLS VILLAGE - S HILLS VILLAGE VIA BEECHVIEW - O
42C-O,X13995,W,0,,,PRIVATE R/WAY AT DAWN,40.413259,-80.010985,42C,CASTLE SHANNON - CASTLE SHANNON VIA BEECHVIEW - O
42S-O,X13995,U,0,,,PRIVATE R/WAY AT DAWN,40.413259,-80.010985,42S,S HILLS VILLAGE - S HILLS VILLAGE VIA BEECHVIEW - O
42S-O,X13995,S,0,,,PRIVATE R/WAY AT DAWN,40.413259,-80.010985,42S,S HILLS VILLAGE - S HILLS VILLAGE VIA BEECHVIEW - O
47S-I,X14000,W,1,,,PRIVATE R/WAY AT DORCHESTER SOUTH,40.340134,-80.048103,47S,SOUTH HILLS VILLAGE - DOWNTOWN VIA OVERBROOK - I
42S-IB,X14000,W,1,,,PRIVATE R/WAY AT DORCHESTER SOUTH,40.340134,-80.048103,42S,S HILLS VILLAGE - DOWNTOWN VIA BEECHVIEW - IB
42S-I,X14000,W,1,,,PRIVATE R/WAY AT DORCHESTER SOUTH,40.340134,-80.048103,42S,S HILLS VILLAGE - DOWNTOWN VIA BEECHVIEW - I
42S-I,X14000,U,1,,,PRIVATE R/WAY AT DORCHESTER SOUTH,40.340134,-80.048103,42S,S HILLS VILLAGE - DOWNTOWN VIA BEECHVIEW - I
42S-I,X14000,S,1,,,PRIVATE R/WAY AT DORCHESTER SOUTH,40.340134,-80.048103,42S,S HILLS VILLAGE - DOWNTOWN VIA BEECHVIEW - I
47S-O,X14005,W,0,,,PRIVATE R/WAY AT DORCHESTER SOUTH,40.340204,-80.048359,47S,SOUTH HILLS VILLAGE - VIA OVERBROOK - O
42S-OB,X14005,W,0,,,PRIVATE R/WAY AT DORCHESTER SOUTH,40.340204,-80.048359,42S,S HILLS VILLAGE - S HILLS VILLAGE VIA BEECHVIEW - OB
42S-O,X14005,W,0,,,PRIVATE R/WAY AT DORCHESTER SOUTH,40.340204,-80.048359,42S,S HILLS VILLAGE - S HILLS VILLAGE VIA BEECHVIEW - O
42S-O,X14005,U,0,,,PRIVATE R/WAY AT DORCHESTER SOUTH,40.340204,-80.048359,42S,S HILLS VILLAGE - S HILLS VILLAGE VIA BEECHVIEW - O
42S-O,X14005,S,0,,,PRIVATE R/WAY AT DORCHESTER SOUTH,40.340204,-80.048359,42S,S HILLS VILLAGE - S HILLS VILLAGE VIA BEECHVIEW - O
42S-IB,X14010,W,1,,,PRIVATE R/WAY AT DORMONT JCT STATION,40.391743,-80.04083,42S,S HILLS VILLAGE - DOWNTOWN VIA BEECHVIEW - IB
42S-I,X14010,W,1,16.1,5.5,PRIVATE R/WAY AT DORMONT JCT STATION,40.391743,-80.04083,42S,S HILLS VILLAGE - DOWNTOWN VIA BEECHVIEW - I
42C-I,X14010,W,1,9.9,0.6,PRIVATE R/WAY AT DORMONT JCT STATION,40.391743,-80.04083,42C,CASTLE SHANNON - DOWNTOWN VIA BEECHVIEW - I
42S-I,X14010,U,1,25.5,3.7,PRIVATE R/WAY AT DORMONT JCT STATION,40.391743,-80.04083,42S,S HILLS VILLAGE - DOWNTOWN VIA BEECHVIEW - I
42S-I,X14010,S,1,18.5,3.1,PRIVATE R/WAY AT DORMONT JCT STATION,40.391743,-80.04083,42S,S HILLS VILLAGE - DOWNTOWN VIA BEECHVIEW - I
42S-OB,X14015,W,0,,,PRIVATE R/WAY AT DORMONT JCT STATION,40.391547,-80.041033,42S,S HILLS VILLAGE - S HILLS VILLAGE VIA BEECHVIEW - OB
42S-O,X14015,W,0,15.8,5.3,PRIVATE R/WAY AT DORMONT JCT STATION,40.391547,-80.041033,42S,S HILLS VILLAGE - S HILLS VILLAGE VIA BEECHVIEW - O
42C-O,X14015,W,0,10.0,0.2,PRIVATE R/WAY AT DORMONT JCT STATION,40.391547,-80.041033,42C,CASTLE SHANNON - CASTLE SHANNON VIA BEECHVIEW - O
42S-O,X14015,U,0,25.0,0.0,PRIVATE R/WAY AT DORMONT JCT STATION,40.391547,-80.041033,42S,S HILLS VILLAGE - S HILLS VILLAGE VIA BEECHVIEW - O
42S-O,X14015,S,0,18.2,2.2,PRIVATE R/WAY AT DORMONT JCT STATION,40.391547,-80.041033,42S,S HILLS VILLAGE - S HILLS VILLAGE VIA BEECHVIEW - O
42S-IB,X14045,W,1,,,PRIVATE R/WAY AT FALLOWFIELD STATION,40.411095,-80.023378,42S,S HILLS VILLAGE - DOWNTOWN VIA BEECHVIEW - IB
42S-I,X14045,W,1,16.1,5.6,PRIVATE R/WAY AT FALLOWFIELD STATION,40.411095,-80.023378,42S,S HILLS VILLAGE - DOWNTOWN VIA BEECHVIEW - I
42C-I,X14045,W,1,10.0,0.2,PRIVATE R/WAY AT FALLOWFIELD STATION,40.411095,-80.023378,42C,CASTLE SHANNON - DOWNTOWN VIA BEECHVIEW - I
42S-I,X14045,U,1,25.5,3.7,PRIVATE R/WAY AT FALLOWFIELD STATION,40.411095,-80.023378,42S,S HILLS VILLAGE - DOWNTOWN VIA BEECHVIEW - I
42S-I,X14045,S,1,18.5,3.1,PRIVATE R/WAY AT FALLOWFIELD STATION,40.411095,-80.023378,42S,S HILLS VILLAGE - DOWNTOWN VIA BEECHVIEW - I
42S-OB,X14050,W,0,,,PRIVATE R/WAY AT FALLOWFIELD STATION,40.411243,-80.023555,42S,S HILLS VILLAGE - S HILLS VILLAGE VIA BEECHVIEW - OB
42S-O,X14050,W,0,15.8,5.3,PRIVATE R/WAY AT FALLOWFIELD STATION,40.411243,-80.023555,42S,S HILLS VILLAGE - S HILLS VILLAGE VIA BEECHVIEW - O
42C-O,X14050,W,0,10.0,0.2,PRIVATE R/WAY AT FALLOWFIELD STATION,40.411243,-80.023555,42C,CASTLE SHANNON - CASTLE SHANNON VIA BEECHVIEW - O
42S-O,X14050,U,0,25.0,0.0,PRIVATE R/WAY AT FALLOWFIELD STATION,40.411243,-80.023555,42S,S HILLS VILLAGE - S HILLS VILLAGE VIA BEECHVIEW - O
42S-O,X14050,S,0,18.2,2.2,PRIVATE R/WAY AT FALLOWFIELD STATION,40.411243,-80.023555,42S,S HILLS VILLAGE - S HILLS VILLAGE VIA BEECHVIEW - O
47S-I,X14075,W,1,,,PRIVATE R/WAY AT HIGHLAND,40.348306,-80.039753,47S,SOUTH HILLS VILLAGE - DOWNTOWN VIA OVERBROOK - I
42S-IB,X14075,W,1,,,PRIVATE R/WAY AT HIGHLAND,40.348306,-80.039753,42S,S HILLS VILLAGE - DOWNTOWN VIA BEECHVIEW - IB
42S-I,X14075,W,1,,,PRIVATE R/WAY AT HIGHLAND,40.348306,-80.039753,42S,S HILLS VILLAGE - DOWNTOWN VIA BEECHVIEW - I
42S-I,X14075,U,1,,,PRIVATE R/WAY AT HIGHLAND,40.348306,-80.039753,42S,S HILLS VILLAGE - DOWNTOWN VIA BEECHVIEW - I
42S-I,X14075,S,1,,,PRIVATE R/WAY AT HIGHLAND,40.348306,-80.039753,42S,S HILLS VILLAGE - DOWNTOWN VIA BEECHVIEW - I
47S-O,X14080,W,0,,,PRIVATE R/WAY AT HIGHLAND,40.348397,-80.039854,47S,SOUTH HILLS VILLAGE - VIA OVERBROOK - O
42S-OB,X14080,W,0,,,PRIVATE R/WAY AT HIGHLAND,40.348397,-80.039854,42S,S HILLS VILLAGE - S HILLS VILLAGE VIA BEECHVIEW - OB
42S-O,X14080,W,0,,,PRIVATE R/WAY AT HIGHLAND,40.348397,-80.039854,42S,S HILLS VILLAGE - S HILLS VILLAGE VIA BEECHVIEW - O
42S-O,X14080,U,0,,,PRIVATE R/WAY AT HIGHLAND,40.348397,-80.039854,42S,S HILLS VILLAGE - S HILLS VILLAGE VIA BEECHVIEW - O
42S-O,X14080,S,0,,,PRIVATE R/WAY AT HIGHLAND,40.348397,-80.039854,42S,S HILLS VILLAGE - S HILLS VILLAGE VIA BEECHVIEW - O
47L-IA,X14125,W,1,,,PRIVATE R/WAY AT HILLCREST,40.345451,-80.028715,44L,LIBRARY - WASHINGTON JUNCTION - IA
47L-I,X14125,W,1,,,PRIVATE R/WAY AT HILLCREST,40.345451,-80.028715,47L,LIBRARY - DOWNTOWN VIA OVERBROOK - I
47L-I,X14125,U,1,,,PRIVATE R/WAY AT HILLCREST,40.345451,-80.028715,47L,LIBRARY - DOWNTOWN VIA OVERBROOK - I
47L-I,X14125,S,1,,,PRIVATE R/WAY AT HILLCREST,40.345451,-80.028715,47L,LIBRARY - DOWNTOWN VIA OVERBROOK - I
47L-O,X14130,W,0,,,PRIVATE R/WAY AT HILLCREST,40.34549,-80.028911,47L,LIBRARY - LIBRARY VIA OVERBROOK - O
47L-O,X14130,U,0,,,PRIVATE R/WAY AT HILLCREST,40.34549,-80.028911,47L,LIBRARY - LIBRARY VIA OVERBROOK - O
47L-O,X14130,S,0,,,PRIVATE R/WAY AT HILLCREST,40.34549,-80.028911,47L,LIBRARY - LIBRARY VIA OVERBROOK - O
42S-IB,X14142,W,1,,,PRIVATE R/WAY AT KELTON,40.395429,-80.039169,42S,S HILLS VILLAGE - DOWNTOWN VIA BEECHVIEW - IB
42S-I,X14142,W,1,,,PRIVATE R/WAY AT KELTON,40.395429,-80.039169,42S,S HILLS VILLAGE - DOWNTOWN VIA BEECHVIEW - I
42C-I,X14142,W,1,,,PRIVATE R/WAY AT KELTON,40.395429,-80.039169,42C,CASTLE SHANNON - DOWNTOWN VIA BEECHVIEW - I
42S-I,X14142,U,1,,,PRIVATE R/WAY AT KELTON,40.395429,-80.039169,42S,S HILLS VILLAGE - DOWNTOWN VIA BEECHVIEW - I
42S-I,X14142,S,1,,,PRIVATE R/WAY AT KELTON,40.395429,-80.039169,42S,S HILLS VILLAGE - DOWNTOWN VIA BEECHVIEW - I
42S-OB,X14144,W,0,,,PRIVATE R/WAY AT KELTON,40.395358,-80.039464,42S,S HILLS VILLAGE - S HILLS VILLAGE VIA BEECHVIEW - OB
42S-O,X14144,W,0,,,PRIVATE R/WAY AT KELTON,40.395358,-80.039464,42S,S HILLS VILLAGE - S HILLS VILLAGE VIA BEECHVIEW - O
42C-O,X14144,W,0,,,PRIVATE R/WAY AT KELTON,40.395358,-80.039464,42C,CASTLE SHANNON - CASTLE SHANNON VIA BEECHVIEW - O
42S-O,X14144,U,0,,,PRIVATE R/WAY AT KELTON,40.395358,-80.039464,42S,S HILLS VILLAGE - S HILLS VILLAGE VIA BEECHVIEW - O
42S-O,X14144,S,0,,,PRIVATE R/WAY AT KELTON,40.395358,-80.039464,42S,S HILLS VILLAGE - S HILLS VILLAGE VIA BEECHVIEW - O
47L-IA,X14155,W,1,,,PRIVATE R/WAY AT KINGS SCHOOL,40.30811,-80.033346,44L,LIBRARY - WASHINGTON JUNCTION - IA
47L-I,X14155,W,1,,,PRIVATE R/WAY AT KINGS SCHOOL,40.30811,-80.033346,47L,LIBRARY - DOWNTOWN VIA OVERBROOK - I
47L-I,X14155,U,1,,,PRIVATE R/WAY AT KINGS SCHOOL,40.30811,-80.033346,47L,LIBRARY - DOWNTOWN VIA OVERBROOK - I
47L-I,X14155,S,1,,,PRIVATE R/WAY AT KINGS SCHOOL,40.30811,-80.033346,47L,LIBRARY - DOWNTOWN VIA OVERBROOK - I
47L-O,X14160,W,0,,,PRIVATE R/WAY AT KINGS SCHOOL,40.30804,-80.033555,47L,LIBRARY - LIBRARY VIA OVERBROOK - O
47L-O,X14160,U,0,,,PRIVATE R/WAY AT KINGS SCHOOL,40.30804,-80.033555,47L,LIBRARY - LIBRARY VIA OVERBROOK - O
47L-O,X14160,S,0,,,PRIVATE R/WAY AT KINGS SCHOOL,40.30804,-80.033555,47L,LIBRARY - LIBRARY VIA OVERBROOK - O
47L-IA,X14175,W,1,,,PRIVATE R/WAY AT LATIMER,40.319005,-80.028192,44L,LIBRARY - WASHINGTON JUNCTION - IA
47L-I,X14175,W,1,,,PRIVATE R/WAY AT LATIMER,40.319005,-80.028192,47L,LIBRARY - DOWNTOWN VIA OVERBROOK - I
47L-I,X14175,U,1,,,PRIVATE R/WAY AT LATIMER,40.319005,-80.028192,47L,LIBRARY - DOWNTOWN VIA OVERBROOK - I
47L-I,X14175,S,1,,,PRIVATE R/WAY AT LATIMER,40.319005,-80.028192,47L,LIBRARY - DOWNTOWN VIA OVERBROOK - I
47L-O,X14180,W,0,,,PRIVATE R/WAY AT LATIMER,40.318734,-80.028405,47L,LIBRARY - LIBRARY VIA OVERBROOK - O
47L-O,X14180,U,0,,,PRIVATE R/WAY AT LATIMER,40.318734,-80.028405,47L,LIBRARY - LIBRARY VIA OVERBROOK - O
47L-O,X14180,S,0,,,PRIVATE R/WAY AT LATIMER,40.318734,-80.028405,47L,LIBRARY - LIBRARY VIA OVERBROOK - O
47L-IA,X14220,W,1,,,PRIVATE R/WAY AT LINDERMER,40.342019,-80.028402,44L,LIBRARY - WASHINGTON JUNCTION - IA
47L-I,X14220,W,1,,,PRIVATE R/WAY AT LINDERMER,40.342019,-80.028402,47L,LIBRARY - DOWNTOWN VIA OVERBROOK - I
47L-I,X14220,U,1,,,PRIVATE R/WAY AT LINDERMER,40.342019,-80.028402,47L,LIBRARY - DOWNTOWN VIA OVERBROOK - I
47L-I,X14220,S,1,,,PRIVATE R/WAY AT LINDERMER,40.342019,-80.028402,47L,LIBRARY - DOWNTOWN VIA OVERBROOK - I
47L-O,X14225,W,0,,,PRIVATE R/WAY AT LINDERMER,40.34201,-80.028728,47L,LIBRARY - LIBRARY VIA OVERBROOK - O
47L-O,X14225,U,0,,,PRIVATE R/WAY AT LINDERMER,40.34201,-80.028728,47L,LIBRARY - LIBRARY VIA OVERBROOK - O
47L-O,X14225,S,0,,,PRIVATE R/WAY AT LINDERMER,40.34201,-80.028728,47L,LIBRARY - LIBRARY VIA OVERBROOK - O
47L-IA,X14230,W,1,,,PRIVATE R/WAY AT LOGAN,40.311333,-80.033255,44L,LIBRARY - WASHINGTON JUNCTION - IA
47L-I,X14230,W,1,,,PRIVATE R/WAY AT LOGAN,40.311333,-80.033255,47L,LIBRARY - DOWNTOWN VIA OVERBROOK - I
47L-I,X14230,U,1,,,PRIVATE R/WAY AT LOGAN,40.311333,-80.033255,47L,LIBRARY - DOWNTOWN VIA OVERBROOK - I
47L-I,X14230,S,1,,,PRIVATE R/WAY AT LOGAN,40.311333,-80.033255,47L,LIBRARY - DOWNTOWN VIA OVERBROOK - I
47L-O,X14235,W,0,,,PRIVATE R/WAY AT LOGAN,40.311422,-80.033555,47L,LIBRARY - LIBRARY VIA OVERBROOK - O
47L-O,X14235,U,0,,,PRIVATE R/WAY AT LOGAN,40.311422,-80.033555,47L,LIBRARY - LIBRARY VIA OVERBROOK - O
47L-O,X14235,S,0,,,PRIVATE R/WAY AT LOGAN,40.311422,-80.033555,47L,LIBRARY - LIBRARY VIA OVERBROOK - O
47L-IA,X14240,W,1,28.6,3.2,PRIVATE R/WAY AT LYTLE STATION,40.333335,-80.030907,44L,LIBRARY - WASHINGTON JUNCTION - IA
47L-I,X14240,W,1,19.6,8.6,PRIVATE R/WAY AT LYTLE STATION,40.333335,-80.030907,47L,LIBRARY - DOWNTOWN VIA OVERBROOK - I
47L-I,X14240,U,1,50.0,0.0,PRIVATE R/WAY AT LYTLE STATION,40.333335,-80.030907,47L,LIBRARY - DOWNTOWN VIA OVERBROOK - I
47L-I,X14240,S,1,34.9,0.9,PRIVATE R/WAY AT LYTLE STATION,40.333335,-80.030907,47L,LIBRARY - DOWNTOWN VIA OVERBROOK - I
47L-O,X14245,W,0,20.3,9.3,PRIVATE R/WAY AT LYTLE STATION,40.333325,-80.031025,47L,LIBRARY - LIBRARY VIA OVERBROOK - O
47L-O,X14245,U,0,50.0,0.0,PRIVATE R/WAY AT LYTLE STATION,40.333325,-80.031025,47L,LIBRARY - LIBRARY VIA OVERBROOK - O
47L-O,X14245,S,0,34.9,0.9,PRIVATE R/WAY AT LYTLE STATION,40.333325,-80.031025,47L,LIBRARY - LIBRARY VIA OVERBROOK - O
47S-I,X14250,W,1,,,PRIVATE R/WAY AT MARTIN VILLA,40.363631,-80.028289,47S,SOUTH HILLS VILLAGE - DOWNTOWN VIA OVERBROOK - I
47L-I,X14250,W,1,,,PRIVATE R/WAY AT MARTIN VILLA,40.363631,-80.028289,47L,LIBRARY - DOWNTOWN VIA OVERBROOK - I
42S-IB,X14250,W,1,,,PRIVATE R/WAY AT MARTIN VILLA,40.363631,-80.028289,42S,S HILLS VILLAGE - DOWNTOWN VIA BEECHVIEW - IB
42S-I,X14250,W,1,,,PRIVATE R/WAY AT MARTIN VILLA,40.363631,-80.028289,42S,S HILLS VILLAGE - DOWNTOWN VIA BEECHVIEW - I
47L-I,X14250,U,1,,,PRIVATE R/WAY AT MARTIN VILLA,40.363631,-80.028289,47L,LIBRARY - DOWNTOWN VIA OVERBROOK - I
42S-I,X14250,U,1,,,PRIVATE R/WAY AT MARTIN VILLA,40.363631,-80.028289,42S,S HILLS VILLAGE - DOWNTOWN VIA BEECHVIEW - I
47L-I,X14250,S,1,,,PRIVATE R/WAY AT MARTIN VILLA,40.363631,-80.028289,47L,LIBRARY - DOWNTOWN VIA OVERBROOK - I
42S-I,X14250,S,1,,,PRIVATE R/WAY AT MARTIN VILLA,40.363631,-80.028289,42S,S HILLS VILLAGE - DOWNTOWN VIA BEECHVIEW - I
47S-O,X14255,W,0,,,PRIVATE R/WAY AT MARTIN VILLA,40.363522,-80.0285,47S,SOUTH HILLS VILLAGE - VIA OVERBROOK - O
47L-O,X14255,W,0,,,PRIVATE R/WAY AT MARTIN VILLA,40.363522,-80.0285,47L,LIBRARY - LIBRARY VIA OVERBROOK - O
42S-OB,X14255,W,0,,,PRIVATE R/WAY AT MARTIN VILLA,40.363522,-80.0285,42S,S HILLS VILLAGE - S HILLS VILLAGE VIA BEECHVIEW - OB
42S-O,X14255,W,0,,,PRIVATE R/WAY AT MARTIN VILLA,40.363522,-80.0285,42S,S HILLS VILLAGE - S HILLS VILLAGE VIA BEECHVIEW - O
47L-O,X14255,U,0,,,PRIVATE R/WAY AT MARTIN VILLA,40.363522,-80.0285,47L,LIBRARY - LIBRARY VIA OVERBROOK - O
42S-O,X14255,U,0,,,PRIVATE R/WAY AT MARTIN VILLA,40.363522,-80.0285,42S,S HILLS VILLAGE - S HILLS VILLAGE VIA BEECHVIEW - O
47L-O,X14255,S,0,,,PRIVATE R/WAY AT MARTIN VILLA,40.363522,-80.0285,47L,LIBRARY - LIBRARY VIA OVERBROOK - O
42S-O,X14255,S,0,,,PRIVATE R/WAY AT MARTIN VILLA,40.363522,-80.0285,42S,S HILLS VILLAGE - S HILLS VILLAGE VIA BEECHVIEW - O
47L-IA,X14280,W,1,,,PRIVATE R/WAY AT MESTA,40.330799,-80.030646,44L,LIBRARY - WASHINGTON JUNCTION - IA
47L-I,X14280,W,1,,,PRIVATE R/WAY AT MESTA,40.330799,-80.030646,47L,LIBRARY - DOWNTOWN VIA OVERBROOK - I
47L-I,X14280,U,1,,,PRIVATE R/WAY AT MESTA,40.330799,-80.030646,47L,LIBRARY - DOWNTOWN VIA OVERBROOK - I
47L-I,X14280,S,1,,,PRIVATE R/WAY AT MESTA,40.330799,-80.030646,47L,LIBRARY - DOWNTOWN VIA OVERBROOK - I
47L-O,X14285,W,0,,,PRIVATE R/WAY AT MESTA,40.330828,-80.030855,47L,LIBRARY - LIBRARY VIA OVERBROOK - O
47L-O,X14285,U,0,,,PRIVATE R/WAY AT MESTA,40.330828,-80.030855,47L,LIBRARY - LIBRARY VIA OVERBROOK - O
47L-O,X14285,S,0,,,PRIVATE R/WAY AT MESTA,40.330828,-80.030855,47L,LIBRARY - LIBRARY VIA OVERBROOK - O
47L-IA,X14290,W,1,,,PRIVATE R/WAY AT MINE NO 3,40.349041,-80.028871,44L,LIBRARY - WASHINGTON JUNCTION - IA
47L-I,X14290,W,1,,,PRIVATE R/WAY AT MINE NO 3,40.349041,-80.028871,47L,LIBRARY - DOWNTOWN VIA OVERBROOK - I
47L-I,X14290,U,1,,,PRIVATE R/WAY AT MINE NO 3,40.349041,-80.028871,47L,LIBRARY - DOWNTOWN VIA OVERBROOK - I
47L-I,X14290,S,1,,,PRIVATE R/WAY AT MINE NO 3,40.349041,-80.028871,47L,LIBRARY - DOWNTOWN VIA OVERBROOK - I
47L-O,X14295,W,0,,,PRIVATE R/WAY AT MINE NO 3,40.349081,-80.029236,47L,LIBRARY - LIBRARY VIA OVERBROOK - O
47L-O,X14295,U,0,,,PRIVATE R/WAY AT MINE NO 3,40.349081,-80.029236,47L,LIBRARY - LIBRARY VIA OVERBROOK - O
47L-O,X14295,S,0,,,PRIVATE R/WAY AT MINE NO 3,40.349081,-80.029236,47L,LIBRARY - LIBRARY VIA OVERBROOK - O
42S-IB,X14300,W,1,,,PRIVATE R/WAY AT MT LEBANON STATION,40.382254,-80.043303,42S,S HILLS VILLAGE - DOWNTOWN VIA BEECHVIEW - IB
42S-I,X14300,W,1,16.1,5.5,PRIVATE R/WAY AT MT LEBANON STATION,40.382254,-80.043303,42S,S HILLS VILLAGE - DOWNTOWN VIA BEECHVIEW - I
42S-I,X14300,U,1,25.5,3.7,PRIVATE R/WAY AT MT LEBANON STATION,40.382254,-80.043303,42S,S HILLS VILLAGE - DOWNTOWN VIA BEECHVIEW - I
42S-I,X14300,S,1,18.5,3.1,PRIVATE R/WAY AT MT LEBANON STATION,40.382254,-80.043303,42S,S HILLS VILLAGE - DOWNTOWN VIA BEECHVIEW - I
42S-OB,X14305,W,0,,,PRIVATE R/WAY AT MT LEBANON STATION,40.382274,-80.043303,42S,S HILLS VILLAGE - S HILLS VILLAGE VIA BEECHVIEW - OB
42S-O,X14305,W,0,15.8,5.3,PRIVATE R/WAY AT MT LEBANON STATION,40.382274,-80.043303,42S,S HILLS VILLAGE - S HILLS VILLAGE VIA BEECHVIEW - O
42C-O,X14305,W,0,10.0,0.2,PRIVATE R/WAY AT MT LEBANON STATION,40.382274,-80.043303,42C,CASTLE SHANNON - CASTLE SHANNON VIA BEECHVIEW - O
42S-O,X14305,U,0,25.0,0.0,PRIVATE R/WAY AT MT LEBANON STATION,40.382274,-80.043303,42S,S HILLS VILLAGE - S HILLS VILLAGE VIA BEECHVIEW - O
42S-O,X14305,S,0,18.2,2.2,PRIVATE R/WAY AT MT LEBANON STATION,40.382274,-80.043303,42S,S HILLS VILLAGE - S HILLS VILLAGE VIA BEECHVIEW - O
47L-IA,X14320,W,1,,,PRIVATE R/WAY AT MUNROE,40.322743,-80.029603,44L,LIBRARY - WASHINGTON JUNCTION - IA
47L-I,X14320,W,1,,,PRIVATE R/WAY AT MUNROE,40.322743,-80.029603,47L,LIBRARY - DOWNTOWN VIA OVERBROOK - I
47L-I,X14320,U,1,,,PRIVATE R/WAY AT MUNROE,40.322743,-80.029603,47L,LIBRARY - DOWNTOWN VIA OVERBROOK - I
47L-I,X14320,S,1,,,PRIVATE R/WAY AT MUNROE,40.322743,-80.029603,47L,LIBRARY - DOWNTOWN VIA OVERBROOK - I
47L-O,X14325,W,0,,,PRIVATE R/WAY AT MUNROE,40.322673,-80.029811,47L,LIBRARY - LIBRARY VIA OVERBROOK - O
47L-O,X14325,U,0,,,PRIVATE R/WAY AT MUNROE,40.322673,-80.029811,47L,LIBRARY - LIBRARY VIA OVERBROOK - O
47L-O,X14325,S,0,,,PRIVATE R/WAY AT MUNROE,40.322673,-80.029811,47L,LIBRARY - LIBRARY VIA OVERBROOK - O
42S-IB,X14330,W,1,,,PRIVATE R/WAY AT NEELD,40.402301,-80.030928,42S,S HILLS VILLAGE - DOWNTOWN VIA BEECHVIEW - IB
42S-I,X14330,W,1,,,PRIVATE R/WAY AT NEELD,40.402301,-80.030928,42S,S HILLS VILLAGE - DOWNTOWN VIA BEECHVIEW - I
42C-I,X14330,W,1,,,PRIVATE R/WAY AT NEELD,40.402301,-80.030928,42C,CASTLE SHANNON - DOWNTOWN VIA BEECHVIEW - I
42S-I,X14330,U,1,,,PRIVATE R/WAY AT NEELD,40.402301,-80.030928,42S,S HILLS VILLAGE - DOWNTOWN VIA BEECHVIEW - I
42S-I,X14330,S,1,,,PRIVATE R/WAY AT NEELD,40.402301,-80.030928,42S,S HILLS VILLAGE - DOWNTOWN VIA BEECHVIEW - I
42S-OB,X14335,W,0,,,PRIVATE R/WAY AT NEELD,40.40224,-80.031142,42S,S HILLS VILLAGE - S HILLS VILLAGE VIA BEECHVIEW - OB
42S-O,X14335,W,0,,,PRIVATE R/WAY AT NEELD,40.40224,-80.031142,42S,S HILLS VILLAGE - S HILLS VILLAGE VIA BEECHVIEW - O
42C-O,X14335,W,0,,,PRIVATE R/WAY AT NEELD,40.40224,-80.031142,42C,CASTLE SHANNON - CASTLE SHANNON VIA BEECHVIEW - O
42S-O,X14335,U,0,,,PRIVATE R/WAY AT NEELD,40.40224,-80.031142,42S,S HILLS VILLAGE - S HILLS VILLAGE VIA BEECHVIEW - O
42S-O,X14335,S,0,,,PRIVATE R/WAY AT NEELD,40.40224,-80.031142,42S,S HILLS VILLAGE - S HILLS VILLAGE VIA BEECHVIEW - O
42S-IB,X14365,W,1,,,PRIVATE R/WAY AT PENNANT,40.411328,-80.014262,42S,S HILLS VILLAGE - DOWNTOWN VIA BEECHVIEW - IB
42S-I,X14365,W,1,,,PRIVATE R/WAY AT PENNANT,40.411328,-80.014262,42S,S HILLS VILLAGE - DOWNTOWN VIA BEECHVIEW - I
42C-I,X14365,W,1,,,PRIVATE R/WAY AT PENNANT,40.411328,-80.014262,42C,CASTLE SHANNON - DOWNTOWN VIA BEECHVIEW - I
42S-I,X14365,U,1,,,PRIVATE R/WAY AT PENNANT,40.411328,-80.014262,42S,S HILLS VILLAGE - DOWNTOWN VIA BEECHVIEW - I
42S-I,X14365,S,1,,,PRIVATE R/WAY AT PENNANT,40.411328,-80.014262,42S,S HILLS VILLAGE - DOWNTOWN VIA BEECHVIEW - I
42S-OB,X14370,W,0,,,PRIVATE R/WAY AT PENNANT,40.411482,-80.014262,42S,S HILLS VILLAGE - S HILLS VILLAGE VIA BEECHVIEW - OB
42S-O,X14370,W,0,,,PRIVATE R/WAY AT PENNANT,40.411482,-80.014262,42S,S HILLS VILLAGE - S HILLS VILLAGE VIA BEECHVIEW - O
42C-O,X14370,W,0,,,PRIVATE R/WAY AT PENNANT,40.411482,-80.014262,42C,CASTLE SHANNON - CASTLE SHANNON VIA BEECHVIEW - O
42S-O,X14370,U,0,,,PRIVATE R/WAY AT PENNANT,40.411482,-80.014262,42S,S HILLS VILLAGE - S HILLS VILLAGE VIA BEECHVIEW - O
42S-O,X14370,S,0,,,PRIVATE R/WAY AT PENNANT,40.411482,-80.014262,42S,S HILLS VILLAGE - S HILLS VILLAGE VIA BEECHVIEW - O
42S-IB,X14395,W,1,,,PRIVATE R/WAY AT POPLAR,40.375416,-80.038493,42S,S HILLS VILLAGE - DOWNTOWN VIA BEECHVIEW - IB
42S-I,X14395,W,1,,,PRIVATE R/WAY AT POPLAR,40.375416,-80.038493,42S,S HILLS VILLAGE - DOWNTOWN VIA BEECHVIEW - I
42C-I,X14395,W,1,,,PRIVATE R/WAY AT POPLAR,40.375416,-80.038493,42C,CASTLE SHANNON - DOWNTOWN VIA BEECHVIEW - I
42S-I,X14395,U,1,,,PRIVATE R/WAY AT POPLAR,40.375416,-80.038493,42S,S HILLS VILLAGE - DOWNTOWN VIA BEECHVIEW - I
42S-I,X14395,S,1,,,PRIVATE R/WAY AT POPLAR,40.375416,-80.038493,42S,S HILLS VILLAGE - DOWNTOWN VIA BEECHVIEW - I
42S-OB,X14400,W,0,,,PRIVATE R/WAY AT POPLAR,40.375337,-80.038608,42S,S HILLS VILLAGE - S HILLS VILLAGE VIA BEECHVIEW - OB
42S-O,X14400,W,0,,,PRIVATE R/WAY AT POPLAR,40.375337,-80.038608,42S,S HILLS VILLAGE - S HILLS VILLAGE VIA BEECHVIEW - O
42C-O,X14400,W,0,,,PRIVATE R/WAY AT POPLAR,40.375337,-80.038608,42C,CASTLE SHANNON - CASTLE SHANNON VIA BEECHVIEW - O
42S-O,X14400,U,0,,,PRIVATE R/WAY AT POPLAR,40.375337,-80.038608,42S,S HILLS VILLAGE - S HILLS VILLAGE VIA BEECHVIEW - O
42S-O,X14400,S,0,,,PRIVATE R/WAY AT POPLAR,40.375337,-80.038608,42S,S HILLS VILLAGE - S HILLS VILLAGE VIA BEECHVIEW - O
42S-IB,X14405,W,1,,,PRIVATE R/WAY AT POTOMAC,40.397138,-80.036559,42S,S HILLS VILLAGE - DOWNTOWN VIA BEECHVIEW - IB
42S-I,X14405,W,1,16.1,5.5,PRIVATE R/WAY AT POTOMAC,40.397138,-80.036559,42S,S HILLS VILLAGE - DOWNTOWN VIA BEECHVIEW - I
42C-O,X14405,W,0,10.0,0.2,PRIVATE R/WAY AT POTOMAC,40.397138,-80.036559,42C,CASTLE SHANNON - CASTLE SHANNON VIA BEECHVIEW - O
42C-I,X14405,W,1,10.0,0.4,PRIVATE R/WAY AT POTOMAC,40.397138,-80.036559,42C,CASTLE SHANNON - DOWNTOWN VIA BEECHVIEW - I
42S-I,X14405,U,1,25.5,3.7,PRIVATE R/WAY AT POTOMAC,40.397138,-80.036559,42S,S HILLS VILLAGE - DOWNTOWN VIA BEECHVIEW - I
42S-I,X14405,S,1,18.5,3.1,PRIVATE R/WAY AT POTOMAC,40.397138,-80.036559,42S,S HILLS VILLAGE - DOWNTOWN VIA BEECHVIEW - I
42S-OB,X14410,W,0,,,PRIVATE R/WAY AT POTOMAC,40.397238,-80.036617,42S,S HILLS VILLAGE - S HILLS VILLAGE VIA BEECHVIEW - OB
42S-O,X14410,W,0,15.8,5.3,PRIVATE R/WAY AT POTOMAC,40.397238,-80.036617,42S,S HILLS VILLAGE - S HILLS VILLAGE VIA BEECHVIEW - O
42S-O,X14410,U,0,25.0,0.0,PRIVATE R/WAY AT POTOMAC,40.397238,-80.036617,42S,S HILLS VILLAGE - S HILLS VILLAGE VIA BEECHVIEW - O
42S-O,X14410,S,0,18.2,2.2,PRIVATE R/WAY AT POTOMAC,40.397238,-80.036617,42S,S HILLS VILLAGE - S HILLS VILLAGE VIA BEECHVIEW - O
47L-IA,X14415,W,1,,,PRIVATE R/WAY AT SANDY CREEK APTS,40.296949,-80.030242,44L,LIBRARY - WASHINGTON JUNCTION - IA
47L-I,X14415,W,1,,,PRIVATE R/WAY AT SANDY CREEK APTS,40.296949,-80.030242,47L,LIBRARY - DOWNTOWN VIA OVERBROOK - I
47L-I,X14415,U,1,,,PRIVATE R/WAY AT SANDY CREEK APTS,40.296949,-80.030242,47L,LIBRARY - DOWNTOWN VIA OVERBROOK - I
47L-I,X14415,S,1,,,PRIVATE R/WAY AT SANDY CREEK APTS,40.296949,-80.030242,47L,LIBRARY - DOWNTOWN VIA OVERBROOK - I
47S-I,X14420,W,1,,,PRIVATE R/WAY AT SANTA BARBARA,40.347432,-80.041934,47S,SOUTH HILLS VILLAGE - DOWNTOWN VIA OVERBROOK - I
42S-IB,X14420,W,1,,,PRIVATE R/WAY AT SANTA BARBARA,40.347432,-80.041934,42S,S HILLS VILLAGE - DOWNTOWN VIA BEECHVIEW - IB
42S-I,X14420,W,1,,,PRIVATE R/WAY AT SANTA BARBARA,40.347432,-80.041934,42S,S HILLS VILLAGE - DOWNTOWN VIA BEECHVIEW - I
42S-I,X14420,U,1,,,PRIVATE R/WAY AT SANTA BARBARA,40.347432,-80.041934,42S,S HILLS VILLAGE - DOWNTOWN VIA BEECHVIEW - I
42S-I,X14420,S,1,,,PRIVATE R/WAY AT SANTA BARBARA,40.347432,-80.041934,42S,S HILLS VILLAGE - DOWNTOWN VIA BEECHVIEW - I
47S-O,X14425,W,0,,,PRIVATE R/WAY AT SANTA BARBARA,40.347573,-80.042047,47S,SOUTH HILLS VILLAGE - VIA OVERBROOK - O
42S-OB,X14425,W,0,,,PRIVATE R/WAY AT SANTA BARBARA,40.347573,-80.042047,42S,S HILLS VILLAGE - S HILLS VILLAGE VIA BEECHVIEW - OB
42S-O,X14425,W,0,,,PRIVATE R/WAY AT SANTA BARBARA,40.347573,-80.042047,42S,S HILLS VILLAGE - S HILLS VILLAGE VIA BEECHVIEW - O
42S-O,X14425,U,0,,,PRIVATE R/WAY AT SANTA BARBARA,40.347573,-80.042047,42S,S HILLS VILLAGE - S HILLS VILLAGE VIA BEECHVIEW - O
42S-O,X14425,S,0,,,PRIVATE R/WAY AT SANTA BARBARA,40.347573,-80.042047,42S,S HILLS VILLAGE - S HILLS VILLAGE VIA BEECHVIEW - O
47L-IA,X14430,W,1,,,PRIVATE R/WAY AT SARAH,40.315481,-80.029693,44L,LIBRARY - WASHINGTON JUNCTION - IA
47L-I,X14430,W,1,,,PRIVATE R/WAY AT SARAH,40.315481,-80.029693,47L,LIBRARY - DOWNTOWN VIA OVERBROOK - I
47L-I,X14430,U,1,,,PRIVATE R/WAY AT SARAH,40.315481,-80.029693,47L,LIBRARY - DOWNTOWN VIA OVERBROOK - I
47L-I,X14430,S,1,,,PRIVATE R/WAY AT SARAH,40.315481,-80.029693,47L,LIBRARY - DOWNTOWN VIA OVERBROOK - I
47L-O,X14435,W,0,,,PRIVATE R/WAY AT SARAH,40.31561,-80.029941,47L,LIBRARY - LIBRARY VIA OVERBROOK - O
47L-O,X14435,U,0,,,PRIVATE R/WAY AT SARAH,40.31561,-80.029941,47L,LIBRARY - LIBRARY VIA OVERBROOK - O
47L-O,X14435,S,0,,,PRIVATE R/WAY AT SARAH,40.31561,-80.029941,47L,LIBRARY - LIBRARY VIA OVERBROOK - O
47L-O,X14447,W,0,20.3,9.3,PRIVATE R/WAY AT LIBRARY STATION,40.287013,-80.020957,47L,LIBRARY - LIBRARY VIA OVERBROOK - O
47L-IA,X14447,W,1,29.3,3.7,PRIVATE R/WAY AT LIBRARY STATION,40.287013,-80.020957,44L,LIBRARY - WASHINGTON JUNCTION - IA
47L-I,X14447,W,1,19.6,8.7,PRIVATE R/WAY AT LIBRARY STATION,40.287013,-80.020957,47L,LIBRARY - DOWNTOWN VIA OVERBROOK - I
47L-O,X14447,U,0,50.0,0.0,PRIVATE R/WAY AT LIBRARY STATION,40.287013,-80.020957,47L,LIBRARY - LIBRARY VIA OVERBROOK - O
47L-I,X14447,U,1,50.0,0.0,PRIVATE R/WAY AT LIBRARY STATION,40.287013,-80.020957,47L,LIBRARY - DOWNTOWN VIA OVERBROOK - I
47L-O,X14447,S,0,34.9,0.9,PRIVATE R/WAY AT LIBRARY STATION,40.287013,-80.020957,47L,LIBRARY - LIBRARY VIA OVERBROOK - O
47L-I,X14447,S,1,34.9,0.9,PRIVATE R/WAY AT LIBRARY STATION,40.287013,-80.020957,47L,LIBRARY - DOWNTOWN VIA OVERBROOK - I
47S-I,X14467,W,1,,,PRIVATE R/WAY AT SMITH ROAD,40.356913,-80.029019,47S,SOUTH HILLS VILLAGE - DOWNTOWN VIA OVERBROOK - I
47L-I,X14467,W,1,,,PRIVATE R/WAY AT SMITH ROAD,40.356913,-80.029019,47L,LIBRARY - DOWNTOWN VIA OVERBROOK - I
42S-IB,X14467,W,1,,,PRIVATE R/WAY AT SMITH ROAD,40.356913,-80.029019,42S,S HILLS VILLAGE - DOWNTOWN VIA BEECHVIEW - IB
42S-I,X14467,W,1,,,PRIVATE R/WAY AT SMITH ROAD,40.356913,-80.029019,42S,S HILLS VILLAGE - DOWNTOWN VIA BEECHVIEW - I
47L-I,X14467,U,1,,,PRIVATE R/WAY AT SMITH ROAD,40.356913,-80.029019,47L,LIBRARY - DOWNTOWN VIA OVERBROOK - I
42S-I,X14467,U,1,,,PRIVATE R/WAY AT SMITH ROAD,40.356913,-80.029019,42S,S HILLS VILLAGE - DOWNTOWN VIA BEECHVIEW - I
47L-I,X14467,S,1,,,PRIVATE R/WAY AT SMITH ROAD,40.356913,-80.029019,47L,LIBRARY - DOWNTOWN VIA OVERBROOK - I
42S-I,X14467,S,1,,,PRIVATE R/WAY AT SMITH ROAD,40.356913,-80.029019,42S,S HILLS VILLAGE - DOWNTOWN VIA BEECHVIEW - I
47S-O,X14468,W,0,,,PRIVATE R/WAY AT SMITH ROAD,40.356863,-80.029133,47S,SOUTH HILLS VILLAGE - VIA OVERBROOK - O
47L-O,X14468,W,0,,,PRIVATE R/WAY AT SMITH ROAD,40.356863,-80.029133,47L,LIBRARY - LIBRARY VIA OVERBROOK - O
42S-OB,X14468,W,0,,,PRIVATE R/WAY AT SMITH ROAD,40.356863,-80.029133,42S,S HILLS VILLAGE - S HILLS VILLAGE VIA BEECHVIEW - OB
42S-O,X14468,W,0,,,PRIVATE R/WAY AT SMITH ROAD,40.356863,-80.029133,42S,S HILLS VILLAGE - S HILLS VILLAGE VIA BEECHVIEW - O
47L-O,X14468,U,0,,,PRIVATE R/WAY AT SMITH ROAD,40.356863,-80.029133,47L,LIBRARY - LIBRARY VIA OVERBROOK - O
42S-O,X14468,U,0,,,PRIVATE R/WAY AT SMITH ROAD,40.356863,-80.029133,42S,S HILLS VILLAGE - S HILLS VILLAGE VIA BEECHVIEW - O
47L-O,X14468,S,0,,,PRIVATE R/WAY AT SMITH ROAD,40.356863,-80.029133,47L,LIBRARY - LIBRARY VIA OVERBROOK - O
42S-O,X14468,S,0,,,PRIVATE R/WAY AT SMITH ROAD,40.356863,-80.029133,42S,S HILLS VILLAGE - S HILLS VILLAGE VIA BEECHVIEW - O
47S-I,X14472,W,1,10.6,6.5,PRIVATE R/WAY AT SOUTH HILLS VLG STATION,40.339271,-80.05311,47S,SOUTH HILLS VILLAGE - DOWNTOWN VIA OVERBROOK - I
42S-IB,X14472,W,1,,,PRIVATE R/WAY AT SOUTH HILLS VLG STATION,40.339271,-80.05311,42S,S HILLS VILLAGE - DOWNTOWN VIA BEECHVIEW - IB
42S-I,X14472,W,1,16.1,5.5,PRIVATE R/WAY AT SOUTH HILLS VLG STATION,40.339271,-80.05311,42S,S HILLS VILLAGE - DOWNTOWN VIA BEECHVIEW - I
42S-I,X14472,U,1,25.5,3.7,PRIVATE R/WAY AT SOUTH HILLS VLG STATION,40.339271,-80.05311,42S,S HILLS VILLAGE - DOWNTOWN VIA BEECHVIEW - I
42S-I,X14472,S,1,18.5,3.1,PRIVATE R/WAY AT SOUTH HILLS VLG STATION,40.339271,-80.05311,42S,S HILLS VILLAGE - DOWNTOWN VIA BEECHVIEW - I
47S-O,X14474,W,0,10.5,3.5,PRIVATE R/WAY AT SOUTH HILLS VLG STATION,40.339353,-80.05322,47S,SOUTH HILLS VILLAGE - VIA OVERBROOK - O
42S-OB,X14474,W,0,,,PRIVATE R/WAY AT SOUTH HILLS VLG STATION,40.339353,-80.05322,42S,S HILLS VILLAGE - S HILLS VILLAGE VIA BEECHVIEW - OB
42S-O,X14474,W,0,15.8,5.2,PRIVATE R/WAY AT SOUTH HILLS VLG STATION,40.339353,-80.05322,42S,S HILLS VILLAGE - S HILLS VILLAGE VIA BEECHVIEW - O
42S-O,X14474,U,0,25.0,0.0,PRIVATE R/WAY AT SOUTH HILLS VLG STATION,40.339353,-80.05322,42S,S HILLS VILLAGE - S HILLS VILLAGE VIA BEECHVIEW - O
42S-O,X14474,S,0,18.2,2.2,PRIVATE R/WAY AT SOUTH HILLS VLG STATION,40.339353,-80.05322,42S,S HILLS VILLAGE - S HILLS VILLAGE VIA BEECHVIEW - O
47S-I,X14476,W,1,10.7,6.5,PRIVATE R/WAY AT S HILLS JCT INB STATION,40.420797,-80.007269,47S,SOUTH HILLS VILLAGE - DOWNTOWN VIA OVERBROOK - I
47L-I,X14476,W,1,19.6,8.6,PRIVATE R/WAY AT S HILLS JCT INB STATION,40.420797,-80.007269,47L,LIBRARY - DOWNTOWN VIA OVERBROOK - I
42S-IB,X14476,W,1,,,PRIVATE R/WAY AT S HILLS JCT INB STATION,40.420797,-80.007269,42S,S HILLS VILLAGE - DOWNTOWN VIA BEECHVIEW - IB
42S-I,X14476,W,1,16.1,5.6,PRIVATE R/WAY AT S HILLS JCT INB STATION,40.420797,-80.007269,42S,S HILLS VILLAGE - DOWNTOWN VIA BEECHVIEW - I
42C-I,X14476,W,1,10.0,0.2,PRIVATE R/WAY AT S HILLS JCT INB STATION,40.420797,-80.007269,42C,CASTLE SHANNON - DOWNTOWN VIA BEECHVIEW - I
47L-I,X14476,U,1,50.0,0.0,PRIVATE R/WAY AT S HILLS JCT INB STATION,40.420797,-80.007269,47L,LIBRARY - DOWNTOWN VIA OVERBROOK - I
42S-I,X14476,U,1,25.5,3.7,PRIVATE R/WAY AT S HILLS JCT INB STATION,40.420797,-80.007269,42S,S HILLS VILLAGE - DOWNTOWN VIA BEECHVIEW - I
47L-I,X14476,S,1,34.9,0.9,PRIVATE R/WAY AT S HILLS JCT INB STATION,40.420797,-80.007269,47L,LIBRARY - DOWNTOWN VIA OVERBROOK - I
42S-I,X14476,S,1,18.5,3.1,PRIVATE R/WAY AT S HILLS JCT INB STATION,40.420797,-80.007269,42S,S HILLS VILLAGE - DOWNTOWN VIA BEECHVIEW - I
47S-O,X14478,W,0,10.5,3.5,PRIVATE R/WAY AT S HILLS JCT OUTB STATION,40.42093,-80.007206,47S,SOUTH HILLS VILLAGE - VIA OVERBROOK - O
47L-O,X14478,W,0,20.3,9.3,PRIVATE R/WAY AT S HILLS JCT OUTB STATION,40.42093,-80.007206,47L,LIBRARY - LIBRARY VIA OVERBROOK - O
42S-OB,X14478,W,0,,,PRIVATE R/WAY AT S HILLS JCT OUTB STATION,40.42093,-80.007206,42S,S HILLS VILLAGE - S HILLS VILLAGE VIA BEECHVIEW - OB
42S-O,X14478,W,0,15.8,5.3,PRIVATE R/WAY AT S HILLS JCT OUTB STATION,40.42093,-80.007206,42S,S HILLS VILLAGE - S HILLS VILLAGE VIA BEECHVIEW - O
42C-O,X14478,W,0,10.0,0.2,PRIVATE R/WAY AT S HILLS JCT OUTB STATION,40.42093,-80.007206,42C,CASTLE SHANNON - CASTLE SHANNON VIA BEECHVIEW - O
47L-O,X14478,U,0,50.0,0.0,PRIVATE R/WAY AT S HILLS JCT OUTB STATION,40.42093,-80.007206,47L,LIBRARY - LIBRARY VIA OVERBROOK - O
42S-O,X14478,U,0,25.0,0.0,PRIVATE R/WAY AT S HILLS JCT OUTB STATION,40.42093,-80.007206,42S,S HILLS VILLAGE - S HILLS VILLAGE VIA BEECHVIEW - O
47L-O,X14478,S,0,34.9,0.9,PRIVATE R/WAY AT S HILLS JCT OUTB STATION,40.42093,-80.007206,47L,LIBRARY - LIBRARY VIA OVERBROOK - O
42S-O,X14478,S,0,18.2,2.2,PRIVATE R/WAY AT S HILLS JCT OUTB STATION,40.42093,-80.007206,42S,S HILLS VILLAGE - S HILLS VILLAGE VIA BEECHVIEW - O
47L-IA,X14480,W,1,,,PRIVATE R/WAY AT SOUTH PARK,40.327829,-80.030469,44L,LIBRARY - WASHINGTON JUNCTION - IA
47L-I,X14480,W,1,,,PRIVATE R/WAY AT SOUTH PARK,40.327829,-80.030469,47L,LIBRARY - DOWNTOWN VIA OVERBROOK - I
47L-I,X14480,U,1,,,PRIVATE R/WAY AT SOUTH PARK,40.327829,-80.030469,47L,LIBRARY - DOWNTOWN VIA OVERBROOK - I
47L-I,X14480,S,1,,,PRIVATE R/WAY AT SOUTH PARK,40.327829,-80.030469,47L,LIBRARY - DOWNTOWN VIA OVERBROOK - I
47L-O,X14485,W,0,,,PRIVATE R/WAY AT SOUTH PARK,40.328114,-80.030689,47L,LIBRARY - LIBRARY VIA OVERBROOK - O
47L-O,X14485,U,0,,,PRIVATE R/WAY AT SOUTH PARK,40.328114,-80.030689,47L,LIBRARY - LIBRARY VIA OVERBROOK - O
47L-O,X14485,S,0,,,PRIVATE R/WAY AT SOUTH PARK,40.328114,-80.030689,47L,LIBRARY - LIBRARY VIA OVERBROOK - O
47S-I,X14490,W,1,,,PRIVATE R/WAY AT ST ANNE'S,40.36102,-80.029166,47S,SOUTH HILLS VILLAGE - DOWNTOWN VIA OVERBROOK - I
47L-I,X14490,W,1,,,PRIVATE R/WAY AT ST ANNE'S,40.36102,-80.029166,47L,LIBRARY - DOWNTOWN VIA OVERBROOK - I
42S-IB,X14490,W,1,,,PRIVATE R/WAY AT ST ANNE'S,40.36102,-80.029166,42S,S HILLS VILLAGE - DOWNTOWN VIA BEECHVIEW - IB
42S-I,X14490,W,1,,,PRIVATE R/WAY AT ST ANNE'S,40.36102,-80.029166,42S,S HILLS VILLAGE - DOWNTOWN VIA BEECHVIEW - I
47L-I,X14490,U,1,,,PRIVATE R/WAY AT ST ANNE'S,40.36102,-80.029166,47L,LIBRARY - DOWNTOWN VIA OVERBROOK - I
42S-I,X14490,U,1,,,PRIVATE R/WAY AT ST ANNE'S,40.36102,-80.029166,42S,S HILLS VILLAGE - DOWNTOWN VIA BEECHVIEW - I
47L-I,X14490,S,1,,,PRIVATE R/WAY AT ST ANNE'S,40.36102,-80.029166,47L,LIBRARY - DOWNTOWN VIA OVERBROOK - I
42S-I,X14490,S,1,,,PRIVATE R/WAY AT ST ANNE'S,40.36102,-80.029166,42S,S HILLS VILLAGE - DOWNTOWN VIA BEECHVIEW - I
47S-O,X14495,W,0,,,PRIVATE R/WAY AT ST ANNE'S,40.360991,-80.029315,47S,SOUTH HILLS VILLAGE - VIA OVERBROOK - O
47L-O,X14495,W,0,,,PRIVATE R/WAY AT ST ANNE'S,40.360991,-80.029315,47L,LIBRARY - LIBRARY VIA OVERBROOK - O
42S-OB,X14495,W,0,,,PRIVATE R/WAY AT ST ANNE'S,40.360991,-80.029315,42S,S HILLS VILLAGE - S HILLS VILLAGE VIA BEECHVIEW - OB
42S-O,X14495,W,0,,,PRIVATE R/WAY AT ST ANNE'S,40.360991,-80.029315,42S,S HILLS VILLAGE - S HILLS VILLAGE VIA BEECHVIEW - O
47L-O,X14495,U,0,,,PRIVATE R/WAY AT ST ANNE'S,40.360991,-80.029315,47L,LIBRARY - LIBRARY VIA OVERBROOK - O
42S-O,X14495,U,0,,,PRIVATE R/WAY AT ST ANNE'S,40.360991,-80.029315,42S,S HILLS VILLAGE - S HILLS VILLAGE VIA BEECHVIEW - O
47L-O,X14495,S,0,,,PRIVATE R/WAY AT ST ANNE'S,40.360991,-80.029315,47L,LIBRARY - LIBRARY VIA OVERBROOK - O
42S-O,X14495,S,0,,,PRIVATE R/WAY AT ST ANNE'S,40.360991,-80.029315,42S,S HILLS VILLAGE - S HILLS VILLAGE VIA BEECHVIEW - O
47S-I,X14497,W,1,10.7,6.5,PRIVATE R/WAY AT STATION SQUARE STATION,40.431548,-80.003195,47S,SOUTH HILLS VILLAGE - DOWNTOWN VIA OVERBROOK - I
47L-I,X14497,W,1,19.6,8.6,PRIVATE R/WAY AT STATION SQUARE STATION,40.431548,-80.003195,47L,LIBRARY - DOWNTOWN VIA OVERBROOK - I
42S-IB,X14497,W,1,,,PRIVATE R/WAY AT STATION SQUARE STATION,40.431548,-80.003195,42S,S HILLS VILLAGE - DOWNTOWN VIA BEECHVIEW - IB
42S-I,X14497,W,1,16.1,5.6,PRIVATE R/WAY AT STATION SQUARE STATION,40.431548,-80.003195,42S,S HILLS VILLAGE - DOWNTOWN VIA BEECHVIEW - I
42C-I,X14497,W,1,10.0,0.2,PRIVATE R/WAY AT STATION SQUARE STATION,40.431548,-80.003195,42C,CASTLE SHANNON - DOWNTOWN VIA BEECHVIEW - I
47L-I,X14497,U,1,50.0,0.0,PRIVATE R/WAY AT STATION SQUARE STATION,40.431548,-80.003195,47L,LIBRARY - DOWNTOWN VIA OVERBROOK - I
42S-I,X14497,U,1,25.5,3.7,PRIVATE R/WAY AT STATION SQUARE STATION,40.431548,-80.003195,42S,S HILLS VILLAGE - DOWNTOWN VIA BEECHVIEW - I
47L-I,X14497,S,1,34.9,0.9,PRIVATE R/WAY AT STATION SQUARE STATION,40.431548,-80.003195,47L,LIBRARY - DOWNTOWN VIA OVERBROOK - I
42S-I,X14497,S,1,18.5,3.1,PRIVATE R/WAY AT STATION SQUARE STATION,40.431548,-80.003195,42S,S HILLS VILLAGE - DOWNTOWN VIA BEECHVIEW - I
47S-O,X14498,W,0,10.5,3.5,PRIVATE R/WAY AT STATION SQUARE STATION,40.431633,-80.003151,47S,SOUTH HILLS VILLAGE - VIA OVERBROOK - O
47L-O,X14498,W,0,20.3,9.3,PRIVATE R/WAY AT STATION SQUARE STATION,40.431633,-80.003151,47L,LIBRARY - LIBRARY VIA OVERBROOK - O
42S-OB,X14498,W,0,,,PRIVATE R/WAY AT STATION SQUARE STATION,40.431633,-80.003151,42S,S HILLS VILLAGE - S HILLS VILLAGE VIA BEECHVIEW - OB
42S-O,X14498,W,0,15.8,5.3,PRIVATE R/WAY AT STATION SQUARE STATION,40.431633,-80.003151,42S,S HILLS VILLAGE - S HILLS VILLAGE VIA BEECHVIEW - O
42C-O,X14498,W,0,10.0,0.2,PRIVATE R/WAY AT STATION SQUARE STATION,40.431633,-80.003151,42C,CASTLE SHANNON - CASTLE SHANNON VIA BEECHVIEW - O
47L-O,X14498,U,0,50.0,0.0,PRIVATE R/WAY AT STATION SQUARE STATION,40.431633,-80.003151,47L,LIBRARY - LIBRARY VIA OVERBROOK - O
42S-O,X14498,U,0,25.0,0.0,PRIVATE R/WAY AT STATION SQUARE STATION,40.431633,-80.003151,42S,S HILLS VILLAGE - S HILLS VILLAGE VIA BEECHVIEW - O
47L-O,X14498,S,0,34.9,0.9,PRIVATE R/WAY AT STATION SQUARE STATION,40.431633,-80.003151,47L,LIBRARY - LIBRARY VIA OVERBROOK - O
42S-O,X14498,S,0,18.2,2.2,PRIVATE R/WAY AT STATION SQUARE STATION,40.431633,-80.003151,42S,S HILLS VILLAGE - S HILLS VILLAGE VIA BEECHVIEW - O
42S-IB,X14500,W,1,,,PRIVATE R/WAY AT STEVENSON,40.39958,-80.03349,42S,S HILLS VILLAGE - DOWNTOWN VIA BEECHVIEW - IB
42S-I,X14500,W,1,,,PRIVATE R/WAY AT STEVENSON,40.39958,-80.03349,42S,S HILLS VILLAGE - DOWNTOWN VIA BEECHVIEW - I
42C-I,X14500,W,1,,,PRIVATE R/WAY AT STEVENSON,40.39958,-80.03349,42C,CASTLE SHANNON - DOWNTOWN VIA BEECHVIEW - I
42S-I,X14500,U,1,,,PRIVATE R/WAY AT STEVENSON,40.39958,-80.03349,42S,S HILLS VILLAGE - DOWNTOWN VIA BEECHVIEW - I
42S-I,X14500,S,1,,,PRIVATE R/WAY AT STEVENSON,40.39958,-80.03349,42S,S HILLS VILLAGE - DOWNTOWN VIA BEECHVIEW - I
42S-OB,X14505,W,0,,,PRIVATE R/WAY AT STEVENSON,40.399631,-80.033558,42S,S HILLS VILLAGE - S HILLS VILLAGE VIA BEECHVIEW - OB
42S-O,X14505,W,0,,,PRIVATE R/WAY AT STEVENSON,40.399631,-80.033558,42S,S HILLS VILLAGE - S HILLS VILLAGE VIA BEECHVIEW - O
42C-O,X14505,W,0,,,PRIVATE R/WAY AT STEVENSON,40.399631,-80.033558,42C,CASTLE SHANNON - CASTLE SHANNON VIA BEECHVIEW - O
42S-O,X14505,U,0,,,PRIVATE R/WAY AT STEVENSON,40.399631,-80.033558,42S,S HILLS VILLAGE - S HILLS VILLAGE VIA BEECHVIEW - O
42S-O,X14505,S,0,,,PRIVATE R/WAY AT STEVENSON,40.399631,-80.033558,42S,S HILLS VILLAGE - S HILLS VILLAGE VIA BEECHVIEW - O
42S-IB,X14510,W,1,,,PRIVATE R/WAY AT TRAYMORE,40.411591,-80.012262,42S,S HILLS VILLAGE - DOWNTOWN VIA BEECHVIEW - IB
42S-I,X14510,W,1,,,PRIVATE R/WAY AT TRAYMORE,40.411591,-80.012262,42S,S HILLS VILLAGE - DOWNTOWN VIA BEECHVIEW - I
42C-I,X14510,W,1,,,PRIVATE R/WAY AT TRAYMORE,40.411591,-80.012262,42C,CASTLE SHANNON - DOWNTOWN VIA BEECHVIEW - I
42S-I,X14510,U,1,,,PRIVATE R/WAY AT TRAYMORE,40.411591,-80.012262,42S,S HILLS VILLAGE - DOWNTOWN VIA BEECHVIEW - I
42S-I,X14510,S,1,,,PRIVATE R/WAY AT TRAYMORE,40.411591,-80.012262,42S,S HILLS VILLAGE - DOWNTOWN VIA BEECHVIEW - I
42S-OB,X14515,W,0,,,PRIVATE R/WAY AT TRAYMORE,40.4117,-80.012296,42S,S HILLS VILLAGE - S HILLS VILLAGE VIA BEECHVIEW - OB
42S-O,X14515,W,0,,,PRIVATE R/WAY AT TRAYMORE,40.4117,-80.012296,42S,S HILLS VILLAGE - S HILLS VILLAGE VIA BEECHVIEW - O
42C-O,X14515,W,0,,,PRIVATE R/WAY AT TRAYMORE,40.4117,-80.012296,42C,CASTLE SHANNON - CASTLE SHANNON VIA BEECHVIEW - O
42S-O,X14515,U,0,,,PRIVATE R/WAY AT TRAYMORE,40.4117,-80.012296,42S,S HILLS VILLAGE - S HILLS VILLAGE VIA BEECHVIEW - O
42S-O,X14515,S,0,,,PRIVATE R/WAY AT TRAYMORE,40.4117,-80.012296,42S,S HILLS VILLAGE - S HILLS VILLAGE VIA BEECHVIEW - O
47S-I,X14540,W,1,10.7,6.5,PRIVATE R/WAY AT WASHINGTON JCT,40.353554,-80.028001,47S,SOUTH HILLS VILLAGE - DOWNTOWN VIA OVERBROOK - I
47L-IA,X14540,W,1,28.3,3.0,PRIVATE R/WAY AT WASHINGTON JCT,40.353554,-80.028001,44L,LIBRARY - WASHINGTON JUNCTION - IA
47L-I,X14540,W,1,19.6,8.6,PRIVATE R/WAY AT WASHINGTON JCT,40.353554,-80.028001,47L,LIBRARY - DOWNTOWN VIA OVERBROOK - I
42S-IB,X14540,W,1,,,PRIVATE R/WAY AT WASHINGTON JCT,40.353554,-80.028001,42S,S HILLS VILLAGE - DOWNTOWN VIA BEECHVIEW - IB
42S-I,X14540,W,1,16.1,5.5,PRIVATE R/WAY AT WASHINGTON JCT,40.353554,-80.028001,42S,S HILLS VILLAGE - DOWNTOWN VIA BEECHVIEW - I
47L-I,X14540,U,1,50.0,0.0,PRIVATE R/WAY AT WASHINGTON JCT,40.353554,-80.028001,47L,LIBRARY - DOWNTOWN VIA OVERBROOK - I
42S-I,X14540,U,1,25.5,3.7,PRIVATE R/WAY AT WASHINGTON JCT,40.353554,-80.028001,42S,S HILLS VILLAGE - DOWNTOWN VIA BEECHVIEW - I
47L-I,X14540,S,1,34.9,0.9,PRIVATE R/WAY AT WASHINGTON JCT,40.353554,-80.028001,47L,LIBRARY - DOWNTOWN VIA OVERBROOK - I
42S-I,X14540,S,1,18.5,3.1,PRIVATE R/WAY AT WASHINGTON JCT,40.353554,-80.028001,42S,S HILLS VILLAGE - DOWNTOWN VIA BEECHVIEW - I
47S-O,X14550,W,0,10.5,3.5,PRIVATE R/WAY AT WASHINGTON JCT,40.353547,-80.028183,47S,SOUTH HILLS VILLAGE - VIA OVERBROOK - O
47L-O,X14550,W,0,20.3,9.3,PRIVATE R/WAY AT WASHINGTON JCT,40.353547,-80.028183,47L,LIBRARY - LIBRARY VIA OVERBROOK - O
42S-OB,X14550,W,0,,,PRIVATE R/WAY AT WASHINGTON JCT,40.353547,-80.028183,42S,S HILLS VILLAGE - S HILLS VILLAGE VIA BEECHVIEW - OB
42S-O,X14550,W,0,15.8,5.3,PRIVATE R/WAY AT WASHINGTON JCT,40.353547,-80.028183,42S,S HILLS VILLAGE - S HILLS VILLAGE VIA BEECHVIEW - O
47L-O,X14550,U,0,50.0,0.0,PRIVATE R/WAY AT WASHINGTON JCT,40.353547,-80.028183,47L,LIBRARY - LIBRARY VIA OVERBROOK - O
42S-O,X14550,U,0,25.0,0.0,PRIVATE R/WAY AT WASHINGTON JCT,40.353547,-80.028183,42S,S HILLS VILLAGE - S HILLS VILLAGE VIA BEECHVIEW - O
47L-O,X14550,S,0,34.9,0.9,PRIVATE R/WAY AT WASHINGTON JCT,40.353547,-80.028183,47L,LIBRARY - LIBRARY VIA OVERBROOK - O
42S-O,X14550,S,0,18.2,2.2,PRIVATE R/WAY AT WASHINGTON JCT,40.353547,-80.028183,42S,S HILLS VILLAGE - S HILLS VILLAGE VIA BEECHVIEW - O
42S-IB,X14560,W,1,,,PRIVATE R/WAY AT WESTFIELD,40.409684,-80.017717,42S,S HILLS VILLAGE - DOWNTOWN VIA BEECHVIEW - IB
42S-I,X14560,W,1,,,PRIVATE R/WAY AT WESTFIELD,40.409684,-80.017717,42S,S HILLS VILLAGE - DOWNTOWN VIA BEECHVIEW - I
42C-I,X14560,W,1,,,PRIVATE R/WAY AT WESTFIELD,40.409684,-80.017717,42C,CASTLE SHANNON - DOWNTOWN VIA BEECHVIEW - I
42S-I,X14560,U,1,,,PRIVATE R/WAY AT WESTFIELD,40.409684,-80.017717,42S,S HILLS VILLAGE - DOWNTOWN VIA BEECHVIEW - I
42S-I,X14560,S,1,,,PRIVATE R/WAY AT WESTFIELD,40.409684,-80.017717,42S,S HILLS VILLAGE - DOWNTOWN VIA BEECHVIEW - I
42S-OB,X14565,W,0,,,PRIVATE R/WAY AT WESTFIELD,40.409771,-80.0178,42S,S HILLS VILLAGE - S HILLS VILLAGE VIA BEECHVIEW - OB
42S-O,X14565,W,0,,,PRIVATE R/WAY AT WESTFIELD,40.409771,-80.0178,42S,S HILLS VILLAGE - S HILLS VILLAGE VIA BEECHVIEW - O
42C-O,X14565,W,0,,,PRIVATE R/WAY AT WESTFIELD,40.409771,-80.0178,42C,CASTLE SHANNON - CASTLE SHANNON VIA BEECHVIEW - O
42S-O,X14565,U,0,,,PRIVATE R/WAY AT WESTFIELD,40.409771,-80.0178,42S,S HILLS VILLAGE - S HILLS VILLAGE VIA BEECHVIEW - O
42S-O,X14565,S,0,,,PRIVATE R/WAY AT WESTFIELD,40.409771,-80.0178,42S,S HILLS VILLAGE - S HILLS VILLAGE VIA BEECHVIEW - O
47L-IA,X14570,W,1,,,PRIVATE R/WAY AT WEST LIBRARY,40.294243,-80.029707,44L,LIBRARY - WASHINGTON JUNCTION - IA
47L-I,X14570,W,1,,,PRIVATE R/WAY AT WEST LIBRARY,40.294243,-80.029707,47L,LIBRARY - DOWNTOWN VIA OVERBROOK - I
47L-I,X14570,U,1,,,PRIVATE R/WAY AT WEST LIBRARY,40.294243,-80.029707,47L,LIBRARY - DOWNTOWN VIA OVERBROOK - I
47L-I,X14570,S,1,,,PRIVATE R/WAY AT WEST LIBRARY,40.294243,-80.029707,47L,LIBRARY - DOWNTOWN VIA OVERBROOK - I
47L-O,X14575,W,0,,,PRIVATE R/WAY AT WEST LIBRARY,40.294194,-80.029968,47L,LIBRARY - LIBRARY VIA OVERBROOK - O
47L-O,X14575,U,0,,,PRIVATE R/WAY AT WEST LIBRARY,40.294194,-80.029968,47L,LIBRARY - LIBRARY VIA OVERBROOK - O
47L-O,X14575,S,0,,,PRIVATE R/WAY AT WEST LIBRARY,40.294194,-80.029968,47L,LIBRARY - LIBRARY VIA OVERBROOK - O
47L-O,X14900,W,0,,,PRIVATE R/WAY OPP SANDY CREEK APTS,40.296466,-80.030448,47L,LIBRARY - LIBRARY VIA OVERBROOK - O
47L-O,X14900,U,0,,,PRIVATE R/WAY OPP SANDY CREEK APTS,40.296466,-80.030448,47L,LIBRARY - LIBRARY VIA OVERBROOK - O
47L-O,X14900,S,0,,,PRIVATE R/WAY OPP SANDY CREEK APTS,40.296466,-80.030448,47L,LIBRARY - LIBRARY VIA OVERBROOK - O
47S-I,X70001,W,1,,,PRIVATE R/WAY AT BOGGS INBOUND STATION,40.416413,-80.010055,47S,SOUTH HILLS VILLAGE - DOWNTOWN VIA OVERBROOK - I
47L-I,X70001,W,1,,,PRIVATE R/WAY AT BOGGS INBOUND STATION,40.416413,-80.010055,47L,LIBRARY - DOWNTOWN VIA OVERBROOK - I
47L-I,X70001,U,1,,,PRIVATE R/WAY AT BOGGS INBOUND STATION,40.416413,-80.010055,47L,LIBRARY - DOWNTOWN VIA OVERBROOK - I
47L-I,X70001,S,1,,,PRIVATE R/WAY AT BOGGS INBOUND STATION,40.416413,-80.010055,47L,LIBRARY - DOWNTOWN VIA OVERBROOK - I
47S-O,X70002,W,0,,,PRIVATE R/WAY AT BOGGS OUTBOUND STATION,40.416377,-80.010206,47S,SOUTH HILLS VILLAGE - VIA OVERBROOK - O
47L-O,X70002,W,0,,,PRIVATE R/WAY AT BOGGS OUTBOUND STATION,40.416377,-80.010206,47L,LIBRARY - LIBRARY VIA OVERBROOK - O
47L-O,X70002,U,0,,,PRIVATE R/WAY AT BOGGS OUTBOUND STATION,40.416377,-80.010206,47L,LIBRARY - LIBRARY VIA OVERBROOK - O
47L-O,X70002,S,0,,,PRIVATE R/WAY AT BOGGS OUTBOUND STATION,40.416377,-80.010206,47L,LIBRARY - LIBRARY VIA OVERBROOK - O
47S-I,X70003,W,1,,,PRIVATE R/WAY AT DENISE INBOUND STATION,40.398316,-79.998582,47S,SOUTH HILLS VILLAGE - DOWNTOWN VIA OVERBROOK - I
47L-I,X70003,W,1,,,PRIVATE R/WAY AT DENISE INBOUND STATION,40.398316,-79.998582,47L,LIBRARY - DOWNTOWN VIA OVERBROOK - I
47L-I,X70003,U,1,,,PRIVATE R/WAY AT DENISE INBOUND STATION,40.398316,-79.998582,47L,LIBRARY - DOWNTOWN VIA OVERBROOK - I
47L-I,X70003,S,1,,,PRIVATE R/WAY AT DENISE INBOUND STATION,40.398316,-79.998582,47L,LIBRARY - DOWNTOWN VIA OVERBROOK - I
47S-O,X70004,W,0,,,PRIVATE R/WAY AT DENISE OUTBOUND STATION,40.398265,-79.998709,47S,SOUTH HILLS VILLAGE - VIA OVERBROOK - O
47L-O,X70004,W,0,,,PRIVATE R/WAY AT DENISE OUTBOUND STATION,40.398265,-79.998709,47L,LIBRARY - LIBRARY VIA OVERBROOK - O
47L-O,X70004,U,0,,,PRIVATE R/WAY AT DENISE OUTBOUND STATION,40.398265,-79.998709,47L,LIBRARY - LIBRARY VIA OVERBROOK - O
47L-O,X70004,S,0,,,PRIVATE R/WAY AT DENISE OUTBOUND STATION,40.398265,-79.998709,47L,LIBRARY - LIBRARY VIA OVERBROOK - O
47S-I,X70005,W,1,10.7,6.5,PRIVATE R/WAY AT SOUTH BANK INBOUND STATION,40.392719,-79.998189,47S,SOUTH HILLS VILLAGE - DOWNTOWN VIA OVERBROOK - I
47L-I,X70005,W,1,19.6,8.6,PRIVATE R/WAY AT SOUTH BANK INBOUND STATION,40.392719,-79.998189,47L,LIBRARY - DOWNTOWN VIA OVERBROOK - I
47L-I,X70005,U,1,50.0,0.0,PRIVATE R/WAY AT SOUTH BANK INBOUND STATION,40.392719,-79.998189,47L,LIBRARY - DOWNTOWN VIA OVERBROOK - I
47L-I,X70005,S,1,34.9,0.9,PRIVATE R/WAY AT SOUTH BANK INBOUND STATION,40.392719,-79.998189,47L,LIBRARY - DOWNTOWN VIA OVERBROOK - I
47S-O,X70006,W,0,10.5,3.5,PRIVATE R/WAY AT SOUTH BANK OUTBOUND STATION,40.392714,-79.998316,47S,SOUTH HILLS VILLAGE - VIA OVERBROOK - O
47L-O,X70006,W,0,20.3,9.3,PRIVATE R/WAY AT SOUTH BANK OUTBOUND STATION,40.392714,-79.998316,47L,LIBRARY - LIBRARY VIA OVERBROOK - O
47L-O,X70006,U,0,50.0,0.0,PRIVATE R/WAY AT SOUTH BANK OUTBOUND STATION,40.392714,-79.998316,47L,LIBRARY - LIBRARY VIA OVERBROOK - O
47L-O,X70006,S,0,34.9,0.9,PRIVATE R/WAY AT SOUTH BANK OUTBOUND STATION,40.392714,-79.998316,47L,LIBRARY - LIBRARY VIA OVERBROOK - O
47S-I,X70007,W,1,,,PRIVATE R/WAY AT MCNEILLY INBOUND STATION,40.378107,-80.004292,47S,SOUTH HILLS VILLAGE - DOWNTOWN VIA OVERBROOK - I
47L-I,X70007,W,1,,,PRIVATE R/WAY AT MCNEILLY INBOUND STATION,40.378107,-80.004292,47L,LIBRARY - DOWNTOWN VIA OVERBROOK - I
47L-I,X70007,U,1,,,PRIVATE R/WAY AT MCNEILLY INBOUND STATION,40.378107,-80.004292,47L,LIBRARY - DOWNTOWN VIA OVERBROOK - I
47L-I,X70007,S,1,,,PRIVATE R/WAY AT MCNEILLY INBOUND STATION,40.378107,-80.004292,47L,LIBRARY - DOWNTOWN VIA OVERBROOK - I
47S-O,X70008,W,0,,,PRIVATE R/WAY AT MCNEILLY OUTBOUND STATION,40.378161,-80.004321,47S,SOUTH HILLS VILLAGE - VIA OVERBROOK - O
47L-O,X70008,W,0,,,PRIVATE R/WAY AT MCNEILLY OUTBOUND STATION,40.378161,-80.004321,47L,LIBRARY - LIBRARY VIA OVERBROOK - O
47L-O,X70008,U,0,,,PRIVATE R/WAY AT MCNEILLY OUTBOUND STATION,40.378161,-80.004321,47L,LIBRARY - LIBRARY VIA OVERBROOK - O
47L-O,X70008,S,0,,,PRIVATE R/WAY AT MCNEILLY OUTBOUND STATION,40.378161,-80.004321,47L,LIBRARY - LIBRARY VIA OVERBROOK - O
47S-I,X70009,W,1,,,PRIVATE R/WAY AT KILLARNEY INBOUND STATION,40.374076,-80.007551,47S,SOUTH HILLS VILLAGE - DOWNTOWN VIA OVERBROOK - I
47L-I,X70009,W,1,,,PRIVATE R/WAY AT KILLARNEY INBOUND STATION,40.374076,-80.007551,47L,LIBRARY - DOWNTOWN VIA OVERBROOK - I
47L-I,X70009,U,1,,,PRIVATE R/WAY AT KILLARNEY INBOUND STATION,40.374076,-80.007551,47L,LIBRARY - DOWNTOWN VIA OVERBROOK - I
47L-I,X70009,S,1,,,PRIVATE R/WAY AT KILLARNEY INBOUND STATION,40.374076,-80.007551,47L,LIBRARY - DOWNTOWN VIA OVERBROOK - I
47S-O,X70010,W,0,,,PRIVATE R/WAY AT KILLARNEY OUTBOUND STATION,40.374152,-80.007645,47S,SOUTH HILLS VILLAGE - VIA OVERBROOK - O
47L-O,X70010,W,0,,,PRIVATE R/WAY AT KILLARNEY OUTBOUND STATION,40.374152,-80.007645,47L,LIBRARY - LIBRARY VIA OVERBROOK - O
47L-O,X70010,U,0,,,PRIVATE R/WAY AT KILLARNEY OUTBOUND STATION,40.374152,-80.007645,47L,LIBRARY - LIBRARY VIA OVERBROOK - O
47L-O,X70010,S,0,,,PRIVATE R/WAY AT KILLARNEY OUTBOUND STATION,40.374152,-80.007645,47L,LIBRARY - LIBRARY VIA OVERBROOK - O
47S-I,X70011,W,1,10.7,6.5,PRIVATE R/WAY AT MEMORIAL INBOUND STATION,40.366588,-80.016163,47S,SOUTH HILLS VILLAGE - DOWNTOWN VIA OVERBROOK - I
47L-I,X70011,W,1,19.6,8.6,PRIVATE R/WAY AT MEMORIAL INBOUND STATION,40.366588,-80.016163,47L,LIBRARY - DOWNTOWN VIA OVERBROOK - I
47L-I,X70011,U,1,50.0,0.0,PRIVATE R/WAY AT MEMORIAL INBOUND STATION,40.366588,-80.016163,47L,LIBRARY - DOWNTOWN VIA OVERBROOK - I
47L-I,X70011,S,1,34.9,0.9,PRIVATE R/WAY AT MEMORIAL INBOUND STATION,40.366588,-80.016163,47L,LIBRARY - DOWNTOWN VIA OVERBROOK - I
47S-O,X70012,W,0,10.5,3.5,PRIVATE R/WAY AT MEMORIAL OUTBOUND STATION,40.366654,-80.01623,47S,SOUTH HILLS VILLAGE - VIA OVERBROOK - O
47L-O,X70012,W,0,20.3,9.3,PRIVATE R/WAY AT MEMORIAL OUTBOUND STATION,40.366654,-80.01623,47L,LIBRARY - LIBRARY VIA OVERBROOK - O
47L-O,X70012,U,0,50.0,0.0,PRIVATE R/WAY AT MEMORIAL OUTBOUND STATION,40.366654,-80.01623,47L,LIBRARY - LIBRARY VIA OVERBROOK - O
47L-O,X70012,S,0,34.9,0.9,PRIVATE R/WAY AT MEMORIAL OUTBOUND STATION,40.366654,-80.01623,47L,LIBRARY - LIBRARY VIA OVERBROOK - O
47S-I,X70013,W,1,10.7,6.5,PRIVATE R/WAY AT WILLOW AVE INBOUND STATION,40.36552,-80.026093,47S,SOUTH HILLS VILLAGE - DOWNTOWN VIA OVERBROOK - I
47L-I,X70013,W,1,19.6,8.6,PRIVATE R/WAY AT WILLOW AVE INBOUND STATION,40.36552,-80.026093,47L,LIBRARY - DOWNTOWN VIA OVERBROOK - I
47L-I,X70013,U,1,50.0,0.0,PRIVATE R/WAY AT WILLOW AVE INBOUND STATION,40.36552,-80.026093,47L,LIBRARY - DOWNTOWN VIA OVERBROOK - I
47L-I,X70013,S,1,34.9,0.9,PRIVATE R/WAY AT WILLOW AVE INBOUND STATION,40.36552,-80.026093,47L,LIBRARY - DOWNTOWN VIA OVERBROOK - I
47S-O,X70014,W,0,10.5,3.5,PRIVATE R/WAY AT WILLOW AVE OUTBOUND STATION,40.365589,-80.026189,47S,SOUTH HILLS VILLAGE - VIA OVERBROOK - O
47L-O,X70014,W,0,20.3,9.3,PRIVATE R/WAY AT WILLOW AVE OUTBOUND STATION,40.365589,-80.026189,47L,LIBRARY - LIBRARY VIA OVERBROOK - O
47L-O,X70014,U,0,50.0,0.0,PRIVATE R/WAY AT WILLOW AVE OUTBOUND STATION,40.365589,-80.026189,47L,LIBRARY - LIBRARY VIA OVERBROOK - O
47L-O,X70014,S,0,34.9,0.9,PRIVATE R/WAY AT WILLOW AVE OUTBOUND STATION,40.365589,-80.026189,47L,LIBRARY - LIBRARY VIA OVERBROOK - O
47S-I,X70017,W,1,,,PRIVATE R/WAY AT BON AIR INBOUND STATION,40.40902,-80.003501,47S,SOUTH HILLS VILLAGE - DOWNTOWN VIA OVERBROOK - I
47L-I,X70017,W,1,,,PRIVATE R/WAY AT BON AIR INBOUND STATION,40.40902,-80.003501,47L,LIBRARY - DOWNTOWN VIA OVERBROOK - I
47L-I,X70017,U,1,,,PRIVATE R/WAY AT BON AIR INBOUND STATION,40.40902,-80.003501,47L,LIBRARY - DOWNTOWN VIA OVERBROOK - I
47L-I,X70017,S,1,,,PRIVATE R/WAY AT BON AIR INBOUND STATION,40.40902,-80.003501,47L,LIBRARY - DOWNTOWN VIA OVERBROOK - I
47S-O,X70018,W,0,,,PRIVATE R/WAY AT BON AIR OUTBOUND STATION,40.40901,-80.004016,47S,SOUTH HILLS VILLAGE - VIA OVERBROOK - O
47L-O,X70018,W,0,,,PRIVATE R/WAY AT BON AIR OUTBOUND STATION,40.40901,-80.004016,47L,LIBRARY - LIBRARY VIA OVERBROOK - O
47L-O,X70018,U,0,,,PRIVATE R/WAY AT BON AIR OUTBOUND STATION,40.40901,-80.004016,47L,LIBRARY - LIBRARY VIA OVERBROOK - O
47L-O,X70018,S,0,,,PRIVATE R/WAY AT BON AIR OUTBOUND STATION,40.40901,-80.004016,47L,LIBRARY - LIBRARY VIA OVERBROOK - O
052-I,X70019,W,1,46.4,5.4,PRIVATE R/WAY AT S HILLS JCT (INB ALLENTOWN),40.420803,-80.00688,052,ALLENTOWN - GATEWAY CENTER VIA ALLENTOWN - I
052-O,X70020,W,0,44.4,5.5,PRIVATE R/WAY AT S HILLS JCT (OUT ALLENTOWN),40.420787,-80.007034,052,ALLENTOWN - S HILLS JUNCTION VIA ALLENTOWN - O
42S-IB,X70025,W,1,,,PRIVATE R/WAY AT OVERBROOK JCT INBOUND STATION,40.365487,-80.026444,42S,S HILLS VILLAGE - DOWNTOWN VIA BEECHVIEW - IB
42S-I,X70025,W,1,,,PRIVATE R/WAY AT OVERBROOK JCT INBOUND STATION,40.365487,-80.026444,42S,S HILLS VILLAGE - DOWNTOWN VIA BEECHVIEW - I
42C-I,X70025,W,1,9.9,0.7,PRIVATE R/WAY AT OVERBROOK JCT INBOUND STATION,40.365487,-80.026444,42C,CASTLE SHANNON - DOWNTOWN VIA BEECHVIEW - I
42S-I,X70025,U,1,,,PRIVATE R/WAY AT OVERBROOK JCT INBOUND STATION,40.365487,-80.026444,42S,S HILLS VILLAGE - DOWNTOWN VIA BEECHVIEW - I
42S-I,X70025,S,1,,,PRIVATE R/WAY AT OVERBROOK JCT INBOUND STATION,40.365487,-80.026444,42S,S HILLS VILLAGE - DOWNTOWN VIA BEECHVIEW - I
42S-OB,X70026,W,0,,,PRIVATE R/WAY AT OVERBROOK JCT OUTBOUND STATION,40.365459,-80.026634,42S,S HILLS VILLAGE - S HILLS VILLAGE VIA BEECHVIEW - OB
42S-O,X70026,W,0,,,PRIVATE R/WAY AT OVERBROOK JCT OUTBOUND STATION,40.365459,-80.026634,42S,S HILLS VILLAGE - S HILLS VILLAGE VIA BEECHVIEW - O
42C-O,X70026,W,0,10.0,0.2,PRIVATE R/WAY AT OVERBROOK JCT OUTBOUND STATION,40.365459,-80.026634,42C,CASTLE SHANNON - CASTLE SHANNON VIA BEECHVIEW - O
42S-O,X70026,U,0,,,PRIVATE R/WAY AT OVERBROOK JCT OUTBOUND STATION,40.365459,-80.026634,42S,S HILLS VILLAGE - S HILLS VILLAGE VIA BEECHVIEW - O
42S-O,X70026,S,0,,,PRIVATE R/WAY AT OVERBROOK JCT OUTBOUND STATION,40.365459,-80.026634,42S,S HILLS VILLAGE - S HILLS VILLAGE VIA BEECHVIEW - O
