stop_id,service_id,direction_id,numroutes,TripsServingStop,stop_name,stop_lat,stop_lon
E00920,S,1,7,86,5TH AVE AT AMBERSON,40.447809,-79.938773
E00970,S,1,10,181,5TH AVE AT BELLEFIELD,40.446719,-79.951811
E00975,S,0,9,175,5TH AVE AT BELLEFIELD,40.446278,-79.951956
E01000,S,0,6,39,5TH AVE AT BIGELOW (PITT),40.444219,-79.954848
E01000,S,1,16,245,5TH AVE AT BIGELOW (PITT),40.444219,-79.954848
E01150,S,0,7,129,5TH AVE AT CRAIG,40.446803,-79.949141
E01180,S,1,3,21,5TH AVE AT DESOTO (CHILDREN'S HOSP),40.442374,-79.957778
E01210,S,0,9,175,5TH AVE AT MCKEE,40.440326,-79.960268
E01210,S,1,6,38,5TH AVE AT MCKEE,40.440326,-79.960268
E01225,S,0,9,175,5TH AVE AT HALKET,40.438979,-79.962128
E01225,S,1,6,38,5TH AVE AT HALKET,40.438979,-79.962128
E01400,S,0,9,175,5TH AVE AT FALEDER MONUMENTS,40.436835,-79.970227
E01400,S,1,6,38,5TH AVE AT FALEDER MONUMENTS,40.436835,-79.970227
E01440,S,0,9,175,5TH AVE AT MOULTRIE,40.437977,-79.974553
E01450,S,0,1,10,5TH AVE AT MOULTRIE FS,40.43812,-79.974579
E01450,S,1,14,270,5TH AVE AT MOULTRIE FS,40.43812,-79.974579
E01470,S,0,6,86,5TH AVE AT NEGLEY,40.449683,-79.929743
E01500,S,0,6,86,5TH AVE AT NEVILLE,40.447001,-79.947494
E01550,S,0,6,39,5TH AVE AT ROBINSON,40.437812,-79.965246
E01550,S,1,12,136,5TH AVE AT ROBINSON,40.437812,-79.965246
E01720,S,0,9,175,5TH AVE OPP TENNYSON,40.445539,-79.95301
E01810,S,1,11,248,5TH AVE AT WASHINGTON,40.438818,-79.990681
E01930,S,0,7,109,5TH AVE OPP COLLEGE,40.451108,-79.925708
E01940,S,0,6,39,5TH AVE OPP CRAFT,40.437977,-79.963853
E01940,S,1,12,148,5TH AVE OPP CRAFT,40.437977,-79.963853
E01960,S,0,1,10,5TH AVE OPP GIST,40.438382,-79.979386
E01960,S,1,14,270,5TH AVE OPP GIST,40.438382,-79.979386
E01990,S,0,7,109,5TH AVE OPP MARYLAND,40.450432,-79.927451
E02040,S,0,1,10,5TH AVE OPP SENECA,40.438199,-79.975867
E02040,S,1,14,270,5TH AVE OPP SENECA,40.438199,-79.975867
E02050,S,0,9,175,5TH AVE OPP THACKERAY,40.443079,-79.956461
E02050,S,1,6,38,5TH AVE OPP THACKERAY,40.443079,-79.956461
E02180,S,0,2,12,6TH ST AT BRINTON,40.387017,-79.757383
E02180,S,1,1,12,6TH ST AT BRINTON,40.387017,-79.757383
E02200,S,0,2,12,6TH ST AT CAVIT,40.387014,-79.759347
E02200,S,1,1,12,6TH ST AT CAVIT,40.387014,-79.759347
E02245,S,1,2,15,6TH ST AT BALDRIDGE,40.405727,-79.863519
E02430,S,0,2,12,7TH ST AT PROSPECT,40.386193,-79.752417
E02430,S,1,1,12,7TH ST AT PROSPECT,40.386193,-79.752417
E02770,S,0,1,11,ABER RD AT GROVE,40.467861,-79.865317
E02770,S,1,1,11,ABER RD AT GROVE,40.467861,-79.865317
E02810,S,0,1,11,ABER RD AT #8141,40.471156,-79.86227
E02810,S,1,1,11,ABER RD AT #8141,40.471156,-79.86227
E02929,S,0,1,20,AIKEN AVE AT KINCAID,40.466314,-79.935529
E03200,S,0,1,25,AIRBRAKE AVE OPP 9TH,40.402514,-79.821338
E03270,S,1,1,25,AIRBRAKE AVE AT 10TH,40.402913,-79.822012
E03280,S,0,3,12,ALCOMA BLVD AT SALTSBURG FS,40.481524,-79.804557
E03310,S,1,1,6,ALLEGHENY RIVER BLVD AT FAGEN'S BUILDING,40.495083,-79.845918
E03350,S,0,2,21,ALLEGHENY RIVER BLVD AT COLLEGE,40.513851,-79.843137
E03550,S,0,2,21,ALLEGHENY RIVER BLVD AT SHELDON FS,40.508316,-79.842597
E03575,S,0,1,6,ALLEGHENY RIVER BLVD AT SPORTS CENTER,40.502573,-79.843538
E03670,S,0,1,6,ALLEGHENY RIVER BLVD AT WILDWOOD,40.503739,-79.843131
E03740,S,1,2,22,ALLEGHENY RIVER BLVD OPP PLUM,40.511929,-79.84352
E03940,S,0,1,13,ALLEQUIPPA ST AT STADIUM,40.444515,-79.963394
E04086,S,1,1,6,ANTHON DR AT ANGE,40.464516,-79.801361
E04180,S,1,1,25,ARDMORE BLVD AT BRADDOCK,40.424665,-79.859114
E04240,S,1,1,25,ARDMORE BLVD AT FAIRFAX,40.422186,-79.854127
E04320,S,1,3,40,ARDMORE BLVD AT MARLBORO FS,40.435878,-79.871672
E04420,S,1,1,25,ARDMORE BLVD OPP WESTINGHOUSE,40.421226,-79.85219
E04480,S,0,2,7,ATKINSON PL AT GAYWOOD,40.456254,-79.855867
E04480,S,1,2,7,ATKINSON PL AT GAYWOOD,40.456254,-79.855867
E04520,S,0,1,20,ATLANTIC AVE AT HILLCREST,40.468269,-79.938233
E04580,S,1,2,20,ATLANTIC AVE AT ROSETTA,40.467319,-79.937777
E04663,S,0,1,25,AVENUE U AT WATKINS,40.394896,-79.804015
E04780,S,0,2,15,BATES ST AT ATWOOD,40.438136,-79.954075
E04850,S,1,5,32,BAUM BLVD AT GRAHAM,40.457523,-79.936845
E04870,S,1,5,32,BAUM BLVD AT LIBERTY,40.456712,-79.939544
E04930,S,1,5,32,BAUM BLVD AT MOREWOOD,40.455051,-79.945186
E05350,S,0,2,14,BEATTY RD AT COOPER,40.45213,-79.752722
E05500,S,0,2,14,BEATTY RD OPP #557,40.451132,-79.756356
E05510,S,1,9,71,BEATTY ST AT EVA,40.461211,-79.927474
E05515,S,1,9,71,BEATTY ST AT BAUM NS,40.460179,-79.928134
E05590,S,1,2,12,BEDFORD AVE OPP CRAWFORD,40.444208,-79.988015
E05620,S,1,2,26,BEDFORD AVE AT FRANCIS,40.451735,-79.970236
E05750,S,1,2,26,BEDFORD AVE AT SOMERS,40.449488,-79.975547
E05760,S,0,2,26,BEDFORD AVE AT SOMERS,40.449327,-79.975557
E05800,S,0,4,38,BEDFORD AVE OPP CASSATT,40.445333,-79.98501
E05880,S,1,1,9,BEECHWOOD BLVD OPP BURCHFIELD,40.425721,-79.919605
E05980,S,0,1,17,BEECHWOOD BLVD AT LILAC,40.422987,-79.927511
E05990,S,0,1,17,BEECHWOOD BLVD AT LORETTA,40.422153,-79.927864
E06010,S,1,3,26,BEECHWOOD BLVD AT MONITOR,40.424705,-79.919958
E06025,S,0,1,9,BEECHWOOD BLVD AT NATIVITY CHURCH,40.427678,-79.936017
E06130,S,0,2,26,BEECHWOOD BLVD AT #3773,40.428046,-79.929327
E06140,S,0,2,26,BEECHWOOD BLVD AT #3825,40.428256,-79.930922
E06215,S,0,1,17,BEECHWOOD BLVD OPP FEDERAL HILL,40.421058,-79.927619
E06240,S,0,2,26,BEECHWOOD BLVD OPP FORWARD,40.427533,-79.92836
E06290,S,1,1,9,BEECHWOOD BLVD OPP #2946,40.422383,-79.917499
E06300,S,1,1,9,BEECHWOOD BLVD OPP #3046,40.420709,-79.920238
E06310,S,1,1,9,BEECHWOOD BLVD OPP #3220,40.418519,-79.92272
E06350,S,1,1,9,BEECHWOOD BLVD OPP SHADY EXT,40.418171,-79.924382
E06450,S,0,2,19,BEELER ST AT #5362,40.445544,-79.931849
E06620,S,1,1,29,BELL AVE OPP ANN,40.401462,-79.86003
E06800,S,1,5,32,BENNETT ST AT LANG,40.457012,-79.898752
E06810,S,1,5,32,BENNETT ST AT MURTLAND,40.457582,-79.901353
E06820,S,1,5,32,BENNETT ST AT OAKWOOD,40.4541,-79.885553
E06917,S,0,2,26,BENTLEY DR AT BURROWS,40.439565,-79.970657
E06917,S,1,1,13,BENTLEY DR AT BURROWS,40.439565,-79.970657
E07050,S,0,3,25,BENTLEY DR AT #2160,40.440289,-79.977757
E07050,S,1,4,38,BENTLEY DR AT #2160,40.440289,-79.977757
E07210,S,1,1,29,BESSEMER AVE AT WESTERN,40.395364,-79.843235
E07550,S,1,5,32,BIGELOW BLVD AT BLOOMFLD BRDGE FS (PULL-IN),40.458741,-79.958331
E08046,S,1,2,20,BLACK ST AT NEGLEY,40.468717,-79.927635
E08210,S,1,2,20,BLVD OF ALLIES AT JUMONVILLE,40.436302,-79.977668
E08360,S,0,1,17,BLVD OF ALLIES AT WARD,40.43454,-79.954886
E08720,S,0,1,29,BRADDOCK AVE AT COREY,40.403842,-79.86923
E08720,S,1,3,18,BRADDOCK AVE AT COREY,40.403842,-79.86923
E08740,S,1,1,10,BRADDOCK AVE AT DELMAR,40.423837,-79.887277
E08980,S,0,1,29,BRADDOCK AVE AT OVERTON,40.434326,-79.895232
E09330,S,1,2,39,BRADDOCK AVE OPP CHARLESTON,40.430708,-79.892475
E09540,S,0,3,28,BRADDOCK HILLS SHPG CTR AT STOREFRONT,40.414579,-79.853269
E09540,S,1,4,30,BRADDOCK HILLS SHPG CTR AT STOREFRONT,40.414579,-79.853269
E09650,S,0,3,16,BRERETON ST AT POLISH FALCONS,40.456545,-79.969113
E09730,S,1,2,15,BRINTON AVE AT BOWERS,40.402284,-79.841562
E09840,S,0,1,13,BRINTON AVE AT RAVINE,40.401595,-79.841326
E09870,S,1,2,15,BRINTON AVE AT SHERIDAN,40.405048,-79.8439
E10050,S,1,2,15,BRINTON RD AT BRADDOCK,40.422464,-79.863891
E10060,S,1,2,15,BRINTON RD OPP BRINTON MANOR,40.41191,-79.855009
E10130,S,1,2,15,BRINTON RD AT FAIRFAX,40.421619,-79.861286
E10140,S,0,1,13,BRINTON RD AT GENERAL BRADDOCK FS,40.4104,-79.850802
E10180,S,0,1,13,BRINTON RD AT MARY,40.406856,-79.847921
E10200,S,0,1,13,BRINTON RD AT MCKELVEY,40.425432,-79.869251
E10230,S,1,2,15,BRINTON RD AT #1043,40.409801,-79.8527
E10290,S,1,2,15,BRINTON RD AT TURNER,40.407724,-79.849097
E10350,S,0,1,13,BRINTON RD AT YOST,40.41254,-79.856522
E10425,S,1,2,15,BRINTON RD OPP LOCUST FS,40.410974,-79.852066
E10450,S,0,1,13,BRINTON RD OPP RIDGE,40.41996,-79.85902
E10480,S,0,1,13,BRINTON RD OPP TURNER,40.407777,-79.849285
E10543,S,1,1,12,BROADWAY AVE AT JOSEPHINE,40.383668,-79.810025
E10550,S,1,2,37,BROADWAY BLVD AT WALL,40.40148,-79.780082
E10580,S,1,1,25,BROADWAY BLVD AT CENTER,40.401805,-79.777856
E11190,S,0,2,46,BRYANT ST AT ST CLAIR,40.476077,-79.920844
E11220,S,0,2,26,BRYN MAWR RD AT CAMP,40.451936,-79.958975
E11270,S,0,2,26,BRYN MAWR RD AT LYON FS,40.452424,-79.960272
E11285,S,0,2,31,BRYN MAWR RD AT TERMINUS,40.45211,-79.959517
E11285,S,1,2,31,BRYN MAWR RD AT TERMINUS,40.45211,-79.959517
E11295,S,1,1,4,BUNKERHILL ST AT HIGHLAND,40.47839,-79.916302
E11510,S,0,2,12,BURROWS ST OPP WARING,40.444017,-79.969718
E11510,S,1,2,12,BURROWS ST OPP WARING,40.444017,-79.969718
E11580,S,1,9,33,BUTLER ST AT 37TH,40.466313,-79.964735
E11620,S,1,9,33,BUTLER ST AT 39TH,40.467663,-79.963736
E11680,S,0,9,33,BUTLER ST AT 43RD,40.470527,-79.96031
E11690,S,1,9,33,BUTLER ST AT 44TH,40.471572,-79.959819
E11700,S,0,9,33,BUTLER ST AT 44TH,40.471358,-79.959767
E11800,S,0,10,48,BUTLER ST AT 54TH,40.482732,-79.951284
E11820,S,0,10,48,BUTLER ST AT 55TH,40.483493,-79.949961
E11840,S,0,9,33,BUTLER ST AT 56TH,40.484322,-79.948072
E11870,S,0,2,4,BUTLER ST AT 62ND ST BRIDGE FS,40.488153,-79.938087
E11870,S,1,9,33,BUTLER ST AT 62ND ST BRIDGE FS,40.488153,-79.938087
E11922,S,0,9,33,BUTLER ST AT #6130,40.488043,-79.938029
E11922,S,1,2,4,BUTLER ST AT #6130,40.488043,-79.938029
E11930,S,1,1,1,BUTLER ST AT BAKER,40.487872,-79.920353
E12080,S,1,9,33,BUTLER ST AT PENN,40.462974,-79.967089
E12100,S,0,9,33,BUTLER ST AT #6012,40.486223,-79.943166
E12150,S,1,2,4,BUTLER ST AT #6618,40.489524,-79.929562
E12210,S,1,2,4,BUTLER ST AT #7122,40.488554,-79.923373
E12235,S,1,11,48,BUTLER ST OPP 53RD,40.482172,-79.952801
E12250,S,1,2,4,BUTLER ST OPP 62ND ST BRIDGE,40.48744,-79.93972
E12280,S,0,9,33,BUTLER ST AT #5770 (CAR WASH),40.485888,-79.944118
E12350,S,1,9,33,BUTLER ST OPP #6002,40.486376,-79.943132
E12430,S,0,1,11,CALMAR DR AT #220,40.468399,-79.8741
E12430,S,1,1,11,CALMAR DR AT #220,40.468399,-79.8741
E12450,S,0,1,7,CAMBRIDGE SQ DR AT INFORMATION CENTER,40.422363,-79.760522
E12450,S,1,1,6,CAMBRIDGE SQ DR AT INFORMATION CENTER,40.422363,-79.760522
E12570,S,1,2,13,CENTER RD AT FOUR SEASONS APTS,40.46098,-79.759383
E12630,S,1,1,6,CENTER RD AT KENMAWR,40.440051,-79.767854
E12660,S,1,2,13,CENTER RD AT MCKENZIE,40.457097,-79.758405
E12730,S,1,2,13,CENTER RD AT RUTH,40.453718,-79.760442
E12750,S,0,2,14,CENTER RD AT #691,40.464702,-79.758694
E12780,S,1,2,13,CENTER RD OPP WIMBLEDON,40.467104,-79.756972
E12860,S,0,2,14,CENTER RD OPP FOUR SEASONS APTS (#650),40.460918,-79.759488
E12930,S,1,2,13,CENTER RD OPP #691,40.464579,-79.758602
E13030,S,0,1,13,CENTER ST AT FRANKLIN,40.440523,-79.883102
E13095,S,0,1,29,CENTER ST AT MAIN,40.395876,-79.84148
E13103,S,1,1,11,CENTER ST AT NORTH,40.444241,-79.880983
E13110,S,0,1,13,CENTER ST AT REBECCA,40.439655,-79.883773
E13230,S,0,4,39,CENTRE AVE AT AVALON,40.448714,-79.961681
E13270,S,1,4,39,CENTRE AVE AT BRYN MAWR,40.449186,-79.957542
E13310,S,1,4,39,CENTRE AVE AT CHAUNCEY,40.44581,-79.972186
E13350,S,1,5,52,CENTRE AVE AT CRAWFORD,40.441148,-79.985849
E13380,S,1,6,85,CENTRE AVE AT CYPRESS,40.455179,-79.941412
E13420,S,1,4,39,CENTRE AVE AT DITHRIDGE,40.451614,-79.953291
E13440,S,0,7,64,CENTRE AVE AT ELMORE,40.444827,-79.977578
E13440,S,1,2,26,CENTRE AVE AT ELMORE,40.444827,-79.977578
E13500,S,0,2,26,CENTRE AVE AT HELDMAN,40.442591,-79.982463
E13500,S,1,5,52,CENTRE AVE AT HELDMAN,40.442591,-79.982463
E13520,S,1,4,39,CENTRE AVE AT HERRON,40.448965,-79.964823
E13600,S,1,12,123,CENTRE AVE AT MELWOOD,40.452377,-79.950768
E13620,S,0,5,52,CENTRE AVE AT MILLER,40.441759,-79.984131
E13650,S,0,6,85,CENTER AVE AT MOREWOOD,40.45407,-79.944544
E13720,S,0,6,85,CENTRE AVE AT NEVILLE,40.452446,-79.949858
E13720,S,1,6,38,CENTRE AVE AT NEVILLE,40.452446,-79.949858
E13745,S,0,2,26,CENTRE AVE AT ROBERTS,40.442307,-79.983172
E13745,S,1,5,52,CENTRE AVE AT ROBERTS,40.442307,-79.983172
E13770,S,0,1,23,CENTRE AVE AT #5803,40.457807,-79.932494
E13770,S,1,4,39,CENTRE AVE AT #5803,40.457807,-79.932494
E13860,S,0,7,83,CENTRE AVE AT WASHINGTON PLAZA,40.440519,-79.986895
E13900,S,0,4,39,CENTRE AVE OPP BRYN MAWR,40.448895,-79.957658
E13910,S,0,6,85,CENTRE AVE OPP CYPRESS,40.45499,-79.941392
E13990,S,0,4,39,CENTRE AVE OPP JUNILLA,40.445559,-79.970162
E14010,S,1,4,39,CENTRE AVE OPP MORGAN,40.447687,-79.966815
E14135,S,0,1,11,CHASKE ST AT #8168,40.474811,-79.867067
E14135,S,1,1,11,CHASKE ST AT #8168,40.474811,-79.867067
E14140,S,1,2,10,CHAUCER ST AT LINCOLN,40.464226,-79.900416
E14250,S,0,2,22,CHISLETT ST AT VILLANOVA,40.482227,-79.927739
E14300,S,0,1,8,CHISLETT ST OPP VETTER,40.480789,-79.928221
E14430,S,1,1,29,COAL ST OPP HUTCHINSON,40.435218,-79.883045
E14436,S,0,1,11,COAL ST AT JAMES,40.44694,-79.876496
E14438,S,1,1,11,COAL ST AT MAPLE,40.44636,-79.876888
E14440,S,0,1,44,COAL ST AT REBECCA,40.438793,-79.881259
E14440,S,1,2,67,COAL ST AT REBECCA,40.438793,-79.881259
E14575,S,0,1,43,COLLEGE AVE AT HOLDEN,40.455442,-79.928395
E15080,S,0,1,20,COLUMBO ST AT #5154,40.469549,-79.940103
E15090,S,0,1,20,COLUMBO ST AT #5168,40.470295,-79.940498
E15460,S,1,3,18,COREY AVE AT 5TH,40.408146,-79.867111
E15490,S,1,3,18,COREY AVE AT CENTER,40.406117,-79.866535
E15510,S,1,3,18,COREY AVE AT MARGARETTA,40.40501,-79.867585
E15530,S,1,1,6,CORPORATE OFFICE PARK DR AT UNITED RENTAL,40.437136,-79.769399
E15620,S,0,6,39,CRAIG ST AT 5TH,40.4471,-79.949164
E15620,S,1,2,46,CRAIG ST AT 5TH,40.4471,-79.949164
E15650,S,1,8,84,CRAIG ST AT BAYARD,40.449875,-79.951055
E15680,S,0,2,46,CRAIG ST AT CENTRE,40.451818,-79.951826
E15680,S,1,6,38,CRAIG ST AT CENTRE,40.451818,-79.951826
E15780,S,0,3,19,CRAWFORD ST AT BEDFORD,40.443985,-79.988018
E15790,S,1,3,41,CRAWFORD ST AT CENTRE,40.440842,-79.985803
E15800,S,0,3,41,CRAWFORD ST AT CENTRE FS,40.44115,-79.985998
E15890,S,1,4,43,CRAWFORD ST OPP WYLIE,40.442715,-79.987327
E16000,S,0,1,8,EAST LIBERTY BLVD OPP DAHLEM PL,40.458489,-79.916674
E16000,S,1,1,7,EAST LIBERTY BLVD OPP DAHLEM PL,40.458489,-79.916674
E16020,S,0,1,9,DALLAS AVE OPP EDGERTON,40.447924,-79.910825
E16020,S,1,3,21,DALLAS AVE OPP EDGERTON,40.447924,-79.910825
E16030,S,0,2,19,DALLAS AVE AT EDGERTON,40.447768,-79.910786
E16030,S,1,1,9,DALLAS AVE AT EDGERTON,40.447768,-79.910786
E16100,S,1,3,21,DALLAS AVE AT REYNOLDS,40.448852,-79.910174
E16310,S,0,1,9,DEARY ST AT GRAPEVINE,40.465099,-79.90255
E16350,S,0,1,9,DEARY ST AT MONTEZUMA,40.465971,-79.903994
E16360,S,1,2,10,DEARY ST AT PAULSON,40.467087,-79.905699
E16500,S,1,2,12,DEVILLIERS ST AT WEBSTER,40.445635,-79.981729
E16620,S,0,3,16,DOBSON ST AT HERRON,40.458197,-79.964393
E16725,S,1,1,11,DOUGLASS DR AT LAKETON FS,40.45538,-79.858423
E17290,S,0,3,48,EAST BUSWAY AT HAY ST RAMP OUT SHELTER,40.442781,-79.887026
E17290,S,1,5,91,EAST BUSWAY AT HAY ST RAMP OUT SHELTER,40.442781,-79.887026
E17295,S,0,4,50,EAST BUSWAY AT WILKINSBURG STATION B,40.446421,-79.888681
E17295,S,1,7,191,EAST BUSWAY AT WILKINSBURG STATION B,40.446421,-79.888681
E17301,S,0,1,79,EAST BUSWAY AT HOMEWOOD STATION A,40.452801,-79.898955
E17305,S,0,1,79,EAST BUSWAY AT NEGLEY STATION A,40.456656,-79.93241
E17312,S,1,1,79,EAST BUSWAY AT GARAGE EMPLOYEES ONLY STOP,40.457675,-79.911891
E17313,S,0,1,79,EAST BUSWAY AT GARAGE EMPLOYEES ONLY STOP,40.457501,-79.911933
E17320,S,1,3,42,EAST HILLS DR AT PARK HILL,40.452656,-79.873686
E17355,S,1,3,42,EAST HILLS DR OPP SCHOOL DRVWY,40.454027,-79.873146
E17395,S,0,1,20,EAST LIBERTY BLVD AT NEGLEY,40.467765,-79.92795
E17410,S,0,1,11,EASTWOOD RD AT FRANKSTOWN,40.461332,-79.870371
E17420,S,1,1,11,EASTWOOD RD OPP DOLLMAN,40.462653,-79.870807
E17440,S,1,1,29,EDGEWOOD AVE AT ELM FS,40.431543,-79.884402
E17610,S,0,1,29,EDGEWOOD AVE OPP ELM,40.431515,-79.884558
E17880,S,0,2,12,E RAILROAD AVE AT GRANT,40.502068,-79.844753
E17950,S,1,1,25,ELECTRIC AVE AT #1137,40.408116,-79.84155
E17965,S,1,1,25,ELECTRIC AVE AT OLYMPIA HALL,40.40221,-79.836619
E17990,S,1,1,25,ELECTRIC AVE OPP WOOD,40.401508,-79.835346
E18270,S,1,3,8,ELLA ST AT FRIENDSHIP FS,40.464455,-79.950588
E18430,S,0,1,43,ELLSWORTH AVE AT AMBERSON,40.451219,-79.941026
E18440,S,0,1,43,ELLSWORTH AVE AT BELLEFONTE,40.453398,-79.935238
E18470,S,0,1,43,ELLSWORTH AVE AT COLLEGE,40.457052,-79.929337
E18480,S,1,1,43,ELLSWORTH AVE AT COLONIAL,40.451971,-79.939199
E18510,S,0,1,43,ELLSWORTH AVE AT ELLSWORTH PL,40.451952,-79.938837
E18570,S,0,1,43,ELLSWORTH AVE AT MARYLAND,40.455991,-79.930829
E18620,S,1,1,43,ELLSWORTH AVE AT NEVILLE,40.448123,-79.947619
E18630,S,1,1,43,ELLSWORTH AVE OPP CLYDE,40.449036,-79.946724
E18650,S,0,2,23,ELMORE SQUARE AT #2130,40.442588,-79.97728
E18650,S,1,3,36,ELMORE SQUARE AT #2130,40.442588,-79.97728
E18710,S,0,2,26,ELMORE SQUARE AT #2150,40.441735,-79.976374
E18710,S,1,1,13,ELMORE SQUARE AT #2150,40.441735,-79.976374
E18750,S,0,5,51,ELMORE ST AT ROSE FS,40.443708,-79.976867
E18750,S,1,5,51,ELMORE ST AT ROSE FS,40.443708,-79.976867
E18820,S,1,1,43,ELWOOD ST AT LEHIGH,40.454637,-79.926264
E18840,S,0,2,12,ERIN ST AT WEBSTER,40.446352,-79.980428
E18880,S,1,2,10,EVERTON ST AT SILVERTON,40.462821,-79.891685
E18905,S,0,3,21,EXPOMART DR AT WEST ENTRANCE,40.432675,-79.794318
E18905,S,1,2,12,EXPOMART DR AT WEST ENTRANCE,40.432675,-79.794318
E18950,S,0,1,20,FERN ST AT SCHENLEY FS,40.472332,-79.93755
E19160,S,0,2,58,FORBES AVE AT BEECHWOOD,40.43796,-79.916337
E19220,S,0,14,270,FORBES AVE AT BOYD (DUQUESNE UNIV),40.437949,-79.993638
E19260,S,0,1,29,FORBES AVE AT BRADDOCK,40.439559,-79.897738
E19270,S,1,1,29,FORBES AVE AT BRADDOCK FS,40.439746,-79.898088
E19400,S,0,6,39,FORBES AVE AT DITHRIDGE,40.444188,-79.950104
E19400,S,1,8,142,FORBES AVE AT DITHRIDGE,40.444188,-79.950104
E19420,S,1,1,29,FORBES AVE AT CELERON,40.439833,-79.895568
E19460,S,0,11,179,FORBES AVE AT HALKET (MAGEE HOSPITAL),40.438328,-79.961247
E19470,S,0,14,270,FORBES AVE AT MCANULTY,40.437862,-79.991356
E19480,S,0,5,95,FORBES AVE AT JUMONVILLE,40.437277,-79.977857
E19480,S,1,1,10,FORBES AVE AT JUMONVILLE,40.437277,-79.977857
E19580,S,0,1,20,FORBES AVE AT MEYRAN,40.440456,-79.958333
E19580,S,1,1,6,FORBES AVE AT MEYRAN,40.440456,-79.958333
E19595,S,0,1,20,FORBES AVE AT OAKLAND,40.441311,-79.957233
E19595,S,1,2,7,FORBES AVE AT OAKLAND,40.441311,-79.957233
E19610,S,0,1,39,FORBES AVE AT MOREWOOD FS (CARNEGIE MELLON),40.444745,-79.943937
E19610,S,1,9,181,FORBES AVE AT MOREWOOD FS (CARNEGIE MELLON),40.444745,-79.943937
E19620,S,0,5,95,FORBES AVE AT MOULTRIE,40.437138,-79.974851
E19620,S,1,1,10,FORBES AVE AT MOULTRIE,40.437138,-79.974851
E19660,S,0,6,125,FORBES AVE AT MURRAY,40.43798,-79.923191
E19700,S,1,5,121,FORBES AVE AT PLAINFIELD,40.440521,-79.935463
E19750,S,0,5,95,FORBES AVE AT SENECA,40.437193,-79.976137
E19750,S,1,1,10,FORBES AVE AT SENECA,40.437193,-79.976137
E19770,S,0,3,67,FORBES AVE AT SHADY,40.438,-79.91958
E19770,S,1,2,23,FORBES AVE AT SHADY,40.438,-79.91958
E19780,S,0,14,270,FORBES AVE AT STEVENSON,40.437675,-79.986891
E19830,S,0,6,125,FORBES AVE OPP BEELER,40.443902,-79.939435
E19840,S,0,8,144,FORBES AVE OPP BELLEFIELD NS,40.443783,-79.950819
E19840,S,1,6,38,FORBES AVE OPP BELLEFIELD NS,40.443783,-79.950819
E19850,S,0,2,58,FORBES AVE OPP BRIARCLIFF,40.439513,-79.899326
E19920,S,0,6,125,FORBES AVE OPP PLAINFIELD,40.440608,-79.935761
E20065,S,0,1,7,FOX HILL DR AT #1120,40.439118,-79.781815
E20065,S,1,1,6,FOX HILL DR AT #1120,40.439118,-79.781815
E20210,S,1,2,67,FRANKLIN AVE AT MILL,40.439985,-79.881985
E20320,S,0,3,93,FRANKSTOWN AVE AT BENNETT,40.458081,-79.90354
E20330,S,1,3,93,FRANKSTOWN AVE AT BRADDOCK,40.456007,-79.889895
E20340,S,0,3,93,FRANKSTOWN AVE AT BRADDOCK,40.455944,-79.890194
E20350,S,1,2,83,FRANKSTOWN AVE AT BRUSHTON,40.455563,-79.887969
E20370,S,1,2,31,FRANKSTOWN AVE AT COLLIER,40.456425,-79.891778
E20490,S,0,3,93,FRANKSTOWN AVE AT LANG,40.457877,-79.898659
E20500,S,1,3,93,FRANKSTOWN AVE OPP LASCHALL,40.458317,-79.905801
E20590,S,1,7,132,FRANKSTOWN AVE AT PAULSON,40.460899,-79.914987
E20710,S,0,7,63,FRANKSTOWN AVE AT WILKINSBURG FS,40.458179,-79.875679
E20730,S,0,7,63,FRANKSTOWN RD OPP WOODS,40.459753,-79.873755
E20900,S,1,1,1,FRANKSTOWN RD AT COAL HOLLOW NS,40.460644,-79.842264
E20920,S,0,2,10,FRANKSTOWN RD AT CRAB HOLLOW,40.461843,-79.848871
E20940,S,1,6,28,FRANKSTOWN RD AT CRESTVIEW,40.479793,-79.822591
E20945,S,0,6,29,FRANKSTOWN RD AT CRESTVIEW,40.479836,-79.82248
E20990,S,0,2,10,FRANKSTOWN RD AT DUFFIELD,40.4613,-79.847987
E21040,S,0,2,10,FRANKSTOWN RD AT GRAHAM FS,40.461327,-79.86276
E21080,S,0,4,17,FRANKSTOWN RD AT HIGHLAND,40.467111,-79.836284
E21160,S,1,2,9,FRANKSTOWN RD AT MCCLUTCHEON,40.464882,-79.853088
E21180,S,0,4,17,FRANKSTOWN RD AT ORCHARD FS,40.471273,-79.820195
E21360,S,1,2,9,FRANKSTOWN RD AT #10485,40.460134,-79.843642
E21430,S,1,4,16,FRANKSTOWN RD AT SPRING GROVE,40.474408,-79.822121
E21460,S,1,2,9,FRANKSTOWN RD AT TREMONT,40.462372,-79.858024
E21600,S,1,4,16,FRANKSTOWN RD OPP HARVARD,40.469493,-79.823618
E21660,S,1,2,9,FRANKSTOWN RD OPP HOWARD,40.463118,-79.856363
E21675,S,0,4,17,FRANKSTOWN RD AT PENN ARBORS DR FS,40.464139,-79.839674
E21820,S,0,2,15,FRAZIER ST AT WARD,40.430753,-79.955601
E21850,S,0,2,15,FRAZIER ST OPP DAWSON,40.429795,-79.954355
E21850,S,1,4,15,FRAZIER ST OPP DAWSON,40.429795,-79.954355
E23420,S,1,3,8,FRIENDSHIP AVE AT ATLANTIC,40.462038,-79.938858
E23440,S,1,3,8,FRIENDSHIP AVE AT EDMOND,40.462898,-79.947722
E23450,S,1,3,8,FRIENDSHIP AVE AT EVALINE,40.462243,-79.941496
E23550,S,0,2,8,FRIENDSHIP AVE AT NEGLEY,40.460666,-79.932523
E23600,S,1,3,8,FRIENDSHIP AVE AT STRATFORD NS,40.461009,-79.933191
E23630,S,0,2,8,FRIENDSHIP AVE AT EDMOND,40.462697,-79.947992
E23750,S,0,1,7,GARDEN CITY DR AT #635,40.448085,-79.786242
E23750,S,1,1,6,GARDEN CITY DR AT #635,40.448085,-79.786242
E23920,S,0,1,7,GARDEN CITY DR AT COTTONWOOD,40.447514,-79.790318
E23920,S,1,1,6,GARDEN CITY DR AT COTTONWOOD,40.447514,-79.790318
E23930,S,0,1,7,GARDEN CITY DR AT CRANBERRY,40.450306,-79.787521
E23930,S,1,1,6,GARDEN CITY DR AT CRANBERRY,40.450306,-79.787521
E23970,S,0,1,7,GARDEN CITY DR AT GREENLEAF #1,40.447423,-79.779653
E23970,S,1,1,6,GARDEN CITY DR AT GREENLEAF #1,40.447423,-79.779653
E24170,S,0,1,7,GARDEN CITY DR AT #915,40.452106,-79.783098
E24170,S,1,1,6,GARDEN CITY DR AT #915,40.452106,-79.783098
E24200,S,0,1,7,GARDEN CITY DR AT #949,40.451913,-79.780633
E24200,S,1,1,6,GARDEN CITY DR AT #949,40.451913,-79.780633
E24270,S,0,1,7,GARDEN CITY DR OPP DAHLIA,40.446201,-79.774233
E24270,S,1,1,6,GARDEN CITY DR OPP DAHLIA,40.446201,-79.774233
E24280,S,0,1,7,GARDEN CITY DR OPP FIELDSTONE,40.451554,-79.784841
E24280,S,1,1,6,GARDEN CITY DR OPP FIELDSTONE,40.451554,-79.784841
E24495,S,0,1,6,GRAFTON ST AT HIGHLAND,40.475768,-79.917834
E24570,S,0,2,7,GRAHAM BLVD OPP GAYWOOD,40.456428,-79.857065
E24570,S,1,2,7,GRAHAM BLVD OPP GAYWOOD,40.456428,-79.857065
E24640,S,0,2,7,GRAHAM BLVD AT LAKETON,40.45691,-79.857239
E24640,S,1,2,7,GRAHAM BLVD AT LAKETON,40.45691,-79.857239
E24710,S,1,2,7,GRAHAM BLVD AT ROYAL FS,40.458048,-79.858513
E24830,S,1,2,7,GRAHAM BLVD OPP SAMPSON,40.458082,-79.859985
E25000,S,0,1,13,GRANDVIEW AVE AT BESSEMER NS,40.395135,-79.839302
E25040,S,1,1,13,GRANT AVE AT TRI-BORO,40.405861,-79.825137
E25055,S,1,2,12,GRANT ST AT E RAILROAD,40.502003,-79.844541
E25100,S,1,2,22,GREENFIELD AVE AT DELEVAN,40.423342,-79.931717
E25340,S,0,3,31,GREENFIELD AVE AT HAZELWOOD,40.419289,-79.927439
E25354,S,1,2,22,GREENFIELD AVE AT MCCASLIN,40.424269,-79.936053
E25358,S,1,2,22,GREENFIELD AVE AT WINDSOR FS,40.422812,-79.930509
E25362,S,0,2,22,GREENFIELD AVE AT CITY STEPS,40.424171,-79.937565
E25364,S,1,2,22,GREENFIELD AVE OPP BEEHNER,40.424178,-79.934042
E25366,S,1,2,22,GREENFIELD AVE OPP CITY STEPS,40.42426,-79.937685
E25367,S,0,2,22,GREENFIELD AVE AT KEARCHER,40.425273,-79.943984
E25380,S,0,1,7,GREENLEAF DR AT #716,40.451016,-79.779084
E25380,S,1,1,6,GREENLEAF DR AT #716,40.451016,-79.779084
E25410,S,0,1,7,GREENLEAF DR AT GARDEN CITY,40.453324,-79.778263
E25410,S,1,1,6,GREENLEAF DR AT GARDEN CITY,40.453324,-79.778263
E25450,S,0,1,7,GREENLEAF DR OPP LAUREL,40.449461,-79.779248
E25450,S,1,1,6,GREENLEAF DR OPP LAUREL,40.449461,-79.779248
E25457,S,1,1,12,GREENSBURG PIKE AT BOWLING ALLEY,40.38371,-79.819402
E25575,S,0,1,8,GREENSBURG PIKE AT HYER,40.389052,-79.821199
E25750,S,1,1,12,GREENSBURG PIKE AT UNION,40.381034,-79.816982
E26040,S,0,1,11,GROVE RD AT SUNCREST,40.471114,-79.866848
E26040,S,1,1,11,GROVE RD AT SUNCREST,40.471114,-79.866848
E26380,S,0,6,76,HAMILTON AVE AT 5TH FS,40.457022,-79.908566
E26430,S,0,1,44,HAMILTON AVE AT BRUSHTON,40.452718,-79.889367
E26450,S,1,5,32,HAMILTON AVE AT EAST LIBERTY BLVD,40.459872,-79.915621
E26480,S,1,5,32,HAMILTON AVE AT ENTERPRISE,40.459372,-79.914343
E26530,S,0,1,44,HAMILTON AVE AT HOMEWOOD,40.454634,-79.897752
E26560,S,0,1,44,HAMILTON AVE AT LANG,40.455079,-79.899786
E26570,S,1,7,76,HAMILTON AVE AT LASCHALL,40.456744,-79.906561
E26600,S,1,2,44,HAMILTON AVE AT MURTLAND,40.455733,-79.902112
E26620,S,1,5,32,HAMILTON AVE AT PUTNAM,40.45885,-79.913026
E26660,S,0,1,44,HAMILTON AVE OPP LASCHALL,40.456674,-79.906986
E26690,S,1,1,10,HAMPTON AVE AT BARNES,40.436867,-79.888028
E27240,S,1,1,29,HARRIETT ST AT BLDG #2,40.413867,-79.883682
E27400,S,0,4,46,HAWKINS AVE AT 2ND,40.411924,-79.869957
E27420,S,0,3,17,HAWKINS AVE AT 4TH,40.409,-79.866798
E27460,S,1,4,47,HAWKINS AVE OPP OVERLAND,40.410977,-79.868655
E27555,S,1,1,25,HAY ST OPP ROSS,40.443326,-79.886384
E28630,S,0,1,9,HAZELWOOD AVE AT #787,40.419715,-79.929771
E28675,S,0,1,6,HEBERTON ST AT JACKSON,40.470341,-79.916095
E28722,S,0,3,16,HERRON AVE AT LIBERTY,40.461549,-79.966994
E28725,S,0,3,16,HERRON AVE AT RUTHVEN (BUSWAY ENT),40.459198,-79.965905
E28740,S,0,1,10,HERRON AVE AT WEBSTER,40.452808,-79.964776
E28850,S,0,6,20,HERSHEY RD OPP TILFORD,40.473201,-79.796701
E28910,S,0,6,85,HIGHLAND AVE AT ALDER,40.457297,-79.925128
E28915,S,0,2,8,HIGHLAND AVE AT BROWNING,40.476478,-79.917428
E28930,S,0,2,8,HIGHLAND AVE AT BUNKERHILL,40.478301,-79.916205
E28950,S,1,7,57,HIGHLAND AVE AT EAST LIBERTY BLVD,40.466195,-79.922716
E28970,S,1,6,85,HIGHLAND AVE AT ELLWOOD,40.455029,-79.925393
E29030,S,0,5,42,HIGHLAND AVE AT HOWE,40.453239,-79.9247
E29057,S,0,5,42,HIGHLAND AVE AT PENN CIRCLE NORTH,40.463638,-79.923782
E29070,S,1,9,77,HIGHLAND AVE AT RIPPEY,40.464772,-79.923393
E29100,S,1,6,85,HIGHLAND AVE AT #348,40.455916,-79.925341
E29240,S,0,6,57,HIGHLAND AVE OPP HAYS,40.468121,-79.921691
E29690,S,1,2,10,HOMEWOOD AVE AT BENNETT,40.45636,-79.896624
E29750,S,1,2,10,HOMEWOOD AVE AT HERMITAGE,40.460097,-79.895179
E29910,S,1,2,10,HOMEWOOD AVE AT RACE,40.458748,-79.895693
E30010,S,1,1,9,HOMEWOOD AVE OPP ROYCREST,40.448028,-79.902044
E30170,S,0,2,12,HULTON RD AT HEBERTON,40.485237,-79.820148
E30175,S,0,2,21,HULTON RD AT 3RD,40.526028,-79.842569
E30230,S,1,2,12,HULTON RD OPP #246,40.487387,-79.821031
E30260,S,1,1,10,HUTCHINSON AVE AT SAVANNAH,40.43355,-79.892229
E30310,S,0,1,2,HWY RT 286 AT ALPINE FS,40.427875,-79.721449
E30375,S,1,1,2,HWY RT 286 AT HOLIDAY PARK VFD,40.469124,-79.706078
E30545,S,0,1,2,HWY RT 286 OPP PINE VALLEY,40.454878,-79.710881
E32227,S,0,1,25,IMOGENE RD AT BROWNS HILL,40.414994,-79.924799
E32242,S,0,2,12,ICE PLANT HILL RD OPP MORELLE,40.381686,-79.815095
E32246,S,0,1,7,IVANHOE DR AT EAST BORO APTS,40.43527,-79.764341
E32246,S,1,1,6,IVANHOE DR AT EAST BORO APTS,40.43527,-79.764341
E32295,S,1,1,13,JAMES ST AT MONROEVILLE,40.409155,-79.818965
E32303,S,1,1,13,JAMES ST AT BUENA VISTA,40.42015,-79.808375
E32322,S,0,1,13,JAMES ST AT STEPP,40.421759,-79.804689
E32326,S,1,1,13,JAMES ST OPP SPEELMAN FS,40.421247,-79.799775
E32350,S,1,1,22,JANCEY ST AT BRYANT,40.479416,-79.929805
E32420,S,1,1,22,JANCEY ST AT #1853,40.486978,-79.925457
E32430,S,1,1,22,JANCEY ST AT #1901,40.487847,-79.924756
E32737,S,0,1,25,JOHNSTON AVE OPP #857,40.406137,-79.930985
E32738,S,1,1,24,JOHNSTON AVE AT BROADVIEW,40.408224,-79.926047
E32742,S,1,1,24,JOHNSTON AVE AT GERTRUDE,40.406472,-79.941435
E32743,S,0,1,25,JOHNSTON AVE AT GLENWOOD,40.406304,-79.939753
E32745,S,0,1,25,JOHNSTON AVE AT WINSTON,40.405652,-79.938191
E32746,S,1,1,24,JOHNSTON AVE AT RIVERMONT FS,40.406777,-79.927573
E32752,S,1,1,24,JOHNSTON AVE AT ROSELLE FS,40.406147,-79.932768
E32790,S,1,1,4,JONCAIRE ST AT BOUQUET,40.440488,-79.953688
E32870,S,0,2,15,JONES AVE OPP MAIN,40.407547,-79.857052
E32890,S,0,2,15,JONES AVE AT MILLER,40.405647,-79.859549
E32950,S,0,2,15,JONES AVE AT YOST,40.409476,-79.856048
E32970,S,0,2,15,JONES AVE AT ZUERNER,40.406009,-79.858458
E33080,S,0,5,32,KELLY ST AT MURTLAND,40.456588,-79.90196
E33360,S,1,1,6,KING LEAR DR AT MACBETH,40.426207,-79.757786
E33365,S,0,1,7,KING LEAR DR AT MOSSIDE,40.429845,-79.751746
E34080,S,0,2,7,LAKETON RD AT SOUTHERN,40.458002,-79.852097
E34120,S,0,1,11,LAKETON RD AT TURNER SCHOOL,40.449223,-79.864175
E34150,S,0,1,11,LAKETON RD AT WINTON FS,40.451362,-79.861828
E34160,S,0,2,7,LAKETON RD AT WOODGATE,40.458038,-79.855629
E34353,S,0,2,22,LARIMER AVE AT MAYFLOWER,40.464405,-79.916023
E34559,S,0,2,22,LARIMER AVE OPP WINSLOW,40.465802,-79.913318
E34580,S,0,1,9,LEECH FARM RD AT SHUMAN CENTER DR,40.478452,-79.901696
E34580,S,1,2,10,LEECH FARM RD AT SHUMAN CENTER DR,40.478452,-79.901696
E34630,S,1,5,19,LEECHBURG RD AT COURTNEY,40.486774,-79.804809
E34635,S,1,5,19,LEECHBURG RD AT LEECHBURG GARDEN APTS,40.488227,-79.801375
E34640,S,1,5,19,LEECHBURG RD AT RICHEY,40.4863,-79.81461
E34680,S,1,5,19,LEECHBURG RD AT #6601,40.49008,-79.797567
E34700,S,1,5,19,LEECHBURG RD AT SALTSBURG,40.485127,-79.817721
E34720,S,1,5,19,LEECHBURG RD AT SUTTON,40.491732,-79.792932
E34730,S,1,5,19,LEECHBURG RD OPP RAILROAD,40.494076,-79.787671
E34760,S,1,2,10,LEMINGTON AVE AT OBERLIN,40.467088,-79.890159
E34770,S,0,1,9,LEMINGTON AVE AT PAULSON,40.470111,-79.89723
E34770,S,1,2,10,LEMINGTON AVE AT PAULSON,40.470111,-79.89723
E34800,S,0,1,9,LEMINGTON AVE AT WARDSONS,40.471391,-79.898111
E34800,S,1,2,10,LEMINGTON AVE AT WARDSONS,40.471391,-79.898111
E34830,S,1,2,10,LEMINGTON AVE OPP WESTMORELAND,40.466875,-79.893864
E34845,S,1,3,8,LIBERTY AVE AT 12TH,40.445381,-79.99169
E34890,S,1,9,46,LIBERTY AVE AT 17TH,40.449226,-79.985396
E35030,S,1,3,8,LIBERTY AVE AT 29TH,40.4574,-79.973467
E35090,S,1,4,38,LIBERTY AVE AT 32ND,40.460288,-79.969258
E35130,S,1,8,55,LIBERTY AVE AT 34TH,40.461727,-79.966177
E35200,S,0,2,31,LIBERTY AVE AT BAUM,40.456702,-79.939934
E35210,S,1,5,39,LIBERTY AVE AT CANOE,40.463256,-79.955047
E35300,S,0,2,31,LIBERTY AVE AT GROSS,40.459411,-79.945022
E35330,S,0,5,47,LIBERTY AVE AT MAIN (BLOOMFIELD BRIDGE),40.463457,-79.95339
E35340,S,1,8,62,LIBERTY AVE AT MAIN FS,40.463604,-79.953451
E35430,S,1,2,31,LIBERTY AVE AT WINEBIDDLE,40.458837,-79.94362
E35590,S,0,3,37,LIBERTY AVE AT 32ND NS,40.460019,-79.969378
E35640,S,0,2,15,LIBRARY AVE AT BELL,40.40328,-79.862959
E35770,S,1,4,39,LINCOLN AVE AT ARBOR,40.466384,-79.897809
E35850,S,0,5,50,LINCOLN AVE AT LINCOLN LOOP,40.473088,-79.888621
E35850,S,1,5,50,LINCOLN AVE AT LINCOLN LOOP,40.473088,-79.888621
E35880,S,1,4,39,LINCOLN AVE AT MANNING,40.467981,-79.896969
E35900,S,0,4,39,LINCOLN AVE AT MEADOW,40.460988,-79.909844
E35980,S,1,4,39,LINCOLN AVE AT #409,40.460768,-79.911499
E35990,S,1,4,39,LINCOLN AVE AT SHETLAND,40.461658,-79.907767
E36060,S,1,4,39,LINCOLN AVE OPP CHAUCER,40.464327,-79.90048
E36095,S,0,4,39,LINCOLN AVE OPP LEMINGTON HOME DRVWY,40.471003,-79.892016
E36170,S,0,2,15,LINCOLN HWY AT CENTER,40.395779,-79.838726
E36400,S,1,2,15,LINCOLN HWY OPP CENTER,40.395689,-79.838519
E36910,S,1,3,44,LINDEN AVE AT SR CITIZEN APTS,40.398813,-79.836667
E37760,S,0,1,14,MACBETH DR OPP #920,40.426103,-79.759563
E38350,S,0,1,13,MALL BLVD OPP K-MART,40.43194,-79.791169
E38350,S,1,2,8,MALL BLVD OPP K-MART,40.43194,-79.791169
E38666,S,0,1,13,MAPLE AVE OPP #843,40.407472,-79.823027
E38705,S,1,1,11,MAPLE ST AT HUNTER,40.446008,-79.876096
E38717,S,1,1,13,MAPLE ST AT PINE,40.407526,-79.823876
E38725,S,1,1,13,MAPLE ST AT #843,40.407567,-79.823018
E38750,S,0,1,11,MARK DR AT GROVE,40.470078,-79.867117
E38750,S,1,1,11,MARK DR AT GROVE,40.470078,-79.867117
E38770,S,0,1,11,MARK DR AT #7843,40.468933,-79.872481
E38770,S,1,1,11,MARK DR AT #7843,40.468933,-79.872481
E38900,S,1,5,25,MCCRADY RD AT BEULAH CHURCH,40.446292,-79.846612
E38967,S,0,1,7,MCGINLEY RD AT HEALTHSOUTH DRVWY,40.425462,-79.745405
E39034,S,0,3,14,MELLON TERRACE AT RESERVOIR TERMINUS,40.479192,-79.92128
E39034,S,1,3,13,MELLON TERRACE AT RESERVOIR TERMINUS,40.479192,-79.92128
E39035,S,1,2,10,MELLON TERRACE AT MELLON,40.478633,-79.920367
E39060,S,1,1,25,MIDDLE ST AT 2ND,40.399791,-79.814813
E39070,S,1,1,25,MIDDLE ST AT 3RD,40.400284,-79.815576
E39080,S,1,1,25,MIDDLE ST AT 4TH,40.40079,-79.816383
E39140,S,1,1,29,MIDDLE ST AT HAWKINS,40.405383,-79.861814
E39190,S,1,1,25,MIDDLE ST AT #526,40.396376,-79.808635
E39207,S,0,1,11,MILL ST OPP EWING,40.448368,-79.878835
E39220,S,0,1,29,MILLER ST AT GAS WAY,40.415879,-79.885496
E39410,S,0,1,9,MINGO ST AT OAKDENE,40.464582,-79.890963
E39440,S,0,1,7,MIRACLE MILE SC AT DRESS BARN,40.437351,-79.768281
E39460,S,0,1,7,MIRACLE MILE SC AT MARSHAL'S,40.438183,-79.765107
E39480,S,0,1,7,MIRACLE MILE SC AT MEDIA PLAY,40.437529,-79.766682
E39500,S,0,1,7,MIRACLE MILE SC AT OLD NAVY,40.437584,-79.765469
E39520,S,1,2,39,MONONGAHELA AVE AT #1615 NS,40.426611,-79.89141
E39610,S,1,2,39,MONONGAHELA AVE AT SCHOYER,40.423573,-79.891342
E39700,S,0,1,29,MONONGAHELA AVE OPP DUQUESNE,40.418377,-79.888405
E39770,S,1,1,13,MONROEVILLE AVE AT ALBERT,40.409007,-79.819745
E39909,S,0,8,64,MONROEVILLE MALL AT SOUTHEAST ENT (LOWER LEVEL),40.428217,-79.793557
E39909,S,1,10,68,MONROEVILLE MALL AT SOUTHEAST ENT (LOWER LEVEL),40.428217,-79.793557
E39910,S,0,1,7,MONROEVILLE BLVD AT ANDERSON,40.435644,-79.781928
E39910,S,1,1,12,MONROEVILLE BLVD AT ANDERSON,40.435644,-79.781928
E39970,S,0,1,11,MONROEVILLE BLVD AT MUNICIPAL BLDG,40.436405,-79.779941
E40060,S,1,2,18,MONROEVILLE BLVD AT RACQUET LANE,40.431681,-79.784924
E40100,S,0,1,13,MONROEVILLE BLVD OPP BOSSES,40.428114,-79.787429
E40120,S,1,1,12,MONROEVILLE BLVD OPP MUNICIPAL BLDG,40.436231,-79.780519
E40175,S,0,2,14,MONROEVILLE-TRESTLE RD AT #881,40.475086,-79.758642
E40180,S,0,2,14,MONROEVILLE-TRESTLE RD AT ERZEN GREENHOUSE (#849),40.473089,-79.756554
E40340,S,1,2,31,MONTIER ST AT PARK,40.445855,-79.871796
E40370,S,0,3,42,MONTIER ST AT #1823,40.448254,-79.86859
E40400,S,1,1,12,MORELLE AVE AT ICE PLANT HILL,40.381741,-79.814858
E40500,S,1,1,12,MOSSIDE BLVD AT BROADWAY,40.397532,-79.769506
E40950,S,1,1,11,MT CARMEL RD AT TYLER (ELK),40.467705,-79.882931
E40970,S,0,1,11,MT CARMEL RD OPP FAYBERN,40.466614,-79.874754
E40980,S,1,1,11,MT CARMEL RD OPP HIGHLANDVIEW,40.468739,-79.886514
E40990,S,1,1,11,MT CARMEL RD OPP PERSHING,40.465714,-79.876326
E41100,S,1,5,86,MURRAY AVE AT BARTLETT FS,40.436154,-79.922797
E41110,S,0,5,90,MURRAY AVE AT BEACON,40.434841,-79.922904
E41120,S,1,5,86,MURRAY AVE AT BEACON NS,40.434599,-79.922756
E41130,S,0,4,67,MURRAY AVE OPP BURCHFIELD,40.427278,-79.926366
E41150,S,0,5,90,MURRAY AVE AT FLEMINGTON,40.426415,-79.927628
E41230,S,1,5,86,MURRAY AVE AT HOBART,40.433481,-79.922944
E41240,S,0,5,90,MURRAY AVE AT HOBART,40.433806,-79.923028
E41320,S,0,1,9,MURRAY AVE AT NORTHUMBERLAND,40.44147,-79.923439
E41420,S,0,1,23,MURRAY AVE OPP FORWARD,40.429915,-79.923539
E41640,S,0,1,9,MURTLAND ST AT UPLAND,40.463234,-79.899357
E41740,S,1,6,100,NEGLEY AVE AT CENTRE,40.457383,-79.93426
E41755,S,1,2,23,NEGLEY AVE AT E BUSWAY STEPS,40.456218,-79.933473
E41760,S,0,6,76,NEGLEY AVE AT EAST LIBERTY BLVD,40.467482,-79.928129
E41780,S,1,2,23,NEGLEY AVE AT ELMER,40.45337,-79.931683
E41781,S,0,1,23,NEGLEY AVE AT ELMER,40.453452,-79.931872
E41810,S,1,3,49,NEGLEY AVE AT HAMPTON,40.475538,-79.924671
E41846,S,0,1,23,NEGLEY AVE AT HOWE,40.451238,-79.930568
E41865,S,1,2,23,NEGLEY AVE AT KENTUCKY,40.450468,-79.929964
E41920,S,0,6,76,NEGLEY AVE AT RIPPEY,40.466511,-79.928721
E41950,S,1,5,57,NEGLEY AVE AT STANTON,40.471658,-79.926368
E41970,S,1,2,23,NEGLEY AVE AT WALNUT,40.452008,-79.930883
E41971,S,0,1,23,NEGLEY AVE AT WALNUT,40.452107,-79.931072
E42030,S,1,6,76,NEGLEY AVE OPP RIPPEY FS,40.466972,-79.928772
E42200,S,0,2,15,NIAGARA PL AT CRAFT,40.434733,-79.960011
E42200,S,1,2,8,NIAGARA PL AT CRAFT,40.434733,-79.960011
E42230,S,0,1,29,NOBLE AVE AT WASHINGTON,40.421318,-79.886206
E42250,S,1,1,29,NOBLE AVE AT DICKSON,40.420647,-79.885351
E42505,S,0,1,7,NORTHERN PIKE AT FOX HILL,40.438646,-79.781769
E42505,S,1,1,6,NORTHERN PIKE AT FOX HILL,40.438646,-79.781769
E42607,S,0,1,7,NORTHERN PIKE AT SHAFLEY,40.43859,-79.781321
E42607,S,1,1,6,NORTHERN PIKE AT SHAFLEY,40.43859,-79.781321
E42793,S,0,2,12,OAKHILL DR AT TERRACE,40.440056,-79.967351
E42793,S,1,2,12,OAKHILL DR AT TERRACE,40.440056,-79.967351
E42797,S,0,2,12,OAKHILL DR AT #115 (ISLAND),40.440578,-79.96988
E42797,S,1,2,12,OAKHILL DR AT #115 (ISLAND),40.440578,-79.96988
E42800,S,0,2,15,OAKLAND AVE AT BATES,40.438704,-79.953471
E42920,S,1,1,62,OAKWOOD ST AT BENNETT,40.453884,-79.88554
E42940,S,1,1,62,OAKWOOD ST OPP HAMILTON,40.451646,-79.884637
E42980,S,1,2,10,OBERLIN ST AT JOPLIN,40.463295,-79.890076
E43030,S,0,1,9,OBERLIN ST OPP LEMINGTON,40.467071,-79.890035
E43330,S,0,1,7,OLD WM PENN HWY AT GARDEN CITY,40.44287,-79.773087
E44560,S,1,4,32,ONE WILD PLACE AT EDUCATION CENTER,40.482243,-79.919799
E44770,S,0,1,13,OXFORD DR AT RACQUET CLUB APTS,40.431287,-79.787493
E44770,S,1,2,18,OXFORD DR AT RACQUET CLUB APTS,40.431287,-79.787493
E44780,S,0,2,18,OXFORD DR OPP OXFORD APTS,40.430677,-79.786712
E44780,S,1,1,13,OXFORD DR OPP OXFORD APTS,40.430677,-79.786712
E44800,S,1,2,15,PALLAS ST AT BRINTON,40.405917,-79.845483
E44910,S,1,3,42,PARK HILL DR AT #2102,40.452955,-79.874235
E45000,S,1,4,15,PARKVIEW ST AT SWINBURNE,40.431579,-79.952765
E45060,S,0,1,25,PATTON ST BRIDGE AT MIDDLE,40.395279,-79.80472
E45060,S,1,1,25,PATTON ST BRIDGE AT MIDDLE,40.395279,-79.80472
E45130,S,0,1,9,PAULSON AVE AT DEAN,40.46804,-79.903547
E45150,S,1,2,10,PAULSON AVE AT LEMINGTON,40.469991,-79.897138
E45180,S,0,1,9,PAULSON AVE AT NAVARRO FS,40.468312,-79.902847
E45370,S,1,15,144,PENN AVE AT 12TH,40.445865,-79.992337
E45420,S,1,12,126,PENN AVE AT 17TH,40.449816,-79.98602
E45460,S,1,12,126,PENN AVE AT 25TH,40.454019,-79.97984
E45560,S,0,4,85,PENN AVE OPP BUTLER,40.462834,-79.966805
E45570,S,1,4,84,PENN AVE AT 36TH,40.464237,-79.963864
E45610,S,1,4,84,PENN AVE AT 40TH,40.465248,-79.957875
E45620,S,0,4,85,PENN AVE AT 40TH,40.465112,-79.958071
E45630,S,1,1,62,PENN AVE AT 44TH (CHILDRENS HOSPITAL),40.465997,-79.953502
E45650,S,1,1,43,PENN AVE AT 5TH,40.454016,-79.912161
E45700,S,1,5,25,PENN AVE AT ANGELA,40.439589,-79.874748
E45770,S,1,4,64,PENN AVE AT BRUSHTON,40.446662,-79.893535
E45780,S,1,4,84,PENN AVE AT BUTLER,40.462931,-79.966906
E45810,S,1,5,25,PENN AVE AT CARRIAGE HOUSE APTS,40.442348,-79.868366
E45880,S,0,2,22,PENN AVE AT VILLAGE OF EASTSIDE SHPG CTR,40.458229,-79.918334
E45880,S,1,12,191,PENN AVE AT VILLAGE OF EASTSIDE SHPG CTR,40.458229,-79.918334
E45890,S,0,17,262,PENN AVE OPP E LIBERTY STATION SHPG CTR,40.458136,-79.918523
E45890,S,1,2,9,PENN AVE OPP E LIBERTY STATION SHPG CTR,40.458136,-79.918523
E45940,S,1,1,62,PENN AVE AT EVALINE,40.464789,-79.941021
E45975,S,0,1,62,PENN AVE AT FAIRMOUNT,40.464094,-79.932567
E46020,S,0,1,62,PENN AVE AT GRAHAM,40.464662,-79.935232
E46040,S,0,2,38,PENN AVE AT GRANT (MELLON BANK),40.404817,-79.826093
E46040,S,1,1,8,PENN AVE AT GRANT (MELLON BANK),40.404817,-79.826093
E46050,S,0,3,21,PENN AVE AT GREENSBURG PIKE,40.444678,-79.861211
E46060,S,0,2,22,PENN AVE AT HIGHLAND,40.461489,-79.924735
E46060,S,1,17,206,PENN AVE AT HIGHLAND,40.461489,-79.924735
E46080,S,1,4,64,PENN AVE AT HOMEWOOD,40.449206,-79.90118
E46090,S,0,3,62,PENN AVE AT HOMEWOOD,40.44915,-79.90144
E46140,S,0,3,62,PENN AVE AT LANG,40.449973,-79.903886
E46170,S,1,1,43,PENN AVE AT LINDEN,40.452615,-79.910239
E46200,S,0,4,85,PENN AVE AT MAIN,40.465587,-79.955233
E46210,S,1,1,62,PENN AVE AT MATHILDA,40.465507,-79.946301
E46240,S,0,1,44,PENN AVE AT MILL,40.442305,-79.880835
E46250,S,1,1,62,PENN AVE AT MILLVALE,40.46534,-79.945125
E46310,S,0,1,62,PENN AVE AT PEARL,40.465655,-79.94817
E46360,S,0,3,21,PENN AVE AT PRINCETON,40.440505,-79.871839
E46500,S,0,3,21,PENN AVE AT SUMMIT,40.443108,-79.866717
E46550,S,1,4,64,PENN AVE AT TRENTON FS,40.446047,-79.891653
E46570,S,1,5,25,PENN AVE AT WEBER,40.441974,-79.86921
E46595,S,0,2,22,PENN AVE AT WHITFIELD,40.461731,-79.925622
E46595,S,1,14,187,PENN AVE AT WHITFIELD,40.461731,-79.925622
E46597,S,0,9,148,PENN AVE AT WHITFIELD,40.461714,-79.92581
E46597,S,1,1,22,PENN AVE AT WHITFIELD,40.461714,-79.92581
E46610,S,0,1,62,PENN AVE AT WINEBIDDLE,40.464927,-79.942958
E46620,S,0,4,85,PENN AVE OPP 36TH,40.464118,-79.963998
E46630,S,0,1,62,PENN AVE OPP 44TH (CHILDRENDS HOSPITAL),40.465864,-79.953612
E46700,S,0,3,62,PENN AVE OPP MURTLAND,40.45069,-79.906173
E46800,S,0,2,22,PENN AVE OPP SHADY NS (GIANT EAGLE),40.459413,-79.920077
E46800,S,1,13,207,PENN AVE OPP SHADY NS (GIANT EAGLE),40.459413,-79.920077
E46870,S,1,3,21,PENN AVE OPP WEST,40.445302,-79.889452
E46890,S,0,3,21,PENN CENTER BLVD OPP BLDG #7,40.426416,-79.811067
E46890,S,1,2,12,PENN CENTER BLVD OPP BLDG #7,40.426416,-79.811067
E46905,S,0,2,12,PENN CENTER BLVD AT PENN TOWERS (LOWER),40.42464,-79.814053
E46905,S,1,5,25,PENN CENTER BLVD AT PENN TOWERS (LOWER),40.42464,-79.814053
E47030,S,0,4,39,CENTRE AVE AT HIGHLAND,40.459709,-79.925504
E47205,S,1,2,12,PENN HILLS SC AT VANITY FAIR,40.462206,-79.824905
E47348,S,0,2,22,PENN MALL STATION AT SHELTER #4,40.460201,-79.922215
E47348,S,1,13,207,PENN MALL STATION AT SHELTER #4,40.460201,-79.922215
E47380,S,0,1,10,PENNWOOD AVE AT REBECCA,40.440347,-79.886706
E47400,S,0,1,10,PENNWOOD AVE AT SOUTH FS,40.442447,-79.887468
E47480,S,1,1,12,PITCAIRN RD OPP PARK ENTRANCE,40.418598,-79.7761
E47520,S,0,1,25,PITCAIRN-TRAFFORD RD AT HAYMAKER VILLAGE #2,40.389098,-79.765877
E47590,S,0,2,36,PITCAIRN-TRAFFORD RD OPP COFFEY,40.393329,-79.76638
E47590,S,1,1,12,PITCAIRN-TRAFFORD RD OPP COFFEY,40.393329,-79.76638
E47610,S,1,1,25,PITCAIRN-TRAFFORD RD OPP HAYMAKER VILLAGE #1,40.388529,-79.765955
E47944,S,0,2,12,POKETA RD AT ROCKCLIFF,40.485189,-79.830904
E47948,S,1,2,12,POKETA RD OPP CLAYMONT,40.488508,-79.825661
E47960,S,1,2,12,PRIDE ST AT FORBES,40.437731,-79.985203
E48190,S,1,1,29,RANKIN BLVD AT BLDG #5,40.413042,-79.883003
E48230,S,0,1,29,RANKIN BLVD OPP HAWKINS,40.411436,-79.880214
E48370,S,0,2,38,REBECCA ST AT ELLA,40.437558,-79.877878
E48400,S,0,2,42,REBECCA ST AT SWISSVALE,40.438168,-79.879726
E48405,S,0,1,25,REBECCA ST AT SWISSVALE FS,40.438005,-79.879146
E48430,S,0,2,12,REED ST AT KIRKPATRICK,40.443762,-79.974991
E48430,S,1,2,12,REED ST AT KIRKPATRICK,40.443762,-79.974991
E48510,S,1,1,9,REYNOLDS ST AT MURTLAND,40.447932,-79.9079
E48520,S,0,1,9,REYNOLDS ST AT MURTLAND,40.447999,-79.90768
E48590,S,0,2,12,RIVERTOWN PLAZA AT GIANT EAGLE,40.498851,-79.844228
E48590,S,1,2,12,RIVERTOWN PLAZA AT GIANT EAGLE,40.498851,-79.844228
E48638,S,0,1,25,RIVERMONT AVE AT JOHNSTON,40.406803,-79.927823
E48641,S,1,2,26,ROBERTS AVE AT WEBSTER,40.444446,-79.984966
E48644,S,0,2,26,ROBERTS ST AT WEBSTER,40.444386,-79.984755
E48648,S,1,3,42,ROBINSON BLVD AT DOUGLASS,40.455645,-79.863713
E48845,S,0,2,26,ROBINSON ST AT ALLEQUIPPA,40.442772,-79.965651
E49165,S,0,2,12,RODI RD OPP HOOVER,40.449746,-79.826904
E49177,S,1,2,12,RODI RD OPP MCCRADY,40.439202,-79.829804
E49240,S,1,2,12,RODI RD OPP STONELEDGE,40.456505,-79.823136
E49300,S,0,1,9,RONALD ST AT BEECHWOOD,40.426714,-79.938556
E49310,S,0,2,26,ROSE ST AT KIRKPATRICK,40.444296,-79.975762
E49310,S,1,1,13,ROSE ST AT KIRKPATRICK,40.444296,-79.975762
E49830,S,1,4,16,SALTSBURG RD AT HULTON NS,40.484506,-79.818968
E49950,S,0,6,20,SALTSBURG RD AT MONROEVILLE-TRESTLE,40.476543,-79.760261
E49950,S,1,3,6,SALTSBURG RD AT MONROEVILLE-TRESTLE,40.476543,-79.760261
E50010,S,0,6,20,SALTSBURG RD AT #6370,40.483972,-79.812183
E50035,S,0,6,20,SALTSBURG RD AT #7836,40.47543,-79.765448
E50520,S,0,6,20,SALTSBURG RD OPP MCGREGOR,40.484911,-79.817781
E50550,S,0,6,20,SALTSBURG RD OPP MILLERS LANE,40.475145,-79.772961
E51220,S,1,2,23,SHADY AVE AT 5TH NS,40.45279,-79.920617
E51320,S,0,1,9,SHADY AVE AT DOUGLAS,40.433566,-79.918597
E51400,S,0,1,23,SHADY AVE AT NORTHUMBERLAND,40.441885,-79.920011
E51490,S,0,1,23,SHADY AVE AT SOLWAY,40.44284,-79.920285
E51531,S,1,2,23,SHADY AVE OPP BRAEBURN,40.448316,-79.921242
E51540,S,0,1,23,SHADY AVE OPP HASTINGS,40.445767,-79.921174
E51580,S,1,2,23,SHADY AVE OPP SOLWAY,40.442709,-79.920075
E52110,S,0,2,12,SHENANDOAH DR AT #125,40.474152,-79.820222
E52112,S,1,2,12,SHENANDOAH DR OPP #127,40.473967,-79.820222
E52120,S,0,2,12,SHENANDOAH DR AT EVERGLADE FS,40.472945,-79.816018
E52120,S,1,2,12,SHENANDOAH DR AT EVERGLADE FS,40.472945,-79.816018
E52122,S,0,2,12,SHENANDOAH DR OPP EVERGLADE,40.472949,-79.811576
E52128,S,0,2,12,SHENANDOAH DR AT YOSEMITE,40.47313,-79.813595
E52155,S,0,1,6,SHERIDAN AVE AT HAMPTON,40.473199,-79.91675
E52210,S,0,2,22,SHETLAND ST AT LARIMER,40.466153,-79.912119
E52355,S,1,2,12,SOUTH AVE AT ALLEGHENY RIVER BLVD,40.504788,-79.843242
E52385,S,1,1,38,SOUTH AVE AT COAL,40.440276,-79.880393
E52410,S,0,1,44,SOUTH AVE AT MILL,40.440776,-79.8815
E52410,S,1,2,15,SOUTH AVE AT MILL,40.440776,-79.8815
E52445,S,0,1,43,SOUTH AVE AT PITT,40.442954,-79.888323
E52570,S,0,1,15,STANTON AVE AT BEATTY,40.47004,-79.921895
E52700,S,0,3,37,STANTON AVE AT HIGHVIEW,40.472931,-79.929757
E52735,S,0,1,15,STANTON AVE AT MCCANDLESS,40.478201,-79.94884
E52750,S,1,2,15,STANTON AVE AT MELLON,40.471031,-79.925061
E52760,S,0,3,23,STANTON AVE AT MELLON,40.471076,-79.924843
E52760,S,1,1,3,STANTON AVE AT MELLON,40.471076,-79.924843
E52770,S,0,1,15,STANTON AVE AT MORNINGSIDE,40.475104,-79.931796
E52790,S,0,1,15,STANTON AVE AT NEGLEY,40.471549,-79.926172
E52820,S,0,1,15,STANTON AVE AT #4243,40.47851,-79.944774
E52890,S,0,1,15,STANTON AVE AT STANTON CT EAST,40.48065,-79.934802
E52995,S,1,2,15,STANTON AVE OPP DUNCAN,40.477501,-79.951861
E53000,S,1,2,15,STANTON AVE OPP HAWTHORNE,40.481167,-79.937277
E53030,S,1,2,15,STANTON AVE OPP KEYSTONE,40.47728,-79.954172
E53080,S,1,2,15,STANTON AVE OPP MORNINGSIDE,40.475387,-79.932066
E53090,S,1,2,15,STANTON AVE OPP #4233,40.478359,-79.94484
E53300,S,0,2,26,STATION ST AT WESTINGHOUSE,40.393201,-79.809832
E53300,S,1,1,25,STATION ST AT WESTINGHOUSE,40.393201,-79.809832
E53470,S,1,2,20,STEVENSON ST AT LOCUST,40.436705,-79.98653
E53520,S,1,7,88,ST CLAIR ST AT BRYANT,40.476217,-79.920799
E53530,S,1,7,88,ST CLAIR ST AT CALLOWHILL,40.477652,-79.919906
E53544,S,1,2,12,STOTLER RD OPP CRESCENT GARDENS,40.474267,-79.809952
E53552,S,0,2,12,STOTLER RD AT ST SUZANNA PARISH DRIVE,40.466885,-79.808159
E53560,S,1,2,12,STOTLER RD OPP #56,40.464776,-79.806987
E53563,S,1,2,12,STOTLER RD AT #333,40.471161,-79.810523
E53581,S,0,1,11,STROSCHEIN RD OPP CEDAR RIDGE,40.434865,-79.774011
E53588,S,1,1,12,STROSCHEIN RD OPP WYNGATE,40.431844,-79.776978
E53589,S,1,1,12,STROSCHEIN RD AT CLIFFSIDE CT,40.433271,-79.775548
E53680,S,0,2,69,SWISSVALE AVE AT FRANKLIN,40.439064,-79.879134
E53700,S,1,2,31,SWISSVALE AVE AT HILL,40.443647,-79.876314
E53720,S,0,2,31,SWISSVALE AVE AT NORTH,40.443028,-79.876872
E53740,S,1,2,31,SWISSVALE AVE AT PARK,40.444623,-79.875555
E53750,S,1,1,11,SWISSVALE AVE OPP PARK,40.4448,-79.875862
E53880,S,1,1,29,TALBOT AVE AT 1ST,40.405393,-79.875308
E53970,S,1,1,29,TALBOT AVE AT 7TH,40.401006,-79.868935
E54160,S,0,2,26,TERRACE ST AT DARRAGH,40.442053,-79.962822
E54180,S,0,2,26,TERRACE ST AT ROBINSON,40.440258,-79.965632
E54210,S,0,2,26,TERRACE ST OPP CHESTERFIELD,40.44109,-79.96383
E54340,S,1,1,6,TILBROOK RD OPP HILLCREST,40.428504,-79.762102
E54400,S,1,1,9,TILBURY AVE AT FORWARD,40.428327,-79.918464
E54410,S,0,1,9,TILBURY AVE AT FORWARD,40.42856,-79.918569
E54520,S,0,1,44,TIOGA ST AT WOOD,40.449107,-79.884159
E54550,S,1,1,43,TRENTON AVE AT FRANKLIN,40.443282,-79.892346
E54585,S,0,1,43,TRENTON AVE AT PENN FS,40.445716,-79.891486
E54870,S,1,5,19,UNITY-CENTER RD AT JACKSON,40.485482,-79.769141
E54940,S,1,5,19,UNITY-CENTER RD AT #935,40.480405,-79.763874
E54980,S,1,5,19,UNITY-CENTER RD OPP #1010,40.478804,-79.762373
E55000,S,1,5,19,UNITY-CENTER RD OPP #640,40.486306,-79.771392
E55020,S,0,6,20,UNIVERSAL RD AT AUSTIN,40.475237,-79.786618
E55035,S,1,2,12,UNIVERSAL RD OPP FREY,40.460601,-79.811273
E55045,S,1,2,12,UNIVERSAL RD AT GREENWAY,40.462244,-79.814603
E55140,S,0,2,12,UNIVERSAL RD OPP STOTLER,40.460752,-79.804562
E55220,S,0,1,9,UPLAND ST AT HOMEWOOD,40.461909,-79.894388
E55303,S,0,1,9,VA HOSPITAL DR AT LEECH FARM,40.478196,-79.898562
E55303,S,1,2,10,VA HOSPITAL DR AT LEECH FARM,40.478196,-79.898562
E55307,S,0,1,9,VA HOSPITAL DR (HIGHLAND) OPP BLDG #5,40.47771,-79.895104
E55307,S,1,2,10,VA HOSPITAL DR (HIGHLAND) OPP BLDG #5,40.47771,-79.895104
E55340,S,0,1,11,VERONA BLVD AT #7278,40.47088,-79.888403
E55440,S,0,1,15,VERONA RD AT COAL HOLLOW,40.475101,-79.849098
E55490,S,0,3,27,VERONA RD AT GALETON,40.490285,-79.83607
E55500,S,0,1,15,VERONA RD AT GRAHAM BLVD EXT,40.4636,-79.865635
E55535,S,1,3,28,VERONA RD AT MOUNT,40.500942,-79.837692
E55630,S,0,1,15,VERONA RD AT ROSEDALE,40.4817,-79.838035
E55690,S,1,1,16,VERONA RD AT SANDY CREEK FS,40.47544,-79.84884
E55770,S,0,1,15,VERONA RD OPP LINCOLN,40.473549,-79.856642
E55790,S,0,1,15,VERONA RD OPP MT CARMEL,40.465734,-79.865319
E55800,S,0,1,15,VERONA RD OPP RANDOLPH,40.478716,-79.840852
E55877,S,1,1,12,WALL AVE OPP #1330,40.415647,-79.777093
E55885,S,1,1,24,WALL AVE AT 2ND (I),40.402079,-79.780208
E55900,S,0,1,11,WALL AVE AT 3RD (O),40.402916,-79.780469
E55925,S,1,1,12,WALL AVE AT DALZELL,40.393799,-79.788903
E55933,S,0,2,12,WALL AVE OPP DAWSON,40.395733,-79.778454
E55940,S,1,1,12,WALL AVE AT HAMPTON,40.393953,-79.787034
E55943,S,0,2,12,WALL AVE AT HAMPTON (O),40.393843,-79.78722
E55950,S,1,1,12,WALL AVE AT NEGLEY,40.394045,-79.785638
E55955,S,1,1,12,WALL AVE AT VALLEY NS,40.393659,-79.79231
E55960,S,1,1,12,WALL AVE AT RAVINE,40.411521,-79.777154
E55965,S,1,1,12,WALL AVE OPP SCHOOL,40.410938,-79.777348
E55970,S,1,1,12,WALL AVE AT TAYLOR,40.407198,-79.779035
E55975,S,1,1,12,WALL AVE OPP WALL BRIDGE,40.392999,-79.797868
E56000,S,0,2,31,WALLACE AVE AT COAL,40.442704,-79.878766
E56000,S,1,6,50,WALLACE AVE AT COAL,40.442704,-79.878766
E56005,S,0,4,104,WALLACE AVE AT PITT,40.445312,-79.88669
E56005,S,1,2,4,WALLACE AVE AT PITT,40.445312,-79.88669
E56020,S,0,2,31,WALLACE AVE AT SWISSVALE FS,40.442358,-79.877649
E56020,S,1,6,50,WALLACE AVE AT SWISSVALE FS,40.442358,-79.877649
E56070,S,0,1,43,WALNUT ST AT HIGHLAND,40.454118,-79.92549
E56190,S,0,1,9,WARDSONS RD AT CHURCHLAND,40.472068,-79.897407
E56190,S,1,2,10,WARDSONS RD AT CHURCHLAND,40.472068,-79.897407
E56225,S,1,2,15,WARREN DR AT WAL-MART DRIVEWAY,40.387034,-79.822907
E56620,S,1,2,31,WEBSTER AVE AT CRAWFORD,40.44334,-79.987527
E56707,S,1,2,31,WEBSTER AVE AT JUNILLA,40.449708,-79.972483
E56895,S,1,2,31,WEBSTER AVE AT WOOSTER,40.446654,-79.979346
E56920,S,0,4,43,WEBSTER AVE OPP MCNEIL,40.45398,-79.96318
E56990,S,1,1,29,WESTERN AVE AT CENTER,40.395956,-79.843611
E56999,S,1,1,12,WESTINGHOUSE AVE AT FLORENCE,40.389561,-79.810567
E57020,S,0,3,37,WESTINGHOUSE AVE AT STATION,40.393175,-79.809653
E57020,S,1,2,37,WESTINGHOUSE AVE AT STATION,40.393175,-79.809653
E57290,S,1,1,10,WHITNEY AVE AT MIFFLIN,40.43656,-79.892944
E57380,S,0,2,21,WILDWOOD AVE OPP VERONA,40.503365,-79.839442
E57500,S,1,3,21,WILKINS AVE OPP BELLEROCK,40.444688,-79.929025
E57560,S,1,3,21,WILKINS AVE OPP MURRAY,40.444008,-79.923791
E57590,S,0,2,19,WILKINS AVE AT NEGLEY,40.44395,-79.926125
E57620,S,0,1,9,WILKINS AVE AT #6647,40.446303,-79.914319
E57620,S,1,3,21,WILKINS AVE AT #6647,40.446303,-79.914319
E57660,S,1,3,21,WILKINS AVE AT WIGHTMAN,40.444168,-79.927849
E57670,S,0,2,19,WILKINS AVE AT WIGHTMAN,40.444197,-79.928161
E57710,S,0,2,19,WILKINS AVE AT WORTH,40.446564,-79.912812
E57710,S,1,1,9,WILKINS AVE AT WORTH,40.446564,-79.912812
E57790,S,0,1,9,WILKINS AVE OPP WORTH,40.446762,-79.912651
E57790,S,1,3,21,WILKINS AVE OPP WORTH,40.446762,-79.912651
E57960,S,0,3,42,WILNER DR AT ROBINSON,40.452755,-79.866788
E57960,S,1,3,42,WILNER DR AT ROBINSON,40.452755,-79.866788
E57990,S,0,3,42,WILNER DR AT #2278,40.454223,-79.86904
E57990,S,1,3,42,WILNER DR AT #2278,40.454223,-79.86904
E58010,S,0,3,42,WILNER DR OPP #2278,40.454098,-79.869228
E58010,S,1,3,42,WILNER DR OPP #2278,40.454098,-79.869228
E58040,S,0,1,9,WILTSIE RD OPP #6903,40.473786,-79.897736
E58040,S,1,2,10,WILTSIE RD OPP #6903,40.473786,-79.897736
E58140,S,0,1,9,WINTERBURN AVE OPP CONNOR,40.420425,-79.939756
E58150,S,0,1,9,WINTERBURN AVE OPP FARNSWORTH,40.423234,-79.939748
E58260,S,0,1,2,WM PENN HWY OPP BIRDIE'S RESTAURANT,40.431989,-79.730584
E58370,S,0,3,21,WM PENN HWY AT HOME DEPOT,40.430228,-79.80608
E58370,S,1,2,12,WM PENN HWY AT HOME DEPOT,40.430228,-79.80608
E58440,S,0,3,21,WM PENN HWY AT GRAHAM,40.445081,-79.858724
E58480,S,0,1,6,WM PENN HWY AT HAWTHORNE,40.433026,-79.819011
E58710,S,0,2,12,WM PENN HWY AT SAM'S WAREHOUSE DRVWY,40.433325,-79.798582
E58710,S,1,5,25,WM PENN HWY AT SAM'S WAREHOUSE DRVWY,40.433325,-79.798582
E58780,S,1,1,2,WM PENN HWY AT RED LOBSTER,40.438044,-79.775525
E58820,S,1,5,25,WM PENN HWY AT #2295,40.446024,-79.853056
E58890,S,1,1,2,WM PENN HWY AT COUNTRY SQUARE SC,40.436664,-79.782818
E58930,S,1,1,2,WM PENN HWY AT BIRDIE'S RESTAURANT,40.432029,-79.730296
E59370,S,1,3,106,WOOD ST AT HILL,40.445928,-79.883385
E59420,S,1,1,29,WOOD ST AT PENNWOOD,40.440757,-79.886732
E59570,S,1,4,47,WOODSTOCK AVE AT #2695,40.414302,-79.872637
E59580,S,1,1,29,WOODSTOCK AVE AT ARDMORE,40.419046,-79.884104
E59600,S,0,4,46,WOODSTOCK AVE AT BELMAR PLACE,40.415227,-79.87557
E59610,S,0,4,46,WOODSTOCK AVE AT BRADDOCK,40.415298,-79.877013
E59640,S,0,1,29,WOODSTOCK AVE AT MELROSE,40.417109,-79.88106
E59650,S,1,1,29,WOODSTOCK AVE AT ORMOND,40.418101,-79.882505
E59670,S,0,4,46,WOODSTOCK AVE AT WOODSTOCK TERRACE,40.414634,-79.874599
E59710,S,0,1,29,WOODSTOCK AVE AT VERNON (BUSWAY),40.416152,-79.8794
E59740,S,1,2,12,WYLIE AVE AT CHAUNCEY,40.447501,-79.97328
E59840,S,1,2,12,WYLIE AVE AT FRANCIS,40.449403,-79.96878
E59870,S,0,2,12,WYLIE AVE AT HERRON,40.450774,-79.96524
E59880,S,1,2,12,WYLIE AVE AT HOLLACE,40.45,-79.967375
E59910,S,0,2,12,WYLIE AVE AT JUNILLA,40.448003,-79.971759
E59930,S,1,2,12,WYLIE AVE AT KIRKPATRICK,40.445995,-79.976815
E60050,S,0,2,12,WYLIE AVE AT WATT,40.448599,-79.970357
E60100,S,0,2,15,YOST BLVD AT BRINTON,40.41246,-79.856338
E60110,S,0,1,13,YOST BLVD AT BRINTON,40.412677,-79.856522
E60110,S,1,2,15,YOST BLVD AT BRINTON,40.412677,-79.856522
E70002,S,0,3,18,16TH ST AT PENN NS,40.448805,-79.987365
E70002,S,1,6,38,16TH ST AT PENN NS,40.448805,-79.987365
E70003,S,1,3,42,EAST HILLS DR AT #2303,40.455904,-79.870962
E70004,S,0,3,42,EAST HILLS DR AT #2340,40.456049,-79.8708
E70005,S,0,1,11,CENTER ST AT #1421,40.44706,-79.879607
E70007,S,1,4,47,WOODSTOCK AVE AT SHORT,40.415694,-79.878252
E70013,S,1,5,32,BAUM BLVD AT S AIKEN,40.457058,-79.938386
E70017,S,1,3,44,LINDEN AVE AT CABLE,40.399658,-79.83586
E70021,S,1,1,62,OAKWOOD ST AT NIMICK PLACE,40.449886,-79.884184
E70029,S,1,2,22,ALLEGHENY AVE AT WASHINGTON,40.516328,-79.843408
E70043,S,1,1,16,VERONA RD AT #4343 (LIQUID LOUNGE),40.466533,-79.864887
E70050,S,1,1,6,IVANHOE DR OPP WALNUT CROSSING,40.435285,-79.763863
E70063,S,1,1,2,WM PENN HWY AT MCMASTERS,40.439067,-79.762452
E70064,S,0,1,8,OPHELIA ST OPP CRAFT PL,40.434918,-79.962895
E70077,S,0,1,7,GARDEN CITY DR AT LILAC FS,40.44255,-79.772641
E70079,S,1,1,6,GARDEN CITY DR OPP AZALEA,40.442088,-79.770604
E70080,S,1,1,6,GARDEN CITY DR OPP LILAC,40.442713,-79.772664
E70081,S,0,1,7,GARDEN CITY DR AT CENTER,40.440855,-79.76784
E70085,S,0,1,7,CORP OFFICE PARK DRVWY AT CORP BLDG #1 (STOP SIGN),40.435851,-79.768113
E70113,S,0,2,18,FIRELANE AT STOREFRONT ROADWAY (1ST STOP SIGN),40.43499,-79.771883
E70113,S,1,2,18,FIRELANE AT STOREFRONT ROADWAY (1ST STOP SIGN),40.43499,-79.771883
E70114,S,0,2,18,FIRELANE AT SIDE OF GIANT EAGLE,40.432161,-79.772129
E70114,S,1,2,18,FIRELANE AT SIDE OF GIANT EAGLE,40.432161,-79.772129
E70143,S,0,1,2,HWY RT 286 AT ROYAL OAKS DR F.S,40.443874,-79.713454
E70144,S,1,6,38,MILLVALE AVE AT MITRE WAY,40.459574,-79.94622
E70149,S,0,1,7,DUFF RD OPP KAREN,40.440153,-79.774716
E70155,S,0,2,26,BEDFORD AVE AT MACEDONIA CHURCH PARKING LOT,40.448123,-79.97594
E70177,S,0,2,12,PRIDE ST AT FORESIDE PLACE,40.440222,-79.9853
E70183,S,0,1,39,FORBES AVE OPP HAMBURG BLDG (B),40.444743,-79.945864
E70185,S,0,1,39,FORBES AVE AT DITHRIDGE (B),40.444288,-79.950204
E70188,S,0,1,39,5TH AVE OPP ATWOOD (CHILDRENS HOSPITAL) (B),40.441944,-79.958512
E70197,S,1,1,39,FORBES AVE AT ATWOOD (CHILDRENS HOSPITAL) (A),40.440876,-79.957517
E70201,S,1,1,39,BELLEFIELD AVE AT 5TH (A),40.446131,-79.951611
E70202,S,1,1,39,5TH AVE AT CRAIG (A),40.446903,-79.949241
E70203,S,1,1,39,5TH AVE AT NEVILLE (A),40.447101,-79.947594
E70204,S,1,1,39,5TH AVE OPP CLYDE (A),40.44728,-79.945273
E70209,S,1,11,157,EAST LIBERTY BLVD OPP DAHLEM PLACE,40.458499,-79.916774
E70213,S,1,4,47,BRADDOCK AVE AT KENMAWR CONNECTOR,40.41223,-79.876271
E70226,S,0,1,13,VA HOSP INSIDE GARAGE AT ENTRANCE,40.446663,-79.960061
E70226,S,1,1,13,VA HOSP INSIDE GARAGE AT ENTRANCE,40.446663,-79.960061
N00260,S,1,1,14,1ST AVE AT MORGAN,40.603079,-79.738505
N00280,S,1,1,14,1ST AVE OPP BOYD,40.599367,-79.755478
N00285,S,0,2,15,1ST AVE OPP #887,40.602949,-79.740294
N00288,S,0,2,15,1ST AVE OPP MORGAN,40.603031,-79.738777
N00450,S,0,2,15,2ND AVE AT BRIDGE,40.603311,-79.745837
N03720,S,0,3,31,7TH AVE OPP EAST,40.601042,-79.759267
N04545,S,1,2,32,ALLEGHENY AVE AT CARNEGIE SCIENCE CENTER,40.445895,-80.017259
N04610,S,1,1,20,ALLEGHENY AVE AT REEDSDALE,40.448124,-80.01791
N04630,S,1,1,20,ALLEGHENY AVE AT SHEFFIELD,40.454106,-80.01983
N04640,S,0,1,20,ALLEGHENY AVE AT NORTH,40.453045,-80.019325
N05860,S,1,5,48,ANDERSON ST AT GENERAL ROBINSON,40.449029,-80.000821
N06010,S,1,6,38,ARCH ST OPP ALLEGHENY MIDDLE SCHOOL,40.453084,-80.009153
N06070,S,0,2,15,ARGONNE DR AT 9TH,40.611249,-79.734402
N06110,S,1,1,14,ARGONNE DR OPP 10TH,40.612218,-79.734606
N06160,S,1,1,14,ARGONNE DR OPP CAROLINA,40.610512,-79.730766
N06170,S,1,1,14,ARGONNE DR OPP JERSEY,40.609932,-79.732453
N06210,S,0,1,30,AVALON LOOP AT CALIFORNIA FS,40.503483,-80.074632
N06210,S,1,1,30,AVALON LOOP AT CALIFORNIA FS,40.503483,-80.074632
N06350,S,0,2,14,BABCOCK BLVD AT CUMBERLAND RD EXT,40.571704,-80.01624
N06680,S,0,2,14,BABCOCK BLVD OPP PERRYMONT,40.557985,-80.023025
N06930,S,0,2,14,BABCOCK BLVD AT WINCHESTER,40.565932,-80.016408
N07730,S,0,5,42,BALPH AVE AT TEECE,40.497366,-80.054338
N07890,S,0,1,13,BASCOM ST AT #88,40.49397,-80.024524
N08000,S,0,1,20,BEAVER AVE AT BRANCHPORT,40.459404,-80.031092
N08000,S,1,1,20,BEAVER AVE AT BRANCHPORT,40.459404,-80.031092
N08020,S,0,1,20,BEAVER AVE AT COLUMBUS FS,40.457386,-80.030398
N08020,S,1,1,12,BEAVER AVE AT COLUMBUS FS,40.457386,-80.030398
N08090,S,1,1,12,BEAVER AVE AT NORTH POINTE,40.449553,-80.027003
N08095,S,1,1,12,BEAVER AVE AT KROLL,40.450553,-80.028174
N08170,S,1,2,14,BEAVER ST AT BEAVER CT,40.536184,-80.176687
N08240,S,0,1,12,BEAVER RD AT CAMP MEETING,40.563662,-80.205534
N08260,S,0,1,12,BEAVER RD AT CHESTNUT,40.550153,-80.190275
N08280,S,0,1,12,BEAVER ST AT DAVIS LANE,40.53372,-80.173477
N08290,S,1,2,14,BEAVER RD AT MAIN FS,40.578655,-80.2207
N08370,S,0,1,12,BEAVER ST AT GROVE,40.542894,-80.184282
N08390,S,1,2,14,BEAVER ST AT LITTLE,40.542149,-80.183317
N08410,S,1,2,14,BEAVER ST AT LOGAN FS,40.53797,-80.17838
N08420,S,0,1,12,BEAVER RD AT MAIN FS,40.578448,-80.220651
N08440,S,1,2,14,BEAVER RD AT MEADOW,40.546875,-80.189605
N08490,S,1,2,14,BEAVER ST AT OSBORNE,40.53311,-80.172108
N08500,S,0,1,12,BEAVER ST AT OSBORNE,40.532873,-80.171984
N08520,S,1,2,14,BEAVER RD AT QUAKER,40.548626,-80.189698
N08560,S,1,2,14,BEAVER ST AT RIVER,40.526547,-80.159088
N08590,S,0,1,12,BEAVER ST AT #1449,40.529955,-80.165498
N08610,S,1,2,14,BEAVER RD AT #305,40.567661,-80.211641
N08620,S,0,1,12,BEAVER RD AT #306,40.567816,-80.211485
N08630,S,1,2,14,BEAVER RD AT SHIELDS,40.557148,-80.198568
N08660,S,0,1,12,BEAVER ST AT ST ANDREWS CHURCH,40.537317,-80.177446
N08670,S,0,1,12,BEAVER ST AT STRAIGHT,40.538388,-80.178501
N08680,S,0,1,12,BEAVER ST AT SYCAMORE,40.528279,-80.161371
N08735,S,0,1,12,BEAVER RD OPP EDGEWORTH,40.552005,-80.191764
N08770,S,1,2,14,BEAVER RD OPP LITTLE SEWICKLEY,40.5586,-80.200176
N08820,S,0,1,12,BEAVER ST OPP ORCHARD,40.53222,-80.170814
N09501,S,0,4,29,BLAZIER DR AT PINE CREEK SC GIANT EAGLE,40.585267,-80.037493
N09501,S,1,2,28,BLAZIER DR AT PINE CREEK SC GIANT EAGLE,40.585267,-80.037493
N10060,S,0,1,20,BRANCHPORT ST AT PREBLE,40.458903,-80.033455
N10230,S,0,2,40,BRIGHTON RD AT ACACIA,40.479713,-80.031062
N10250,S,1,2,40,BRIGHTON RD AT BENTON,40.484435,-80.035963
N10340,S,0,3,58,BRIGHTON RD AT CHARLES,40.459572,-80.016752
N10450,S,0,5,42,BRIGHTON RD AT JACKSONIA,40.456869,-80.015687
N10450,S,1,3,58,BRIGHTON RD AT JACKSONIA,40.456869,-80.015687
N10460,S,0,2,40,BRIGHTON RD AT JACKSONIA FS,40.456976,-80.015553
N10460,S,1,5,42,BRIGHTON RD AT JACKSONIA FS,40.456976,-80.015553
N10480,S,1,2,40,BRIGHTON RD AT KLEBER,40.487003,-80.037899
N10530,S,0,2,40,BRIGHTON RD AT MCDOWELL,40.471823,-80.026942
N10695,S,0,2,40,BRIGHTON RD AT STANFORD,40.480848,-80.032286
N10730,S,0,2,40,BRIGHTON RD AT TERMON,40.483008,-80.03531
N10740,S,1,2,40,BRIGHTON RD AT VIRUTH,40.486428,-80.03683
N10750,S,0,2,40,BRIGHTON RD OPP VIRUTH,40.486365,-80.036609
N10770,S,0,2,40,BRIGHTON RD AT SIMON,40.481134,-80.032792
N10800,S,1,2,40,BRIGHTON RD AT WOODLAND,40.469995,-80.025716
N10810,S,1,2,40,BRIGHTON RD AT WOODS RUN,40.47657,-80.03184
N10850,S,0,2,40,BRIGHTON RD OPP HIGHWOOD,40.468311,-80.025135
N10880,S,0,1,10,BRIGHTON RD OPP OLIVER HIGH SCHOOL,40.464496,-80.023565
N10890,S,1,2,40,BRIGHTON RD OPP PENNOCK,40.487253,-80.039263
N10940,S,0,2,40,BRIGHTON RD OPP WOODLAND,40.46989,-80.025513
N10954,S,0,1,11,BROAD ST AT OHIO RIVER BLVD FS,40.537107,-80.184229
N11980,S,0,3,16,BROWNS LANE AT CORBETT,40.545706,-80.019988
N11980,S,1,2,12,BROWNS LANE AT CORBETT,40.545706,-80.019988
N12010,S,0,2,12,BROWNS LANE AT MCKNIGHT,40.545787,-80.017017
N12010,S,1,1,14,BROWNS LANE AT MCKNIGHT,40.545787,-80.017017
N12125,S,1,3,18,BUENTE ST AT RHINE,40.466137,-79.993025
N12440,S,0,4,29,BUTLER ST AT ISABELLA,40.494252,-79.946641
N12510,S,0,2,17,BUTLER ST AT #188,40.493612,-79.947739
N12520,S,0,4,29,BUTLER ST AT FREEPORT,40.496364,-79.944126
N12530,S,1,4,29,BUTLER ST AT WASHINGTON (PARKER),40.493612,-79.947989
N12670,S,1,5,42,CALIFORNIA AVE OPP POST OFFICE,40.459001,-80.020625
N12705,S,1,5,42,CALIFORNIA AVE AT BOSTON,40.469316,-80.035673
N12710,S,1,5,42,CALIFORNIA AVE AT CHELLIS,40.486255,-80.043308
N12795,S,1,5,42,CALIFORNIA AVE AT FALCK,40.477944,-80.040349
N12820,S,1,1,10,CALIFORNIA AVE AT FLORENCE,40.503493,-80.074723
N12825,S,1,5,42,CALIFORNIA AVE AT FORSYTHE,40.470586,-80.036067
N12870,S,0,2,40,CALIFORNIA AVE AT HOME,40.498623,-80.061754
N12972,S,1,5,42,CALIFORNIA AVE AT RANKIN,40.476061,-80.039778
N13070,S,1,5,42,CALIFORNIA AVE AT SUPERIOR NS,40.46539,-80.033266
N13090,S,1,5,42,CALIFORNIA AVE AT TERMON,40.48169,-80.041526
N13143,S,0,5,42,CALIFORNIA AVE OPP BOSTON,40.469413,-80.035832
N13200,S,0,5,42,CALIFORNIA AVE OPP PERROTT FS,40.485155,-80.041814
N13379,S,1,1,10,CAMP HORNE RD AT CRAWFORD,40.522415,-80.084019
N13380,S,0,1,10,CAMP HORNE RD OPP CRAWFORD,40.522259,-80.084126
N13386,S,0,1,10,CAMP HORNE RD OPP HARMONY,40.517341,-80.093487
N13390,S,0,1,10,CAMP HORNE RD OPP RUEHL,40.522503,-80.074997
N13550,S,1,2,28,CEDAR AVE AT EAST OHIO,40.453454,-80.001811
N13580,S,0,4,29,CEDAR AVE AT NORTH,40.455919,-80.002769
N13690,S,1,2,37,CENTER AVE AT BRIGHTWOOD FS,40.516078,-80.022548
N13760,S,0,1,10,CENTER AVE AT CHURCH,40.51323,-80.098488
N13800,S,1,5,42,CENTER AVE AT CORNELL,40.519352,-80.043667
N13803,S,0,5,42,CENTER AVE AT CORNELL EXT,40.513805,-80.045512
N13810,S,0,2,37,CENTER AVE AT FRANKFORT,40.513293,-80.02565
N13840,S,0,5,42,CENTER AVE AT HARVARD,40.515376,-80.04481
N13940,S,0,1,10,CENTER AVE AT NORTH,40.51324,-80.097058
N13980,S,1,1,10,CENTER AVE AT ORCHARD,40.513123,-80.098265
N13990,S,1,2,37,CENTER AVE AT PARK,40.511613,-80.027542
N14000,S,0,2,37,CENTER AVE AT PARK,40.511305,-80.027515
N14020,S,0,1,10,CENTER AVE AT PENNSYLVANIA,40.513192,-80.099821
N14030,S,1,2,37,CENTER AVE AT PERRYSVILLE RD,40.509938,-80.0283
N14120,S,0,2,37,CENTER AVE AT RIDGEWOOD (STEPS),40.51508,-80.022993
N14200,S,0,2,37,CENTER AVE AT TOWNSHIP,40.518958,-80.025292
N14290,S,0,1,10,CENTER AVE OPP MILLER,40.513248,-80.093637
N14310,S,1,2,37,CENTER AVE OPP RIDGEWOOD (STEPS),40.515187,-80.02314
N14500,S,0,1,18,CHARLES ST AT BRIGHTRIDGE,40.462002,-80.018125
N14540,S,0,1,18,CHARLES ST AT HAZELTON,40.471216,-80.00733
N14550,S,0,1,18,CHARLES ST AT IRWIN,40.46679,-80.018947
N14560,S,0,1,18,CHARLES ST AT IZORA,40.464059,-80.020481
N14580,S,0,1,18,CHARLES ST AT KIMBERLIN,40.4697,-80.014035
N14620,S,0,1,1,CHARLES ST AT PERRYSVILLE,40.470952,-80.008686
N14620,S,1,3,28,CHARLES ST AT PERRYSVILLE,40.470952,-80.008686
N14640,S,1,1,18,CHARLES ST AT #1917,40.460814,-80.017392
N14645,S,0,1,18,CHARLES ST AT #2562,40.46758,-80.016691
N14647,S,1,1,18,CHARLES ST OPP #2568,40.467773,-80.016311
N14660,S,0,1,1,CHARLES ST AT SHELTON,40.470564,-80.011087
N14660,S,1,3,28,CHARLES ST AT SHELTON,40.470564,-80.011087
N14730,S,1,1,18,CHARLES ST OPP KENN,40.468039,-80.015743
N14740,S,0,1,18,CHARLES ST OPP LELAND,40.470252,-80.012377
N14790,S,1,1,18,CHARLES ST OPP STRAUSS,40.463244,-80.019938
N14830,S,0,2,32,CHATEAU ST AT JUNIATA,40.456393,-80.029069
N14860,S,0,2,32,CHATEAU ST AT LIVERPOOL,40.454559,-80.028466
N14890,S,0,1,12,CHATEAU ST AT NORTH,40.451798,-80.027572
N14927,S,0,2,15,CHERRY ST AT 1ST,40.602878,-79.74323
N15040,S,0,3,18,CHESTNUT ST OPP CONCORD,40.458031,-79.995706
N15130,S,1,1,10,CHURCH AVE AT FOREST,40.50819,-80.082916
N15160,S,1,1,10,CHURCH AVE AT MILLER NS,40.513212,-80.093911
N15200,S,1,1,10,CHURCH AVE AT ROSTREVOR,40.510284,-80.087122
N15230,S,0,1,10,CHURCH AVE AT WALNUT,40.506983,-80.076501
N15250,S,1,1,10,CHURCH AVE OPP VICTORIA,40.506518,-80.074828
N15300,S,0,4,36,COLBY ST AT FABER,40.485951,-80.005213
N15300,S,1,4,36,COLBY ST AT FABER,40.485951,-80.005213
N15315,S,0,4,36,COLBY ST AT MT PLEASANT FS,40.48317,-80.004039
N15315,S,1,3,27,COLBY ST AT MT PLEASANT FS,40.48317,-80.004039
N15330,S,0,4,36,COLBY ST OPP AMES,40.48409,-80.003869
N15330,S,1,3,27,COLBY ST OPP AMES,40.48409,-80.003869
N15340,S,0,3,18,COLBY ST OPP #3519,40.485188,-80.004871
N15340,S,1,3,27,COLBY ST OPP #3519,40.485188,-80.004871
N15420,S,1,1,20,COLUMBUS AVE AT MANHATTAN,40.457644,-80.027579
N15522,S,1,1,13,CONNIE DR OPP MERWOOD,40.499381,-80.024604
N15523,S,1,1,13,CONNIE DR OPP MULKERIN,40.498337,-80.023138
N15600,S,1,3,31,CORBET ST AT 4TH,40.602392,-79.751794
N15670,S,0,3,16,CORBET DR AT CLUB JULIAN SPA,40.547176,-80.019943
N15670,S,1,2,12,CORBET DR AT CLUB JULIAN SPA,40.547176,-80.019943
N15685,S,0,2,12,CORBET DR AT TOWNE TOWERS NORTH,40.546644,-80.02024
N15685,S,1,1,14,CORBET DR AT TOWNE TOWERS NORTH,40.546644,-80.02024
N15690,S,1,1,14,CORPORATE DR AT #5900 (BLDG #4),40.563541,-80.020734
N15696,S,1,1,14,CORPORATE DR AT #5700 (BLDG #3),40.563383,-80.022534
N15880,S,0,2,14,CUMBERLAND RD EXT AT BABCOCK,40.57198,-80.016132
N15947,S,0,2,14,CUMBERLAND RD EXT OPP MAIN ENT DR (UPMC PASSAVANT),40.571972,-80.016508
N15947,S,1,1,14,CUMBERLAND RD EXT OPP MAIN ENT DR (UPMC PASSAVANT),40.571972,-80.016508
N16000,S,0,1,1,DELEFIELD AVE AT ST MARGARET'S DR,40.490217,-79.897141
N16065,S,1,1,10,DIVISION ST OPP MARIE,40.5043,-80.075203
N16662,S,0,2,12,DUNCAN AVE AT ROYAL MANOR CT #1,40.565989,-80.001195
N17040,S,0,8,105,EAST COMMONS AT NORTH COMMONS,40.454209,-80.003985
N17040,S,1,5,45,EAST COMMONS AT NORTH COMMONS,40.454209,-80.003985
N17380,S,1,11,75,EAST OHIO ST AT JAMES,40.453554,-80.00052
N17430,S,1,11,75,EAST OHIO ST AT MIDDLE,40.453835,-79.999061
N17440,S,0,11,76,EAST OHIO ST AT MIDDLE,40.453673,-79.999239
N17545,S,1,4,29,EAST OHIO ST AT RIALTO,40.465033,-79.979817
N17550,S,1,4,29,EAST OHIO ST AT ST NICHOLAS CHURCH,40.458831,-79.985769
N17820,S,0,2,26,EAST ST AT EULA,40.487984,-80.013792
N17830,S,0,2,26,EAST ST AT EVERGREEN FS,40.486604,-80.00993
N17840,S,1,3,27,EAST ST AT GOULD,40.487765,-80.012221
N17850,S,0,4,29,EAST ST AT HAZLETT,40.474502,-80.00505
N17960,S,0,2,26,EAST ST AT PERRYSVILLE,40.489375,-80.017917
N17970,S,1,3,27,EAST ST AT PERRYSVILLE FS,40.48933,-80.017926
N18010,S,0,4,29,EAST ST AT ROYAL,40.465756,-79.999649
N18185,S,1,5,55,EAST ST AT VENTURE FS,40.485112,-80.009782
N18210,S,1,2,28,EAST ST OPP HAZLETT,40.474717,-80.005558
N18220,S,1,2,28,EAST ST OPP MT PLEASANT,40.482365,-80.006046
N18410,S,1,2,17,E 7TH AVE AT ROSS,40.602072,-79.756908
N18420,S,1,2,17,E 7TH AVE AT WOOD,40.602614,-79.75572
N18610,S,0,1,18,ESSEN ST OPP PENFORT,40.473184,-80.002294
N18740,S,0,2,12,EVERGREEN RD AT DAVID,40.488903,-79.972218
N18840,S,1,2,12,EVERGREEN RD AT JOHN,40.487268,-79.972764
N18845,S,1,2,12,EVERGREEN RD AT KLOPFER,40.485536,-79.97237
N18945,S,0,2,12,EVERGREEN RD AT #722,40.487937,-79.972578
N18970,S,0,4,29,EVERGREEN RD OPP BAYTREE,40.488297,-80.010044
N19120,S,1,4,47,FEDERAL ST AT ALPINE,40.458927,-80.007839
N19220,S,1,4,47,FEDERAL ST AT NORTH,40.455538,-80.006755
N19545,S,1,2,12,FERGUSON RD AT LINWOOD #2,40.557177,-79.973603
N19560,S,0,2,12,FERGUSON RD AT MT ROYAL FS,40.555459,-79.971971
N19640,S,0,2,12,FERGUSON RD AT WYLAND,40.561822,-79.987435
N19665,S,0,2,12,FERGUSON RD OPP LAMMERTON,40.56125,-79.987435
N19675,S,0,2,12,FERGUSON RD OPP LINWOOD #1,40.557245,-79.973544
N20070,S,0,5,42,FOREST AVE AT CENTER FS,40.508143,-80.047433
N20520,S,1,2,17,FREEPORT RD AT 2ND,40.574863,-79.778243
N20530,S,1,2,17,FREEPORT RD AT 3RD,40.576993,-79.77873
N20550,S,1,1,14,FREEPORT RD AT ALABAMA,40.616501,-79.736351
N20600,S,1,2,17,FREEPORT RD AT ALPHA (HARMAR),40.538828,-79.830276
N20620,S,0,2,15,FREEPORT RD AT ARGONNE,40.617464,-79.73398
N20640,S,0,2,15,FREEPORT RD AT AUTO PARTS STORE,40.631922,-79.715378
N20650,S,1,1,14,FREEPORT RD AT BONNIEVIEW FS,40.643128,-79.710379
N20700,S,1,7,46,FREEPORT RD OPP BLAW,40.492941,-79.863017
N20710,S,0,7,46,FREEPORT RD AT BLAW,40.492758,-79.863056
N20750,S,0,2,17,FREEPORT ST  AT BRIDGE,40.4968,-79.942298
N20925,S,1,7,46,FREEPORT RD AT CENTER (BLAWNOX),40.492075,-79.864825
N20970,S,1,3,31,FREEPORT RD AT CRYSTAL VIEW,40.594804,-79.76909
N21030,S,0,2,17,FREEPORT RD AT DENNY CAMP,40.540049,-79.824366
N21050,S,1,13,89,FREEPORT RD AT EASTERN,40.489548,-79.903426
N21220,S,1,9,68,FREEPORT RD AT GUYS RUN,40.534063,-79.84474
N21300,S,1,1,14,FREEPORT RD AT IDAHO,40.619696,-79.73031
N21345,S,0,2,15,FREEPORT RD AT JEFFERSON FS,40.632586,-79.714816
N21360,S,1,1,14,FREEPORT RD AT LENGEL,40.63458,-79.713418
N21400,S,0,7,46,FREEPORT RD AT MAPLE,40.493911,-79.860828
N21440,S,1,7,46,FREEPORT RD AT MCKINLEY,40.494019,-79.860862
N21490,S,1,7,46,FREEPORT RD AT CLIFTON,40.499738,-79.852859
N21650,S,1,2,17,FREEPORT RD AT PEARL,40.540825,-79.816072
N21670,S,1,4,7,FREEPORT RD AT PIER 1 (WATERWORKS),40.48686,-79.888557
N21690,S,1,7,46,FREEPORT RD AT POWERS RUN FS,40.50703,-79.851781
N21810,S,0,7,46,FREEPORT RD AT #1150,40.488045,-79.879387
N21860,S,0,9,67,FREEPORT RD AT #2366,40.530299,-79.849302
N22005,S,1,13,89,FREEPORT RD AT VIRGINIA FS,40.488412,-79.899234
N22060,S,0,3,31,FREEPORT RD AT WORKS ENT #3,40.592846,-79.770821
N22140,S,0,2,17,FREEPORT RD OPP #727,40.578671,-79.779199
N22150,S,0,2,17,FREEPORT RD OPP ALPHA (HARMAR),40.538519,-79.830157
N22300,S,1,2,17,FREEPORT RD OPP DENNY ESTATES,40.539328,-79.828112
N22405,S,0,2,15,FREEPORT RD OPP HARRISON,40.634501,-79.713352
N22440,S,1,13,89,FREEPORT RD OPP JB FAY (#1372),40.489538,-79.874308
N22445,S,0,9,67,FREEPORT RD OPP ALPHA DRIVE W,40.537986,-79.834594
N22510,S,0,9,67,FREEPORT RD OPP HWY RT 910 (WERNER CAMP),40.53683,-79.83944
N22590,S,0,2,17,FREEPORT RD OPP PEARL,40.540727,-79.816364
N22650,S,0,2,17,FREEPORT RD OPP RIDDLE RUN,40.546062,-79.770371
N22680,S,1,10,85,FREEPORT RD OPP #1050 (BUSY BEAVER),40.487406,-79.884286
N22710,S,0,2,17,FREEPORT RD OPP #187,40.569026,-79.776386
N22740,S,0,2,17,FREEPORT RD OPP #279,40.571743,-79.776971
N22810,S,0,14,89,FREEPORT RD OPP WESTERN,40.490599,-79.907627
N22820,S,0,2,17,FREEPORT RD OPP WILSON,40.540487,-79.809559
N23470,S,1,2,32,GENERAL ROBINSON ST AT SANDUSKY,40.448573,-80.002349
N23940,S,0,2,12,GRANT AVE AT BLACK,40.480119,-79.97338
N23970,S,1,2,12,GRANT AVE AT BYERLEY,40.50827,-79.951985
N24090,S,0,1,10,GRANT AVE AT SHERMAN,40.479285,-79.9719
N24140,S,0,2,12,GRANT AVE OPP VILSACK,40.504964,-79.949691
N25370,S,0,1,1,HAZELTON ST AT SUFFOLK,40.467286,-80.005876
N25370,S,1,2,10,HAZELTON ST AT SUFFOLK,40.467286,-80.005876
N25630,S,0,2,15,HGTS PLAZA SHOPPING CTR AT FAMILY DOLLAR,40.623423,-79.722609
N28050,S,1,3,18,ITIN ST AT GOEHRING,40.460997,-79.9936
N28060,S,0,3,18,ITIN ST AT HIGH,40.459767,-79.994776
N28130,S,0,1,8,IVORY AVE AT EVERGREEN,40.496054,-80.007689
N28220,S,0,1,8,IVORY AVE AT SOVEREIGN,40.496808,-80.012086
N28250,S,1,1,8,IVORY AVE OPP HIGHRIDGE,40.497111,-80.01562
N28450,S,0,1,13,JACKS RUN RD AT CONNIE,40.49881,-80.029203
N28920,S,0,3,16,KANE CENTER AT MAIN ENT,40.549927,-80.014452
N28920,S,1,1,14,KANE CENTER AT MAIN ENT,40.549927,-80.014452
N28930,S,0,3,16,KANE CENTER DR AT MCINTYRE,40.551517,-80.015394
N28930,S,1,1,14,KANE CENTER DR AT MCINTYRE,40.551517,-80.015394
N29120,S,0,1,10,KOHLER ST AT PARKER FS,40.494202,-79.958769
N30230,S,1,5,42,LINCOLN AVE AT BRYANT,40.492554,-80.04939
N30240,S,0,5,42,LINCOLN AVE AT BRYANT FS,40.492393,-80.049261
N30240,S,1,2,40,LINCOLN AVE AT BRYANT FS,40.492393,-80.049261
N30280,S,0,2,40,LINCOLN AVE AT EUCLID FS,40.493175,-80.050552
N30300,S,0,5,42,LINCOLN AVE AT WADLOW PLAZA,40.49432,-80.053137
N30300,S,1,2,40,LINCOLN AVE AT WADLOW PLAZA,40.49432,-80.053137
N30330,S,1,2,40,LINCOLN AVE AT SPRAGUE,40.496373,-80.057375
N30350,S,1,2,40,LINCOLN AVE OPP JACKSON,40.496841,-80.058292
N30370,S,0,5,42,LINCOLN AVE AT KENDALL,40.490941,-80.04831
N30370,S,1,2,40,LINCOLN AVE AT KENDALL,40.490941,-80.04831
N30490,S,1,1,10,LINCOLN AVE AT STARR FS,40.497621,-80.05983
N31250,S,0,1,8,LOWRIE ST AT FROMAN (LEY),40.464412,-79.982078
N31410,S,1,11,50,MAIN ST AT 13TH,40.494397,-79.929345
N31530,S,1,11,50,MAIN ST AT 8TH,40.494685,-79.934345
N31540,S,0,11,50,MAIN ST AT ALI,40.494555,-79.935257
N31640,S,1,11,50,MAIN ST AT #1704,40.494777,-79.923194
N31660,S,0,11,50,MAIN ST OPP 13TH,40.494264,-79.929549
N31720,S,0,11,50,MAIN ST OPP 19TH,40.494003,-79.918109
N31760,S,1,11,50,MAIN ST AT 9TH,40.494676,-79.9336
N31780,S,0,11,50,MAIN ST AT #1841,40.494316,-79.919957
N31790,S,1,1,20,MANHATTAN ST AT JUNIATA,40.456854,-80.02729
N32380,S,0,3,16,MCINTYRE SQUARE AT FESTIVAL,40.553542,-80.016114
N32380,S,1,1,14,MCINTYRE SQUARE AT FESTIVAL,40.553542,-80.016114
N32410,S,1,2,28,MCKNIGHT RD AT ARCADIA,40.576564,-80.026246
N32430,S,1,2,28,MCKNIGHT RD AT BABCOCK RAMP FS,40.514763,-80.004502
N32480,S,0,4,29,MCKNIGHT RD AT BP PROCARE,40.540175,-80.011905
N32550,S,1,2,28,MCKNIGHT RD AT CHI-CHI'S,40.533752,-80.011197
N32670,S,1,2,28,MCKNIGHT RD AT IVORY AVE RAMP (ISLAND),40.498351,-80.013058
N32780,S,1,2,28,MCKNIGHT RD AT N HILLS VLG NORTH ENT,40.528243,-80.007285
N32800,S,0,4,29,MCKNIGHT RD AT OLD MCKNIGHT FS,40.534018,-80.010874
N32840,S,1,1,14,MCKNIGHT RD AT PERRYMONT,40.558172,-80.023716
N32930,S,1,2,28,MCKNIGHT RD AT SEIBERT FS,40.530399,-80.009903
N32940,S,1,2,28,MCKNIGHT RD AT SEIBERT NS,40.53112,-80.010397
N32970,S,0,4,29,MCKNIGHT RD AT STEVENS,40.509042,-80.004077
N33000,S,0,1,10,MCKNIGHT RD OPP BP PROCARE,40.540368,-80.012407
N33000,S,1,2,28,MCKNIGHT RD OPP BP PROCARE,40.540368,-80.012407
N33090,S,1,1,14,MCKNIGHT RD OPP MCINTYRE,40.550766,-80.019562
N33120,S,0,4,29,MCKNIGHT RD OPP N HILLS VLG NORTH ENT,40.528156,-80.006665
N33210,S,0,1,1,MEADVILLE ST AT RISING MAIN,40.46361,-80.006044
N33210,S,1,2,10,MEADVILLE ST AT RISING MAIN,40.46361,-80.006044
N33220,S,0,1,1,MEADVILLE ST OPP BELLEAU,40.461976,-80.00551
N33220,S,1,2,10,MEADVILLE ST OPP BELLEAU,40.461976,-80.00551
N33230,S,0,1,1,MEADVILLE ST OPP #1603,40.460615,-80.004696
N33230,S,1,2,10,MEADVILLE ST OPP #1603,40.460615,-80.004696
N33540,S,1,2,14,MERCHANT ST AT PA JOB SERVICE,40.580121,-80.222293
N33580,S,1,2,14,MERCHANT ST AT 4TH,40.583687,-80.225286
N33595,S,1,2,14,MERCHANT ST AT 6TH,40.586388,-80.227256
N33600,S,0,1,12,MERCHANT ST AT #720,40.588431,-80.229015
N33610,S,1,2,14,MERCHANT ST AT 8TH NS,40.589406,-80.229469
N33677,S,0,1,12,MERCHANT ST OPP VALLEY,40.57987,-80.221299
N33700,S,0,1,20,METROPOLITAN ST AT BRANCHPORT,40.458919,-80.032323
N33705,S,0,1,20,METROPOLITAN ST AT COLUMBUS,40.456869,-80.031659
N33713,S,1,1,14,MILE LOCK LANE AT BROADVIEW FS,40.615303,-79.73865
N33716,S,0,2,15,MILE LOCK LANE AT UNION,40.614632,-79.737796
N35540,S,1,4,36,MT PLEASANT RD AT NORTHVIEW HTS SCHOOL,40.481956,-80.003038
N35590,S,0,3,18,MT PLEASANT RD AT #613,40.477667,-80.000414
N35660,S,1,2,12,MT ROYAL BLVD AT BRIDAL,40.545105,-79.972414
N35670,S,1,2,12,MT ROYAL BLVD AT CAMPBELL,40.526503,-79.963562
N35680,S,1,2,12,MT ROYAL BLVD AT CARLISLE,40.515004,-79.95924
N35820,S,0,2,12,MT ROYAL BLVD AT GENESSEE,40.517568,-79.958918
N35850,S,0,2,12,MT ROYAL BLVD AT GRANDVIEW,40.550148,-79.971464
N36210,S,1,2,12,MT ROYAL BLVD AT SHAW,40.529512,-79.965742
N36300,S,0,2,12,MT ROYAL BLVD AT UNDERCLIFF,40.515939,-79.959006
N36350,S,1,2,12,MT ROYAL BLVD AT WETZELL,40.524972,-79.962351
N36460,S,0,2,12,MT ROYAL BLVD OPP CAMPBELL,40.526572,-79.963393
N36470,S,0,2,12,MT ROYAL BLVD OPP CARLISLE,40.514963,-79.959076
N36500,S,0,2,12,MT ROYAL BLVD OPP EADE,40.54651,-79.972299
N36550,S,0,2,12,MT ROYAL BLVD AT GLENSHAW,40.522887,-79.960194
N36600,S,0,2,12,MT ROYAL BLVD OPP MOREWOOD,40.534532,-79.969503
N36810,S,1,1,8,MT TROY EXT AT PINE HILL FS,40.4982,-79.999202
N36830,S,1,1,8,MT TROY EXT AT #4466,40.498777,-79.998028
N36840,S,0,1,8,MT TROY EXT AT #4561,40.49761,-80.00639
N36845,S,1,1,8,MT TROY EXT AT #4638,40.496356,-80.006816
N36960,S,1,1,8,MT TROY RD AT GARDENVIEW,40.484965,-79.99198
N37000,S,1,1,8,MT TROY RD OPP HOFFMAN,40.490738,-79.992113
N37010,S,0,1,8,MT TROY RD AT HOFFMAN,40.490601,-79.991963
N37020,S,0,1,8,MT TROY RD AT HOMESTEAD,40.47246,-79.982944
N37060,S,0,1,8,MT TROY RD AT LONSDALE,40.473713,-79.984001
N37080,S,1,1,8,MT TROY RD AT MT TROY FLORAL (#3467),40.487553,-79.992008
N37090,S,1,1,8,MT TROY RD AT PIEFFERS STORE,40.476802,-79.987736
N37140,S,0,1,8,MT TROY RD AT #2652,40.473454,-79.985422
N37160,S,0,1,8,MT TROY RD AT #2768,40.475347,-79.987034
N37170,S,0,1,8,MT TROY RD AT #3220,40.483504,-79.991277
N37220,S,0,1,8,MT TROY RD AT ST MARY CEMETERY ENT,40.495576,-79.999122
N37300,S,0,1,8,MT TROY RD OPP MT TROY FLORAL,40.487405,-79.99188
N37320,S,1,1,8,MT TROY RD OPP #2722,40.47394,-79.986647
N37370,S,1,1,8,MT TROY RD OPP ST MARY CEMETERY ENT,40.495472,-79.999017
N38310,S,1,6,38,NORTH AVE AT ALLEGHENY GENERAL HOSP,40.456228,-80.003037
N38370,S,0,2,40,NORTH AVE AT BRIGHTON,40.454086,-80.014329
N38370,S,1,5,42,NORTH AVE AT BRIGHTON,40.454086,-80.014329
N38430,S,1,2,12,NORTH AVE AT ELIZABETH,40.483866,-79.973233
N38480,S,0,11,81,NORTH AVE AT FEDERAL,40.455353,-80.00675
N38480,S,1,3,58,NORTH AVE AT FEDERAL,40.455353,-80.00675
N38540,S,1,2,12,NORTH AVE AT FREMONT,40.482244,-79.973825
N38690,S,1,2,28,NORTH AVE AT MIDDLE FS,40.456692,-80.000324
N38740,S,0,2,40,NORTH AVE AT REDDOUR,40.455365,-80.007574
N38740,S,1,10,75,NORTH AVE AT REDDOUR,40.455365,-80.007574
N38820,S,0,5,42,NORTH AVE OPP MONTEREY,40.454245,-80.012682
N38820,S,1,3,58,NORTH AVE OPP MONTEREY,40.454245,-80.012682
N38860,S,0,6,60,NORTH COMMONS AT WEST COMMONS,40.453683,-80.007763
N38860,S,1,8,113,NORTH COMMONS AT WEST COMMONS,40.453683,-80.007763
N38905,S,1,2,32,MAZEROSKI DR AT GENERAL ROBINSON,40.447545,-80.007381
N38910,S,1,2,32,NORTH SHORE DR OPP ART ROONEY,40.444997,-80.014396
N38930,S,1,2,32,NORTH SHORE DR OPP TONY DORSETT (BRIDGE STEPS),40.445102,-80.010027
N39090,S,0,3,16,NORTHWAY MALL EXIT DR AT BABCOCK,40.552193,-80.023162
N39680,S,0,1,12,OHIO RIVER BLVD AT FISK,40.501457,-80.074885
N39720,S,0,1,12,OHIO RIVER BLVD AT HARRISON,40.500462,-80.073341
N39750,S,0,1,12,OHIO RIVER BLVD AT KILBUCK (I-79 ENT),40.517556,-80.130796
N39850,S,0,1,12,OHIO RIVER BLVD AT MILLERTON,40.481502,-80.045936
N39900,S,0,1,12,OHIO RIVER BLVD AT PRIVATE DR FS,40.523495,-80.151837
N40000,S,0,1,12,OHIO RIVER BLVD AT SHILOH,40.487932,-80.056346
N40090,S,1,2,14,OHIO RIVER BLVD OPP BRIGHTON (#7139),40.504809,-80.084741
N40120,S,1,2,14,OHIO RIVER BLVD OPP DICKSON,40.503619,-80.081239
N40150,S,1,2,14,OHIO RIVER BLVD OPP ELIZABETH,40.495774,-80.067171
N40170,S,0,1,12,OHIO RIVER BLVD OPP GLENFIELD VIADUCT,40.517193,-80.127075
N40240,S,1,1,12,OHIO RIVER BLVD OPP KENDALL,40.48631,-80.054187
N40300,S,1,1,12,OHIO RIVER BLVD OPP MILLERTON,40.481512,-80.046211
N40310,S,1,2,14,OHIO RIVER BLVD OPP MONITOR,40.501521,-80.075424
N40340,S,1,2,14,OHIO RIVER BLVD OPP PRIVATE DR,40.525171,-80.156027
N40425,S,0,7,43,OLD FREEPORT RD AT MARINA,40.487541,-79.87953
N40435,S,0,7,43,OLD FREEPORT RD AT #1380,40.488849,-79.872972
N40440,S,0,7,43,OLD FREEPORT TERMINUS AT FREEPORT,40.490219,-79.86984
N40440,S,1,6,43,OLD FREEPORT TERMINUS AT FREEPORT,40.490219,-79.86984
N40450,S,0,2,37,OLD PERRY HWY AT STEPS #2,40.508056,-80.029009
N40880,S,1,2,12,PEEBLES RD AT #8602,40.564825,-80.008855
N41060,S,0,2,12,PEEBLES RD OPP PARKWAY,40.564088,-80.009731
N41100,S,0,2,12,PEEBLES RD AT REMINGTON,40.561568,-80.013166
N41200,S,1,2,12,PEEBLES RD AT ELAINE,40.562774,-80.011392
N41327,S,0,4,36,PENFORT ST AT #256,40.475272,-80.00133
N41800,S,0,1,20,PENNSYLVANIA AVE AT FULTON,40.454404,-80.024691
N41830,S,0,1,20,PENNSYLVANIA AVE AT ALLEGHENY FS,40.45518,-80.020396
N42640,S,0,5,71,PERRY HWY AT ROSS GARAGE ENT #2,40.501384,-80.023303
N42680,S,1,4,51,PERRY HWY AT #4235,40.495517,-80.020437
N43060,S,1,2,37,PERRY HWY OPP HANWAY,40.504398,-80.026703
N43330,S,0,4,63,PERRYSVILLE AVE AT BONVUE FS,40.490161,-80.018433
N43445,S,0,2,37,PERRYSVILLE AVE OPP ELLZEY,40.47171,-80.009492
N43450,S,1,4,47,PERRYSVILLE AVE AT FEDERAL,40.461131,-80.008874
N43520,S,1,2,37,PERRYSVILLE AVE AT KENWOOD,40.469571,-80.008471
N43560,S,1,2,37,PERRYSVILLE AVE AT MARSHALL AVE,40.475115,-80.011615
N43580,S,1,2,37,PERRYSVILLE AVE AT MAYWOOD,40.466979,-80.010276
N43590,S,1,4,47,PERRYSVILLE AVE AT MCCLINTOCK,40.46314,-80.013839
N43650,S,1,4,47,PERRYSVILLE AVE AT O'HERN,40.460257,-80.013036
N43720,S,1,2,10,PERRYSVILLE AVE AT #1693,40.460575,-80.009713
N43730,S,1,2,37,PERRYSVILLE AVE AT #1693,40.46015,-80.009797
N43780,S,0,2,37,PERRYSVILLE AVE AT #2642,40.472112,-80.010209
N43800,S,0,2,37,PERRYSVILLE AVE AT #3358,40.481172,-80.013375
N43860,S,1,2,37,PERRYSVILLE AVE AT SEMICIR,40.487436,-80.016347
N43920,S,1,2,37,PERRYSVILLE AVE AT WILSON AVE,40.463751,-80.012225
N44000,S,0,2,37,PERRYSVILLE AVE OPP #1733,40.459988,-80.010804
N44040,S,1,2,37,PERRYSVILLE AVE OPP #3000,40.476095,-80.012454
N44060,S,1,2,37,PERRYSVILLE AVE OPP #3358,40.481122,-80.01355
N44100,S,0,2,37,PERRYSVILLE AVE OPP WILSON,40.463613,-80.01244
N44460,S,0,2,17,PITTSBURGH ST AT ALLEGHENY,40.541113,-79.797932
N44640,S,1,2,17,PITTSBURGH ST AT JAMES FS,40.541297,-79.780167
N44810,S,0,2,17,PITTSBURGH ST AT PORTER,40.541039,-79.788926
N44860,S,1,2,17,PITTSBURGH ST AT SCHOOL FS,40.541513,-79.777923
N45060,S,0,1,8,PITTVIEW AVE AT MTTROY,40.469219,-79.982039
N45120,S,1,1,8,PITTVIEW AVE OPP TEUTONIA,40.469067,-79.982908
N45475,S,0,2,32,REEDSDALE ST AT SCOTLAND FS,40.448354,-80.010857
N45680,S,0,3,18,RHINE ST AT BUENTE,40.466274,-79.993044
N45720,S,0,3,18,RHINE ST AT #2146,40.467545,-79.994717
N45770,S,1,3,18,RHINE ST AT YETTA FS,40.463401,-79.991401
N45810,S,0,3,18,RHINE ST OPP YETTA,40.463512,-79.991347
N45840,S,0,1,8,RIALTO ST AT TOURS,40.466573,-79.9823
N45890,S,0,7,57,RIDGE AVE AT ARCH NS,40.452063,-80.008667
N45940,S,1,1,20,RIDGE AVE AT GALVESTON,40.450185,-80.015841
N46125,S,1,1,14,RIVER AVE AT GATE #5,40.606467,-79.727453
N47090,S,0,2,17,ROSS ST AT 4TH,40.600242,-79.757494
N49090,S,0,2,12,SEAVEY RD AT PARKER,40.494033,-79.96331
N49960,S,0,2,26,SIRIUS ST AT #3517,40.484868,-80.005834
N49960,S,1,4,36,SIRIUS ST AT #3517,40.484868,-80.005834
N50000,S,0,1,1,SKYVUE NURSING HOME AT TURNAROUND,40.468544,-79.994445
N50000,S,1,1,1,SKYVUE NURSING HOME AT TURNAROUND,40.468544,-79.994445
N50200,S,0,5,42,SOUTH COMMONS AT FEDERAL FS,40.450418,-80.004125
N50200,S,1,8,113,SOUTH COMMONS AT FEDERAL FS,40.450418,-80.004125
N50260,S,0,3,18,SOUTH SIDE AVE AT SUNSET,40.469523,-79.999287
N50300,S,1,2,28,SPA FIRE LANE AT ENTRANCE,40.586722,-80.028988
N51560,S,0,2,2,ST MARGARET'S DR AT FREEPORT,40.48748,-79.895603
N52545,S,0,1,8,TROY HILL RD AT CHESTNUT FS,40.455501,-79.994065
N52630,S,0,1,8,TROY HILL RD OPP GOETTMAN,40.45965,-79.985859
N52650,S,0,1,8,TROY HILL RD OPP PROVINCE FS,40.457585,-79.989103
N52670,S,0,1,8,TROY HILL RD OPP VINIAL,40.456868,-79.990918
N53597,S,0,2,37,WEST VIEW PARK DR AT WEST VIEW TOWERS,40.517003,-80.033333
N53597,S,1,5,42,WEST VIEW PARK DR AT WEST VIEW TOWERS,40.517003,-80.033333
N53605,S,0,5,42,WEST VIEW PARK DR OPP WEST VIEW TOWER,40.516812,-80.033649
N53605,S,1,2,37,WEST VIEW PARK DR OPP WEST VIEW TOWER,40.516812,-80.033649
N53610,S,0,5,42,WEST VIEW PLAZA SC AT TERMINUS,40.517303,-80.03624
N53610,S,1,3,42,WEST VIEW PLAZA SC AT TERMINUS,40.517303,-80.03624
N53620,S,0,7,79,WEST VIEW PLAZA FIRE LANE AT DOLLAR TREE,40.516112,-80.038224
N53620,S,1,7,79,WEST VIEW PLAZA FIRE LANE AT DOLLAR TREE,40.516112,-80.038224
N53635,S,0,5,42,WEST VIEW PLAZA FIRE LANE AT K-MART,40.516458,-80.037
N53635,S,1,3,42,WEST VIEW PLAZA FIRE LANE AT K-MART,40.516458,-80.037
N54505,S,0,1,1,WILSON ST AT CHARLES FS,40.469091,-80.01448
N54505,S,1,2,10,WILSON ST AT CHARLES FS,40.469091,-80.01448
N54790,S,0,1,1,WURZELL AVE AT BURGESS,40.468607,-80.004136
N54790,S,1,2,10,WURZELL AVE AT BURGESS,40.468607,-80.004136
N54810,S,0,2,40,WINHURST ST AT CALIFORNIA,40.487367,-80.044946
N70021,S,0,1,10,CAMP HORNE RD AT OHIO RIVER BLVD FS,40.510592,-80.094532
N70022,S,1,2,14,BEAVER ST AT DIVISION FS,40.539783,-80.179956
N70049,S,1,9,82,WATERWORKS MALL AT MARSHALL'S,40.488915,-79.891994
N70085,S,1,1,14,MCKNIGHT RD OPP DUNCAN,40.568373,-80.024089
N70086,S,0,2,15,MCKNIGHT RD AT DUNCAN,40.568421,-80.023704
N70087,S,1,3,27,MT PLEASANT RD AT EAST ST FS,40.48254,-80.006024
N70121,S,0,2,3,ST MARGARETS DR AT REAR PARKING LOT,40.489319,-79.894587
N70121,S,1,5,8,ST MARGARETS DR AT REAR PARKING LOT,40.489319,-79.894587
N70145,S,0,2,15,HIGHLAND MALL SC AT WALMART STOREFRONT,40.648909,-79.708989
N70145,S,1,1,14,HIGHLAND MALL SC AT WALMART STOREFRONT,40.648909,-79.708989
P00220,S,0,14,94,2ND AVE AT ALLEGHENY COUNTY JAIL,40.435737,-79.995129
P00230,S,1,1,24,2ND AVE AT ROSS,40.436573,-79.996995
P00270,S,0,2,9,2ND AVE AT #600 (TRY),40.436566,-79.995414
P00590,S,0,13,267,5TH AVE AT WOOD NS (CVS),40.440846,-80.000821
P00650,S,1,14,135,5TH AVE AT WOOD NS,40.440775,-80.000275
P00690,S,1,14,270,6TH AVE AT BIGELOW,40.440453,-79.994638
P00740,S,0,19,184,6TH AVE AT SMITHFIELD,40.441587,-79.998233
P00740,S,1,21,184,6TH AVE AT SMITHFIELD,40.441587,-79.998233
P00760,S,0,6,78,6TH ST AT FT DUQUESNE,40.443937,-80.002596
P00760,S,1,5,42,6TH ST AT FT DUQUESNE,40.443937,-80.002596
P00920,S,0,7,58,7TH ST AT FT DUQUESNE,40.444439,-80.00071
P00940,S,1,2,17,7TH ST AT PENN FS,40.443025,-80.000271
P01180,S,1,1,4,BLVD OF ALLIES AT STANWIX FS,40.439885,-80.005488
P01240,S,1,12,94,BLVD OF ALLIES AT MARKET,40.439118,-80.003493
P01260,S,0,2,19,BLVD OF ALLIES AT SMITHFIELD,40.437743,-80.000318
P01290,S,0,13,90,BLVD OF ALLIES AT STANWIX,40.439577,-80.004671
P01290,S,1,13,96,BLVD OF ALLIES AT STANWIX,40.439577,-80.004671
P01450,S,1,5,32,CHATHAM ST AT CENTRE,40.44032,-79.993481
P01600,S,0,1,79,EAST BUSWAY AT PENN STATION A,40.443763,-79.992218
P01600,S,1,3,25,EAST BUSWAY AT PENN STATION A,40.443763,-79.992218
P01875,S,1,18,159,FT PITT BLVD BTW SMITHFIELD & WOOD,40.437047,-80.001627
P01940,S,1,2,17,GRANT ST OPP OLIVER,40.440086,-79.996194
P02030,S,0,1,33,GRANT ST AT LIBERTY AVEFS(FED BLDG),40.443569,-79.994433
P02270,S,0,1,33,LIBERTY AVE AT 5TH,40.441578,-80.002795
P02320,S,0,4,53,LIBERTY AVE AT 8TH (TITO),40.442745,-79.99893
P02325,S,1,4,87,LIBERTY AVE AT 10TH FS,40.443631,-79.995678
P02470,S,0,11,102,LIBERTY AVE AT MARKET,40.441803,-80.002088
P02470,S,1,11,130,LIBERTY AVE AT MARKET,40.441803,-80.002088
P02610,S,0,17,152,LIBERTY AVE OPP 11TH FS (AMTRAK),40.444547,-79.992844
P02790,S,1,15,144,PENN AVE AT 10TH FS (#943),40.444437,-79.995833
P02870,S,1,1,8,PENN AVE AT 9TH,40.443679,-79.998403
P02910,S,0,1,14,PENN AVE AT GARRISON PLACE,40.444104,-79.99722
P03000,S,0,19,184,SMITHFIELD ST AT 3RD,40.438302,-79.999918
P03660,S,1,21,184,WOOD ST AT 3RD FS,40.438977,-80.001481
P70005,S,0,14,94,2ND AVE AT B ST,40.436245,-79.996439
P70007,S,1,2,20,5TH AVE AT ROSS,40.4389,-79.995775
P70010,S,0,1,39,LIBERTY AVE AT 8TH (TITO WAY) (B),40.442755,-79.99904
P70012,S,0,1,39,LIBERTY AVE AT HILTON (B),40.441527,-80.00595
P70013,S,1,1,39,LIBERTY AVE AT GATEWAY #4 (A),40.44136,-80.005168
P70014,S,0,1,13,LIBERTY AVE AT MARKET (A),40.441813,-80.002198
P70014,S,1,2,52,LIBERTY AVE AT MARKET (A),40.441813,-80.002198
P70018,S,1,3,8,LIBERTY AVE AT 11TH (GREYHOUND),40.444537,-79.992734
S00080,S,1,5,37,12TH AVE AT AMITY,40.404516,-79.908063
S00160,S,0,13,95,S 18TH ST AT ARLINGTON,40.417988,-79.98643
S00180,S,1,16,96,S 18TH ST AT E CARSON,40.428483,-79.98052
S00350,S,0,13,95,S 18TH ST AT #2730,40.418853,-79.986618
S00460,S,1,15,94,S 18TH ST OPP RUGRAFF,40.4198,-79.987259
S00590,S,1,2,29,26TH ST AT E CARSON,40.427337,-79.968369
S00600,S,1,2,29,26TH ST AT JANE,40.425681,-79.969151
S00620,S,1,2,29,26TH ST AT SARAH,40.426415,-79.968785
S00660,S,0,13,86,2ND AVE AT 10TH ST BRIDGE,40.434431,-79.989983
S00690,S,1,8,66,2ND AVE AT BATES FS,40.431384,-79.959339
S00860,S,1,4,19,2ND AVE AT JOHNSTON,40.405877,-79.94287
S01010,S,0,5,19,2ND AVE AT VESPUCIUS,40.401692,-79.940689
S01020,S,1,4,19,2ND AVE AT VESPUCIUS,40.401706,-79.940486
S01070,S,0,8,66,2ND AVE OPP BATES FS,40.431012,-79.95919
S01100,S,0,8,66,2ND AVE OPP BRADY,40.435748,-79.972515
S01280,S,0,3,37,2ND ST AT GRANT,40.373361,-79.847125
S01280,S,1,3,18,2ND ST AT GRANT,40.373361,-79.847125
S01780,S,0,3,17,5TH AVE AT MCCLURE,40.351995,-79.890521
S02160,S,1,3,18,5TH ST AT COCHRAN,40.36669,-79.847956
S02180,S,1,3,18,5TH ST AT CRAWFORD,40.364673,-79.846984
S02570,S,0,8,84,8TH AVE OPP AMITY FS,40.407175,-79.910404
S02570,S,1,3,18,8TH AVE OPP AMITY FS,40.407175,-79.910404
S02620,S,0,8,84,8TH AVE AT ANN FS,40.40788,-79.909033
S02620,S,1,3,18,8TH AVE AT ANN FS,40.40788,-79.909033
S02670,S,0,3,37,8TH AVE AT DICKSON,40.408781,-79.905681
S02670,S,1,3,18,8TH AVE AT DICKSON,40.408781,-79.905681
S02820,S,0,3,37,8TH AVE AT LIBRARY,40.408922,-79.903393
S02820,S,1,3,18,8TH AVE AT LIBRARY,40.408922,-79.903393
S02930,S,0,11,129,8TH AVE AT WEST FS,40.40613,-79.911848
S02930,S,1,3,18,8TH AVE AT WEST FS,40.40613,-79.911848
S02990,S,0,3,17,8TH AVE OPP GRANT,40.409399,-79.898732
S02990,S,1,3,46,8TH AVE OPP GRANT,40.409399,-79.898732
S03610,S,0,1,10,A DR BTWN #101 & #201,40.341668,-79.910323
S03610,S,1,1,9,A DR BTWN #101 & #201,40.341668,-79.910323
S03730,S,1,1,6,AGNEW AVE AT JOSEPH,40.396324,-79.971438
S03750,S,0,2,8,AGNEW AVE AT JOSEPH FS,40.396261,-79.97168
S03810,S,1,1,6,AGNEW AVE AT #973,40.398921,-79.96515
S03840,S,0,2,8,AGNEW AVE OPP LAFFERTY,40.398021,-79.969246
S03850,S,0,2,8,AGNEW AVE OPP MIDDLE,40.396752,-79.9764
S03950,S,0,2,5,ALICE ST AT CAMFIELD,40.410352,-79.997603
S03950,S,1,2,3,ALICE ST AT CAMFIELD,40.410352,-79.997603
S03980,S,0,2,5,ALICE ST AT TARRAGONNA #1,40.410161,-79.996701
S03980,S,1,2,3,ALICE ST AT TARRAGONNA #1,40.410161,-79.996701
S04000,S,1,6,38,AMANDA ST AT ARLINGTON,40.418277,-79.988161
S04040,S,0,3,55,AMANDA ST OPP ROCHELLE,40.415612,-79.988042
S04040,S,1,7,62,AMANDA ST OPP ROCHELLE,40.415612,-79.988042
S04160,S,0,10,108,AMITY ST AT TARGET DRIVE,40.409206,-79.912896
S04160,S,1,10,124,AMITY ST AT TARGET DRIVE,40.409206,-79.912896
S04166,S,0,1,9,ANDREW ST AT 11TH,40.406707,-79.900761
S04168,S,1,1,9,ANDREW ST AT 12TH,40.405798,-79.900904
S04182,S,1,1,9,ANDREW ST AT 16TH,40.404025,-79.900595
S04410,S,1,2,29,ARLINGTON AVE AT FREDERICK,40.417608,-79.982741
S04490,S,1,2,29,ARLINGTON AVE AT KOEHLER,40.417562,-79.984648
S04510,S,0,2,29,ARLINGTON AVE AT MARENGO,40.41785,-79.977208
S04560,S,1,2,29,ARLINGTON AVE AT #3053,40.417708,-79.963661
S04580,S,0,2,29,ARLINGTON AVE AT #3264,40.415205,-79.962217
S04580,S,1,2,29,ARLINGTON AVE AT #3264,40.415205,-79.962217
S04680,S,0,2,29,ARLINGTON AVE OPP DENGLER,40.41727,-79.967579
S04780,S,1,2,29,ARLINGTON AVE OPP #2201,40.416376,-79.960564
S04960,S,1,1,9,AURILES ST AT KENNEDY,40.370456,-79.852737
S05030,S,0,1,1,BAILIE AVE AT CONVERSE,40.342176,-79.85138
S05080,S,1,2,18,BAILIE AVE AT EVANS,40.341525,-79.8492
S05235,S,1,4,19,BALDWIN ST AT GLASS RUN,40.389559,-79.932709
S05510,S,1,3,54,BAUSMAN AVE AT GRIMES,40.414226,-79.99315
S05610,S,1,2,18,BEAVER AVE AT SUMAC,40.340552,-79.841867
S05760,S,0,6,28,BECKS RUN RD AT PARKWOOD,40.408122,-79.965313
S05830,S,1,3,26,BECKS RUN RD AT #785,40.408798,-79.964154
S05900,S,1,1,6,BECKS RUN RD OPP #554,40.405126,-79.972089
S06240,S,0,1,17,BEGGS ST AT MIFFIN FS,40.369496,-79.912758
S06470,S,0,1,10,BLACKBERRY DR AT LEBANON SCHOOL,40.340902,-79.91203
S06470,S,1,1,9,BLACKBERRY DR AT LEBANON SCHOOL,40.340902,-79.91203
S06620,S,1,2,3,BON AIR AVE AT CAMFIELD,40.410293,-79.997923
S06890,S,0,1,8,BOWMAN AVE AT LIME,40.360809,-79.832907
S06925,S,1,1,8,BOWMAN AVE OPP POPLAR,40.357688,-79.835723
S06945,S,0,1,8,BOWMAN AVE AT JARVIS,40.355387,-79.839714
S07010,S,0,1,8,BOWMAN AVE OPP FAIRMONT,40.362121,-79.830584
S08160,S,0,2,7,BROWNSVILLE RD AT AUDBERT,40.351423,-79.988541
S08220,S,0,7,56,BROWNSVILLE RD AT BISCAYNE,40.387436,-79.984038
S08390,S,1,9,56,BROWNSVILLE RD AT CHURCHVIEW,40.385816,-79.978785
S08400,S,1,9,56,BROWNSVILLE RD AT CLIFTON,40.38691,-79.981747
S08460,S,1,9,56,BROWNSVILLE RD AT E AGNEW,40.395098,-79.986589
S08490,S,1,9,56,BROWNSVILLE RD AT E MEYERS,40.399686,-79.988987
S08560,S,1,8,46,BROWNSVILLE RD AT GRAD FS,40.367093,-79.979976
S08620,S,0,2,7,BROWNSVILLE RD AT HOLLOWHAVEN FS,40.343499,-79.985242
S08620,S,1,2,14,BROWNSVILLE RD AT HOLLOWHAVEN FS,40.343499,-79.985242
S08670,S,0,6,50,BROWNSVILLE RD AT KAUFMANN FS,40.369117,-79.9758
S08750,S,1,2,10,BROWNSVILLE RD AT MARYL,40.351971,-79.98872
S08760,S,0,6,50,BROWNSVILLE RD AT MARYLEA,40.374945,-79.975606
S08770,S,0,7,56,BROWNSVILLE RD AT MAYTIDE,40.38457,-79.977997
S08790,S,0,11,64,BROWNSVILLE RD AT MCKINLEY,40.408902,-79.991097
S08930,S,0,6,49,BROWNSVILLE RD AT PARKFIELD,40.391532,-79.986795
S09010,S,0,7,56,BROWNSVILLE RD AT #2518,40.386434,-79.980102
S09020,S,1,9,56,BROWNSVILLE RD AT #2523,40.386632,-79.980216
S09150,S,0,2,14,BROWNSVILLE RD AT STREETS RUN,40.347329,-79.986255
S09150,S,1,2,10,BROWNSVILLE RD AT STREETS RUN,40.347329,-79.986255
S09230,S,0,6,50,BROWNSVILLE RD AT WILLOCK,40.370645,-79.97524
S09290,S,1,9,56,BROWNSVILLE RD AT WOODFORD,40.393024,-79.986466
S09340,S,1,4,8,BROWNSVILLE RD AT #311 (BAUSMAN NS),40.413941,-79.988252
S09380,S,0,2,7,BROWNSVILLE RD OPP CARLYN,40.353858,-79.989823
S09385,S,1,9,56,BROWNSVILLE RD OPP CHERRYHILL,40.398142,-79.988399
S09420,S,1,2,10,BROWNSVILLE RD OPP CURRY,40.358174,-79.990558
S09500,S,1,8,46,BROWNSVILLE RD OPP KAUFMANN,40.369167,-79.97557
S09520,S,1,2,10,BROWNSVILLE RD OPP MCANULTY,40.355194,-79.990493
S09610,S,1,8,52,BROWNSVILLE RD OPP OWENDALE,40.381316,-79.97607
S09630,S,0,7,56,BROWNSVILLE RD AT #2336,40.388149,-79.984793
S09710,S,0,7,56,BROWNSVILLE RD OPP #914,40.40712,-79.99202
S10450,S,1,7,39,BUTTERMILK HOLLOW RD AT PGH-MCKPT BLVD,40.358042,-79.90918
S10460,S,0,8,40,BUTTERMILK HOLLOW RD OPP PGH-MCKPT BLVD,40.358792,-79.908546
S10480,S,1,6,29,BUTTERMILK HOLLOW RD AT #5055,40.354778,-79.913365
S10510,S,0,8,40,BUTTERMILK HOLLOW RD AT WALNUT,40.356378,-79.911536
S10600,S,0,2,5,CAMFIELD ST AT CALLE FS,40.407844,-79.998277
S10600,S,1,2,3,CAMFIELD ST AT CALLE FS,40.407844,-79.998277
S11240,S,0,1,7,CATHELL RD AT CHURCHVIEW,40.384856,-79.949703
S11240,S,1,1,6,CATHELL RD AT CHURCHVIEW,40.384856,-79.949703
S11298,S,0,2,10,CENTURY TOWNHOMES AT TURNAROUND,40.28712,-79.897497
S11298,S,1,2,16,CENTURY TOWNHOMES AT TURNAROUND,40.28712,-79.897497
S11360,S,1,1,24,CHALFONT ST AT GEARING,40.41661,-80.004763
S11440,S,0,1,24,CHARLES ST AT GRIMES,40.416472,-79.993304
S11460,S,0,1,24,CHARLES ST AT KNOX,40.416558,-79.9909
S11590,S,1,1,6,CHURCHVIEW AVE AT CONVENT DRVWY #1,40.386088,-79.962131
S11650,S,1,1,6,CHURCHVIEW AVE AT GLASS RUN,40.385881,-79.966894
S11770,S,0,2,8,CHURCHVIEW AVE AT SANKEY FS,40.385307,-79.976326
S11770,S,1,1,2,CHURCHVIEW AVE AT SANKEY FS,40.385307,-79.976326
S11800,S,1,1,6,CHURCHVIEW AVE OPP WAIDLER,40.384878,-79.973885
S11860,S,0,2,8,CHURCHVIEW AVE AT ANDRADE,40.385761,-79.969848
S11940,S,1,1,6,CHURCHVIEW AVE OPP SANKEY,40.385378,-79.976324
S12440,S,1,1,24,CLIMAX ST AT BELTZHOOVER,40.419961,-79.997536
S12490,S,0,1,24,CLIMAX ST AT DELMONT,40.419467,-80.004272
S12520,S,1,1,24,CLIMAX ST AT HABERMAN,40.419818,-80.002552
S12540,S,0,1,24,CLIMAX ST AT VINCENT,40.419964,-80.001321
S12560,S,1,1,24,CLIMAX ST OPP VINCENT,40.419894,-80.001431
S12570,S,0,2,8,CLOVERFIELD ST AT EDWARD,40.394888,-79.966343
S12570,S,1,1,2,CLOVERFIELD ST AT EDWARD,40.394888,-79.966343
S12650,S,0,2,8,CLOVERFIELD ST OPP TOWERVUE,40.397958,-79.964851
S12685,S,0,1,8,CLYDE AVE OPP #2509,40.387062,-79.832283
S12750,S,0,2,18,COAL VALLEY RD OPP #556,40.320622,-79.931582
S12750,S,1,2,19,COAL VALLEY RD OPP #556,40.320622,-79.931582
S13050,S,0,4,26,COMMONWEALTH AVE AT DUBLANE,40.38075,-79.861113
S13075,S,1,3,18,COMMONWEALTH AVE AT ECKERD DRUG,40.382904,-79.876425
S13270,S,0,3,17,COMMONWEALTH AVE OPP ECKERD DRUG,40.383102,-79.876251
S13400,S,0,1,9,CONLIN ST AT PENNSYLVANIA,40.361738,-79.868176
S13410,S,1,1,9,CONLIN ST AT WORTON,40.362583,-79.870435
S13440,S,0,2,5,CONNISTON AVE AT BANDI,40.4093,-79.999394
S13440,S,1,2,3,CONNISTON AVE AT BANDI,40.4093,-79.999394
S13450,S,0,2,5,CONNISTON AVE AT BON AIR,40.410393,-79.999457
S13450,S,1,2,3,CONNISTON AVE AT BON AIR,40.410393,-79.999457
S13670,S,0,3,17,CRAWFORD ST AT 5TH,40.364555,-79.846972
S13690,S,0,3,17,CRAWFORD ST AT CATHERINE,40.364209,-79.847826
S13750,S,0,3,17,CRAWFORD ST AT MONTEREY,40.362928,-79.852069
S13790,S,0,3,17,CRAWFORD ST AT STATE,40.363207,-79.850587
S13871,S,0,2,7,CURRY HOLLOW RD AT ARBOR,40.336347,-79.971678
S13871,S,1,1,12,CURRY HOLLOW RD AT ARBOR,40.336347,-79.971678
S13873,S,0,2,7,CURRY HOLLOW RD AT GREEN,40.339904,-79.967429
S13873,S,1,1,12,CURRY HOLLOW RD AT GREEN,40.339904,-79.967429
S13876,S,0,2,7,CURRY HOLLOW RD AT HWY RT 51 RAMP,40.340728,-79.965452
S13876,S,1,1,12,CURRY HOLLOW RD AT HWY RT 51 RAMP,40.340728,-79.965452
S13912,S,0,2,7,CURRY HOLLOW RD OPP VALUE CITY SHOPPING CENTER,40.336194,-79.977161
S13912,S,1,1,12,CURRY HOLLOW RD OPP VALUE CITY SHOPPING CENTER,40.336194,-79.977161
S14100,S,1,1,6,CUSTER AVE AT EDWARD,40.395543,-79.968363
S14165,S,0,2,8,CUSTER AVE OPP BICKAR,40.394198,-79.971006
S14320,S,0,2,10,DESIDERIO BLVD AT SOLTIS,40.286565,-79.89579
S14320,S,1,2,16,DESIDERIO BLVD AT SOLTIS,40.286565,-79.89579
S14510,S,0,1,1,DOYLE RD AT FRICH,40.359029,-79.976147
S14743,S,0,4,26,DUQUESNE BLVD OPP FAIRMONT,40.382031,-79.856345
S14743,S,1,2,37,DUQUESNE BLVD OPP FAIRMONT,40.382031,-79.856345
S14745,S,0,3,37,DUQUESNE BLVD AT OAKMONT,40.38084,-79.855363
S14745,S,1,4,27,DUQUESNE BLVD AT OAKMONT,40.38084,-79.855363
S14765,S,1,2,37,DUQUESNE BLVD OPP COMMONWEALTH,40.382905,-79.857261
S14790,S,0,3,37,DUQUESNE BLVD AT COCHRAN,40.367106,-79.842369
S14791,S,1,2,37,DUQUESNE BLVD OPP COCHRAN,40.366889,-79.84209
S14830,S,1,1,9,DUQUESNE PLAZA AT SAVE-A-LOT FOOD STORE,40.374814,-79.846756
S14950,S,0,3,17,EASTMAN ST AT GREENSPRINGS FS,40.383573,-79.877797
S15070,S,0,1,2,EDEN PARK BLVD AT ST JOHN'S CHURCH,40.344574,-79.830111
S15070,S,1,1,6,EDEN PARK BLVD AT ST JOHN'S CHURCH,40.344574,-79.830111
S15170,S,0,1,6,EDEN PARK BLVD OPP OXFORD,40.345724,-79.831167
S15180,S,0,1,6,EDEN PARK BLVD OPP ST JOHN'S CHURCH,40.344532,-79.830239
S15270,S,0,1,7,EILEEN DR AT #195,40.378595,-79.953018
S15270,S,1,1,6,EILEEN DR AT #195,40.378595,-79.953018
S15330,S,0,1,7,EILEEN DR AT #129,40.380706,-79.951913
S15330,S,1,1,6,EILEEN DR AT #129,40.380706,-79.951913
S16220,S,0,6,39,E CARSON ST AT 20TH,40.428648,-79.977488
S16220,S,1,4,48,E CARSON ST AT 20TH,40.428648,-79.977488
S16260,S,0,6,39,E CARSON ST AT 22ND,40.428459,-79.974331
S16260,S,1,7,55,E CARSON ST AT 22ND,40.428459,-79.974331
S16270,S,0,5,67,E CARSON ST AT 22ND,40.428335,-79.974809
S16270,S,1,6,38,E CARSON ST AT 22ND,40.428335,-79.974809
S16310,S,0,2,29,E CARSON ST AT 24TH,40.428145,-79.97136
S16310,S,1,1,26,E CARSON ST AT 24TH,40.428145,-79.97136
S16320,S,0,1,30,E CARSON ST AT 25TH,40.427845,-79.969596
S16320,S,1,5,55,E CARSON ST AT 25TH,40.427845,-79.969596
S16400,S,1,11,85,E CARSON ST AT 2ND,40.430178,-79.99902
S16570,S,0,10,109,E CARSON ST AT STATION SQUARE STATION,40.431741,-80.003289
S16625,S,0,9,85,E CARSON ST AT 7TH FS,40.428545,-79.992141
S16760,S,0,1,8,E PGH-MCKSPT BLVD AT APARTMENTS,40.383511,-79.825274
