route_id,stop_id,service_id,direction_id,avghdwy,stdev_hdwy,stop_name,stop_lat,stop_lon,route_short_name,route_long_name
6,10007,SA,1,60.0,1.0,W 100th Ave & Pecos St,39.878638,-105.006153,6,East 6th Avenue / North Pecos
6,10008,SA,0,60.5,3.3,W 100th Ave & Ura Ln,39.877913,-105.011188,6,East 6th Avenue / North Pecos
6,10009,SA,1,60.0,1.0,W 100th Ave & Ura Ln,39.878006,-105.011309,6,East 6th Avenue / North Pecos
92,10013,SA,0,36.0,12.2,100th Ave & York St,39.877727,-104.958489,92,92nd Avenue
6,10014,SA,1,60.0,1.0,W 104th Ave & Croke Dr,39.885039,-104.999657,6,East 6th Avenue / North Pecos
6,10016,SA,0,60.5,3.3,W 104th Ave & Croke Dr,39.885319,-105.000391,6,East 6th Avenue / North Pecos
12,10019,SA,0,38.2,13.3,W 104th Ave & Huron St,39.88505,-104.996082,12,Downing Street
88,10019,SA,1,41.5,14.9,W 104th Ave & Huron St,39.88505,-104.996082,88,Northglenn/Commerce City/Stapleton
6,10020,SA,0,60.5,3.3,W 104th Ave & Huron St,39.885332,-104.997422,6,East 6th Avenue / North Pecos
6,10021,SA,1,60.0,1.0,W 104th Ave & Livingston Dr,39.885038,-105.002857,6,East 6th Avenue / North Pecos
6,10022,SA,0,60.5,3.3,W 104th Ave & Livingston Dr,39.885307,-105.003771,6,East 6th Avenue / North Pecos
12,10023,SA,0,38.2,13.3,W 104th Ave & Melody Dr,39.88504,-104.992627,12,Downing Street
12,10023,SA,1,37.1,12.3,W 104th Ave & Melody Dr,39.88504,-104.992627,12,Downing Street
88,10023,SA,1,41.5,14.9,W 104th Ave & Melody Dr,39.88504,-104.992627,88,Northglenn/Commerce City/Stapleton
6,10024,SA,1,60.0,1.0,W 104th Ave & Quivas St,39.88507,-105.007153,6,East 6th Avenue / North Pecos
6,10025,SA,0,60.5,3.3,W 104th Ave & Quivas St,39.885344,-105.006939,6,East 6th Avenue / North Pecos
12,10028,SA,1,37.1,12.4,W 106th Ave & Huron St,39.888627,-104.994739,12,Downing Street
6,10028,SA,0,60.6,3.2,W 106th Ave & Huron St,39.888627,-104.994739,6,East 6th Avenue / North Pecos
6,10028,SA,1,60.0,1.0,W 106th Ave & Huron St,39.888627,-104.994739,6,East 6th Avenue / North Pecos
8,10028,SA,1,60.0,0.0,W 106th Ave & Huron St,39.888627,-104.994739,8,North Broadway / Huron
9,10030,SA,0,60.0,0.0,W 10th Ave & Allison St,39.732929,-105.085499,9,West 10th Avenue
9,10031,SA,1,60.0,0.4,W 10th Ave & Allison St,39.733007,-105.08554,9,West 10th Avenue
9,10033,SA,1,60.0,0.4,W 10th Ave & Balsam St,39.732989,-105.089003,9,West 10th Avenue
9,10036,SA,0,60.0,0.0,W 10th Ave & Carr St,39.732897,-105.090526,9,West 10th Avenue
9,10037,SA,1,60.0,0.4,W 10th Ave & Carr St,39.733003,-105.090597,9,West 10th Avenue
9,10038,SA,1,59.9,0.3,W 10th Ave & Decatur St,39.733039,-105.022107,9,West 10th Avenue
9,10039,SA,0,60.0,0.0,W 10th Ave & Depew St,39.733,-105.057679,9,West 10th Avenue
9,10040,SA,1,60.0,0.4,W 10th Ave & Depew St,39.73313,-105.057576,9,West 10th Avenue
9,10042,SA,1,60.0,0.4,W 10th Ave & Estes St,39.732962,-105.095034,9,West 10th Avenue
9,10043,SA,0,60.0,0.0,W 10th Ave & Estes St,39.732796,-105.095023,9,West 10th Avenue
9,10044,SA,0,59.9,0.3,W 10th Ave & Federal Blvd,39.732946,-105.024758,9,West 10th Avenue
9,10045,SA,1,59.9,0.3,W 10th Ave & Federal Blvd,39.732985,-105.025626,9,West 10th Avenue
9,10047,SA,0,60.0,0.0,W 10th Ave & Flower St,39.732813,-105.099179,9,West 10th Avenue
9,10048,SA,0,60.0,0.0,W 10th Ave & Gray St,39.733052,-105.061044,9,West 10th Avenue
9,10049,SA,1,60.0,0.4,W 10th Ave & Gray St,39.73312,-105.061687,9,West 10th Avenue
9,10050,SA,0,59.9,0.3,W 10th Ave & Hooker St,39.732913,-105.028345,9,West 10th Avenue
9,10051,SA,1,59.9,0.3,W 10th Ave & Hooker St,39.732976,-105.02897,9,West 10th Avenue
9,10055,SA,1,60.0,0.4,W 10th Ave & Jay St,39.733117,-105.065174,9,West 10th Avenue
10,10056,SA,0,30.0,0.3,Jersey St & E 10th Ave,39.731453,-104.919403,10,East 12th Avenue
9,10057,SA,0,60.0,0.0,W 10th Ave & Kendall St,39.733051,-105.065219,9,West 10th Avenue
9,10060,SA,0,59.9,0.3,W 10th Ave & Julian St,39.732914,-105.030539,9,West 10th Avenue
9,10061,SA,1,59.9,0.3,W 10th Ave & Knox Ct,39.732994,-105.032475,9,West 10th Avenue
10,10062,SA,0,30.0,0.3,E 10th Ave & Leyden St,39.731631,-104.914705,10,East 12th Avenue
10,10063,SA,1,30.1,0.6,E 10th Ave & Leyden St,39.731722,-104.915604,10,East 12th Avenue
9,10066,SA,0,59.9,0.3,W 10th Ave & Meade St,39.732915,-105.036005,9,West 10th Avenue
9,10067,SA,1,59.9,0.3,W 10th Ave & Meade St,39.733018,-105.035629,9,West 10th Avenue
10,10068,SA,0,30.0,0.3,E 10th Ave & Monaco Pkwy,39.731643,-104.912577,10,East 12th Avenue
10,10069,SA,1,30.1,0.6,E 10th Ave & Monaco Pkwy,39.731712,-104.912685,10,East 12th Avenue
9,10070,SA,0,59.9,0.3,W 10th Ave & Perry St,39.732948,-105.038991,9,West 10th Avenue
9,10071,SA,1,59.9,0.3,W 10th Ave & Perry St,39.733045,-105.039675,9,West 10th Avenue
9,10072,SA,0,60.0,0.0,W 10th Ave & Pierce St,39.733081,-105.072247,9,West 10th Avenue
9,10073,SA,1,59.9,0.3,W 10th Ave & Raleigh St,39.733078,-105.042204,9,West 10th Avenue
9,10074,SA,1,60.0,0.4,W 10th Ave & Teller St,39.733069,-105.0763,9,West 10th Avenue
9,10075,SA,1,60.0,0.4,W 10th Ave & Sheridan Blvd,39.733142,-105.053777,9,West 10th Avenue
9,10076,SA,0,60.0,0.0,W 10th Ave & Sheridan Blvd,39.733072,-105.052504,9,West 10th Avenue
9,10077,SA,0,59.9,0.3,W 10th Ave & Stuart St,39.732976,-105.042225,9,West 10th Avenue
9,10078,SA,0,60.0,0.0,W 10th Ave & Teller St,39.73299,-105.076477,9,West 10th Avenue
9,10079,SA,1,60.0,0.4,W 10th Ave & Wadsworth Blvd,39.733058,-105.081999,9,West 10th Avenue
9,10080,SA,0,60.0,0.0,W 10th Ave & Wadsworth Blvd,39.732909,-105.080126,9,West 10th Avenue
9,10081,SA,1,60.0,0.4,W 10th Ave & Winona Ct,39.733125,-105.047719,9,West 10th Avenue
9,10082,SA,0,59.9,0.3,W 10th Ave & Winona Ct,39.733019,-105.046716,9,West 10th Avenue
9,10083,SA,0,59.9,0.3,W 10th Ave & Wolff St,39.73304,-105.04949,9,West 10th Avenue
9,10084,SA,1,60.0,0.4,W 10th Ave & Xavier St,39.733152,-105.050763,9,West 10th Avenue
112,10090,SA,1,60.0,0.0,W 112th Ave & Federal Blvd,39.899746,-105.025765,112,West 112th Avenue
31,10090,SA,0,61.3,6.9,W 112th Ave & Federal Blvd,39.899746,-105.025765,31,Federal Blvd
112,10091,SA,0,59.9,0.3,W 112th Ave & Federal Blvd,39.899515,-105.027084,112,West 112th Avenue
31,10091,SA,1,60.0,2.1,W 112th Ave & Federal Blvd,39.899515,-105.027084,31,Federal Blvd
112,10094,SA,0,59.9,0.3,W 112th Ave & Sheridan Blvd,39.899623,-105.051659,112,West 112th Avenue
112,10095,SA,0,59.9,0.3,W 112th Ave & Vrain St,39.899599,-105.045178,112,West 112th Avenue
112,10096,SA,1,60.0,0.0,W 112th Ave & Vrain St,39.899835,-105.046329,112,West 112th Avenue
204,10097,SA,1,59.9,0.2,14th St & Walnut St (NB) Alght Stop,40.017065,-105.2768,204,Table Mesa / Moorhead / North 19th
208,10097,SA,1,60.0,0.0,14th St & Walnut St (NB) Alght Stop,40.017065,-105.2768,208,Iris / Valmont
225,10097,SA,1,31.2,6.1,14th St & Walnut St (NB) Alght Stop,40.017065,-105.2768,225,Boulder / Lafayette via Baseline
JUMP,10097,SA,1,30.4,2.0,14th St & Walnut St (NB) Alght Stop,40.017065,-105.2768,JUMP,Boulder / Lafayette via Arapahoe
10,10099,SA,1,30.2,0.7,E 11th Ave & Boston St,39.732902,-104.880341,10,East 12th Avenue
10,10100,SA,0,29.9,0.4,11th Ave & Boston St,39.732758,-104.880085,10,East 12th Avenue
10,10102,SA,0,29.9,0.4,11th Ave & Dayton St,39.7328,-104.874946,10,East 12th Avenue
10,10103,SA,1,30.2,0.7,11th Ave & Dayton St,39.7329,-104.875945,10,East 12th Avenue
10,10105,SA,0,29.9,0.4,11th Ave & Elmira St,39.7328,-104.872388,10,East 12th Avenue
10,10106,SA,1,30.2,0.7,11th Ave & Elmira St,39.732931,-104.873352,10,East 12th Avenue
10,10108,SA,1,30.2,0.7,11th Ave & Galena St,39.732905,-104.870217,10,East 12th Avenue
10,10109,SA,0,29.9,0.4,11th Ave & Galena St,39.732805,-104.869976,10,East 12th Avenue
10,10112,SA,0,29.9,0.4,11th Ave & Geneva St,39.732808,-104.867715,10,East 12th Avenue
10,10115,SA,1,30.2,0.7,11th Ave & Hanover St,39.732901,-104.868165,10,East 12th Avenue
10,10116,SA,0,29.9,0.4,11th Ave & Havana St,39.732808,-104.865539,10,East 12th Avenue
10,10117,SA,1,30.2,0.7,11th Ave & Havana St,39.732905,-104.865599,10,East 12th Avenue
10,10118,SA,0,29.9,0.5,11th Ave & Jamaica St,39.732821,-104.862129,10,East 12th Avenue
10,10119,SA,1,30.2,0.7,11th Ave & Jamaica St,39.732921,-104.862899,10,East 12th Avenue
10,10120,SA,0,29.9,0.5,11th Ave & Joliet St,39.732828,-104.860061,10,East 12th Avenue
10,10121,SA,1,30.2,0.7,11th Ave & Joliet St,39.732928,-104.860536,10,East 12th Avenue
10,10122,SA,1,30.2,0.7,11th Ave & Lansing St,39.73294,-104.856945,10,East 12th Avenue
10,10123,SA,0,29.9,0.5,11th Ave & Lima St,39.732851,-104.855621,10,East 12th Avenue
10,10125,SA,0,30.0,0.3,11th Ave & Magnolia St,39.73285,-104.911162,10,East 12th Avenue
10,10126,SA,1,30.2,0.7,11th Ave & Moline St,39.732953,-104.854503,10,East 12th Avenue
10,10127,SA,0,29.9,0.5,11th Ave & Moline St,39.732853,-104.85463,10,East 12th Avenue
10,10128,SA,1,30.1,0.6,11th Ave & Niagara St,39.732922,-104.910869,10,East 12th Avenue
10,10129,SA,0,29.9,0.5,11th Ave & Nome St,39.73286,-104.849883,10,East 12th Avenue
10,10130,SA,1,30.2,0.7,11th Ave & Nome St,39.732965,-104.851321,10,East 12th Avenue
10,10132,SA,0,30.0,0.3,11th Ave & Oneida St,39.732858,-104.908263,10,East 12th Avenue
10,10133,SA,1,30.1,0.6,11th Ave & Oneida St,39.732925,-104.907762,10,East 12th Avenue
10,10136,SA,1,30.2,0.7,11th Ave & Peoria St,39.733022,-104.847893,10,East 12th Avenue
10,10137,SA,0,30.0,0.3,11th Ave & Pontiac St,39.732853,-104.905209,10,East 12th Avenue
10,10139,SA,0,30.0,0.3,11th Ave & Quebec St,39.732809,-104.902489,10,East 12th Avenue
73,10139,SA,1,30.9,5.3,11th Ave & Quebec St,39.732809,-104.902489,73,Quebec Street
10,10140,SA,1,30.2,0.7,11th Ave & Quebec St,39.732932,-104.903873,10,East 12th Avenue
10,10141,SA,1,30.2,0.7,11th Ave & Rosemary St,39.732923,-104.900433,10,East 12th Avenue
73,10141,SA,0,31.0,5.5,11th Ave & Rosemary St,39.732923,-104.900433,73,Quebec Street
10,10142,SA,0,29.9,0.4,11th Ave & Rosemary St,39.732821,-104.899552,10,East 12th Avenue
73,10142,SA,1,30.9,5.3,11th Ave & Rosemary St,39.732821,-104.899552,73,Quebec Street
12,10154,SA,1,37.1,12.5,120th Ave & Grant St,39.913958,-104.984694,12,Downing Street
12,10155,SA,0,38.2,13.4,120th Ave & Grant St,39.914219,-104.985746,12,Downing Street
12,10158,SA,0,38.2,13.4,E 120th Ave & Washington St,39.914235,-104.979087,12,Downing Street
10,10159,SA,0,30.6,3.9,12th Ave & Broadway,39.735237,-104.986919,10,East 12th Avenue
10,10160,SA,0,30.6,3.9,12th Ave & Corona St,39.7351,-104.973595,10,East 12th Avenue
10,10161,SA,1,30.1,0.7,12th Ave & Downing St,39.73519,-104.973475,10,East 12th Avenue
10,10162,SA,0,30.6,3.9,12th Ave & Elizabeth St,39.735096,-104.956006,10,East 12th Avenue
10,10163,SA,1,30.1,0.7,12th Ave & Elizabeth St,39.735186,-104.956081,10,East 12th Avenue
10,10164,SA,0,30.6,3.9,12th Ave & Emerson St,39.735096,-104.976159,10,East 12th Avenue
10,10166,SA,0,30.6,3.9,12th Ave & Fillmore St,39.735078,-104.952621,10,East 12th Avenue
10,10167,SA,1,30.1,0.7,12th Ave & Fillmore St,39.735169,-104.95261,10,East 12th Avenue
10,10168,SA,0,30.6,3.9,12th Ave & Grant St,39.735227,-104.983287,10,East 12th Avenue
10,10169,SA,1,30.1,0.7,12th Ave & Grant St,39.735332,-104.984014,10,East 12th Avenue
10,10170,SA,0,30.6,3.9,12th Ave & Humboldt St,39.735125,-104.968576,10,East 12th Avenue
10,10171,SA,1,30.1,0.7,12th Ave & Humboldt St,39.73522,-104.968754,10,East 12th Avenue
10,10172,SA,0,30.6,3.9,12th Ave & Jackson St,39.735051,-104.943198,10,East 12th Avenue
10,10174,SA,1,30.1,0.7,12th Ave & Josephine St,39.735086,-104.959123,10,East 12th Avenue
10,10175,SA,0,30.6,3.9,12th Ave & Madison St,39.735067,-104.945899,10,East 12th Avenue
10,10176,SA,1,30.1,0.7,12th Ave & Madison St,39.735165,-104.946462,10,East 12th Avenue
10,10177,SA,0,30.6,3.9,12th Ave & Pennsylvania St,39.735102,-104.980599,10,East 12th Avenue
10,10178,SA,1,30.1,0.7,12th Ave & Pennsylvania St,39.735182,-104.981386,10,East 12th Avenue
10,10179,SA,0,30.6,3.9,12th Ave & Race St,39.735005,-104.963223,10,East 12th Avenue
10,10180,SA,1,30.1,0.7,12th Ave & Race St,39.735091,-104.963763,10,East 12th Avenue
10,10181,SA,0,30.6,3.9,12th Ave & Steele St,39.735064,-104.948897,10,East 12th Avenue
10,10182,SA,1,30.1,0.7,12th Ave & Steele St,39.735188,-104.949863,10,East 12th Avenue
10,10184,SA,0,30.6,3.9,12th Ave & Vine St,39.734998,-104.961976,10,East 12th Avenue
10,10185,SA,1,30.1,0.7,12th Ave & Vine St,39.735088,-104.962561,10,East 12th Avenue
10,10186,SA,0,30.6,3.9,12th Ave & Washington St,39.735093,-104.97837,10,East 12th Avenue
10,10187,SA,1,30.1,0.7,12th Ave & Washington St,39.735237,-104.97904,10,East 12th Avenue
10,10188,SA,0,30.6,3.9,12th Ave & Gilpin St,39.736056,-104.966469,10,East 12th Avenue
10,10189,SA,1,30.1,0.7,12th Ave & High St,39.736106,-104.966278,10,East 12th Avenue
10,10190,SA,0,30.7,3.9,12th Ave & York St,39.734996,-104.95948,10,East 12th Avenue
15,10197,SA,0,29.4,1.8,13th Ave & 13th Cir,39.735912,-104.818783,15,East Colfax Avenue
52,10201,SA,0,31.4,5.9,W 13th Ave & Broadway,39.736911,-104.98786,52,W 52nd Avenue / South Bannock
9,10201,SA,1,60.0,0.0,W 13th Ave & Broadway,39.736911,-104.98786,9,West 10th Avenue
9,10204,SA,1,60.0,0.0,W 13th Ave & Cherokee St,39.736925,-104.992051,9,West 10th Avenue
10,10205,SA,1,30.1,0.8,13th Ave & Colorado Blvd,39.73679,-104.941204,10,East 12th Avenue
15,10207,SA,0,29.4,1.8,13th Ave & Eagle St,39.735482,-104.815564,15,East Colfax Avenue
15,10208,SA,1,30.5,1.9,13th Ave & Eagle St,39.735604,-104.816316,15,East Colfax Avenue
9,10209,SA,1,60.0,0.0,W 13th Ave & Elati St,39.736913,-104.994377,9,West 10th Avenue
15,10210,SA,0,29.4,1.8,13th Ave & Fraser St,39.735476,-104.811966,15,East Colfax Avenue
10,10211,SA,1,30.1,0.8,13th Ave & Garfield St,39.736801,-104.94427,10,East 12th Avenue
15,10212,SA,1,30.5,1.9,13th Ave & Granby St,39.735689,-104.81114,15,East Colfax Avenue
1,10224,SA,1,59.2,2.2,W 14th Ave & Federal Blvd,39.73805,-105.025753,1,West 1st Avenue
9,10228,SA,0,59.8,0.9,W 14th Ave & Galapago St,39.738407,-104.996035,9,West 10th Avenue
1,10230,SA,0,59.9,0.8,W 14th Ave & Irving St,39.739044,-105.028152,1,West 1st Avenue
1,10232,SA,0,59.9,0.8,W 14th Ave & Java Ct,39.738427,-105.030752,1,West 1st Avenue
9,10235,SA,1,60.0,0.4,W 14th Ave & Newland St,39.738535,-105.069949,9,West 10th Avenue
9,10236,SA,0,60.0,0.0,W 14th Ave & Newland St,39.738444,-105.069056,9,West 10th Avenue
9,10238,SA,0,60.0,0.0,W 14th Ave & Pierce St,39.738443,-105.071531,9,West 10th Avenue
JUMP,10252,SA,0,30.2,1.8,15th St & Canyon Blvd,40.016072,-105.275215,JUMP,Boulder / Lafayette via Arapahoe
28,10254,SA,1,64.0,10.8,15th St & Central St,39.757844,-105.010929,28,28th Avenue
32,10272,SA,1,60.9,3.1,Tejon St & W 31st Ave,39.761142,-105.011056,32,West 32nd Avenue / City Park
44,10272,SA,1,57.8,7.4,Tejon St & W 31st Ave,39.761142,-105.011056,44,44th Avenue
32,10273,SA,0,60.2,1.2,16th St & Boulder St,39.758852,-105.010098,32,West 32nd Avenue / City Park
44,10273,SA,0,59.5,2.6,16th St & Boulder St,39.758852,-105.010098,44,44th Avenue
20,10277,SA,0,34.2,10.2,17th Ave & Broadway,39.743228,-104.987267,20,20th Avenue
20,10280,SA,0,34.2,10.2,17th Ave & Clarkson St,39.743193,-104.977204,20,20th Avenue
20,10281,SA,0,34.2,10.2,17th Ave & Cook St,39.743684,-104.947424,20,20th Avenue
20,10284,SA,0,34.2,10.2,E 17th Ave & The Esplanade,39.743726,-104.956224,20,20th Avenue
20,10285,SA,1,33.4,9.2,17th Ave & Esplanade St,39.743882,-104.956448,20,20th Avenue
20,10288,SA,0,34.2,10.2,17th Ave & Fillmore St,39.743715,-104.953279,20,20th Avenue
20,10289,SA,1,33.4,9.2,17th Ave & Fillmore St,39.743905,-104.95435,20,20th Avenue
20,10290,SA,0,34.2,10.2,17th Ave & Franklin St,39.743166,-104.968186,20,20th Avenue
20,10291,SA,0,34.2,10.2,17th Ave & Garfield St,39.743681,-104.943681,20,20th Avenue
20,10292,SA,1,33.4,9.2,17th Ave & Garfield St,39.743835,-104.944028,20,20th Avenue
20,10294,SA,0,34.2,10.2,17th Ave & Gaylord St,39.743159,-104.961209,20,20th Avenue
20,10298,SA,1,33.4,9.2,17th Ave & Harrison St,39.743831,-104.941757,20,20th Avenue
20,10306,SA,0,34.2,10.2,17th Ave & Lafayette St,39.743175,-104.970624,20,20th Avenue
20,10307,SA,0,34.2,10.2,17th Ave & Logan St,39.743198,-104.98209,20,20th Avenue
20,10308,SA,1,33.4,9.2,17th Ave & Madison St,39.743839,-104.946356,20,20th Avenue
20,10314,SA,0,34.2,10.2,E 17th Ave & Ogden St,39.743198,-104.974186,20,20th Avenue
20,10315,SA,0,34.2,10.2,17th Ave & Pearl St,39.743198,-104.979407,20,20th Avenue
20,10320,SA,0,34.2,10.2,17th Ave & Race St,39.743153,-104.963147,20,20th Avenue
20,10322,SA,0,34.2,10.2,17th Ave & Sherman St,39.743181,-104.984488,20,20th Avenue
20,10323,SA,0,34.2,10.2,17th Ave & Steele St,39.743721,-104.949755,20,20th Avenue
20,10325,SA,1,33.4,9.2,17th Ave & Steele St,39.743856,-104.950366,20,20th Avenue
20,10330,SA,0,34.2,10.2,17th Ave & Williams St,39.743162,-104.965699,20,20th Avenue
20,10335,SA,0,34.2,10.2,E 17th Ave & Josephine St,39.743299,-104.959408,20,20th Avenue
20,10336,SA,1,33.4,9.2,E 18th Ave & Downing St,39.744891,-104.973807,20,20th Avenue
20,10338,SA,1,33.4,9.2,18th Ave & Emerson St,39.7449,-104.976504,20,20th Avenue
20,10339,SA,1,33.4,9.2,18th Ave & Franklin St,39.744875,-104.968741,20,20th Avenue
20,10340,SA,1,33.4,9.2,E 18th Ave & Grant St,39.744926,-104.983651,20,20th Avenue
28,10340,SA,1,63.7,11.2,E 18th Ave & Grant St,39.744926,-104.983651,28,28th Avenue
20,10341,SA,1,33.4,9.2,18th Ave & High St,39.744857,-104.965151,20,20th Avenue
20,10342,SA,1,33.4,9.2,18th Ave & Pennsylvania St,39.744913,-104.981639,20,20th Avenue
20,10343,SA,1,33.4,9.2,E 18th Ave & Sherman St,39.744958,-104.985181,20,20th Avenue
28,10343,SA,1,63.7,11.2,E 18th Ave & Sherman St,39.744958,-104.985181,28,28th Avenue
20,10344,SA,1,33.4,9.2,18th Ave & Vine St,39.744856,-104.962481,20,20th Avenue
20,10345,SA,1,33.4,9.2,18th Ave & Washington St,39.74491,-104.979029,20,20th Avenue
20,10346,SA,1,33.4,9.2,E 18th Ave & York St,39.744846,-104.960352,20,20th Avenue
28,10354,SA,0,64.0,11.2,19th Ave & Broadway,39.746131,-104.986787,28,28th Avenue
28,10357,SA,0,64.0,11.2,19th Ave & Grant St,39.746128,-104.983247,28,28th Avenue
28,10359,SA,0,64.1,11.3,19th Ave & Pearl St,39.746135,-104.980028,28,28th Avenue
28,10360,SA,0,64.0,11.2,19th Ave & Sherman St,39.746124,-104.984501,28,28th Avenue
204,10363,SA,1,59.9,0.2,19th St & Balsam Ave,40.026155,-105.272695,204,Table Mesa / Moorhead / North 19th
204,10364,SA,1,59.9,0.2,20th St & Bluff St,40.02378,-105.271039,204,Table Mesa / Moorhead / North 19th
204,10365,SA,0,59.9,0.2,19th St & Avocado Rd,40.056164,-105.272643,204,Table Mesa / Moorhead / North 19th
204,10366,SA,1,60.0,0.2,19th St & Avocado Rd,40.055499,-105.272821,204,Table Mesa / Moorhead / North 19th
204,10367,SA,0,60.0,0.0,19th St & Balsam Ave,40.027895,-105.272534,204,Table Mesa / Moorhead / North 19th
204,10368,SA,1,60.0,0.0,19th St & Elder Ave,40.030185,-105.272721,204,Table Mesa / Moorhead / North 19th
204,10369,SA,0,60.0,0.0,19th St & Elder Ave,40.030053,-105.27257,204,Table Mesa / Moorhead / North 19th
204,10372,SA,0,60.0,0.0,19th St & Floral Dr,40.031812,-105.272579,204,Table Mesa / Moorhead / North 19th
16,10373,SA,1,58.5,2.4,19th St & N Jackson St,39.750528,-105.214651,16,West Colfax Avenue
16L,10373,SA,1,33.0,8.2,19th St & N Jackson St,39.750528,-105.214651,16L,West Colfax Limited
204,10374,SA,1,60.0,0.0,19th St & Forest Ave,40.032302,-105.272726,204,Table Mesa / Moorhead / North 19th
204,10375,SA,0,60.0,0.0,19th St & Glenwood Dr,40.033385,-105.272603,204,Table Mesa / Moorhead / North 19th
204,10379,SA,0,60.0,0.0,19th St & Joslin Ct,40.037437,-105.272633,204,Table Mesa / Moorhead / North 19th
204,10381,SA,0,59.9,0.2,19th St & Kalmia Ave,40.040319,-105.272678,204,Table Mesa / Moorhead / North 19th
204,10384,SA,0,59.9,0.2,19th St & Norwood Ave,40.044277,-105.272691,204,Table Mesa / Moorhead / North 19th
204,10385,SA,1,60.0,0.2,19th St & Norwood Ave,40.043772,-105.272825,204,Table Mesa / Moorhead / North 19th
204,10386,SA,1,59.9,0.2,20th St & Pine St,40.021746,-105.270335,204,Table Mesa / Moorhead / North 19th
204,10387,SA,1,60.0,0.2,19th St & Poplar Ave,40.046769,-105.272831,204,Table Mesa / Moorhead / North 19th
204,10388,SA,0,59.9,0.2,19th St & Poplar Ave,40.047039,-105.272685,204,Table Mesa / Moorhead / North 19th
204,10389,SA,0,59.9,0.2,19th St & Riverside Ave,40.050373,-105.272684,204,Table Mesa / Moorhead / North 19th
204,10390,SA,1,60.0,0.2,19th St & Redwood Ave,40.048573,-105.27285,204,Table Mesa / Moorhead / North 19th
204,10391,SA,1,60.0,0.2,19th St & Upland Ave,40.052543,-105.27283,204,Table Mesa / Moorhead / North 19th
204,10392,SA,0,59.9,0.2,19th St & Upland Ave,40.052613,-105.272691,204,Table Mesa / Moorhead / North 19th
204,10393,SA,1,60.0,0.2,19th St & Yarmouth Ave,40.057985,-105.272817,204,Table Mesa / Moorhead / North 19th
1,10398,SA,1,59.0,2.9,W 1st Ave & Bannock St,39.718454,-104.991166,1,West 1st Avenue
1,10399,SA,0,59.9,1.1,W 1st Ave & Bannock St,39.718315,-104.991021,1,West 1st Avenue
1,10402,SA,0,60.0,1.2,1st Ave & Broadway,39.7183,-104.98711,1,West 1st Avenue
1,10403,SA,1,59.0,2.9,W 1st Ave & Broadway,39.718409,-104.987897,1,West 1st Avenue
1,10406,SA,0,59.9,0.5,W 1st Ave & Chase St,39.718518,-105.056239,1,West 1st Avenue
1,10407,SA,1,59.3,2.5,W 1st Ave & Chase St,39.718612,-105.0575,1,West 1st Avenue
1,10413,SA,0,59.8,1.4,1st Ave & Fillmore Plaza,39.717983,-104.953658,1,West 1st Avenue
3,10413,SA,0,58.5,8.5,1st Ave & Fillmore Plaza,39.717983,-104.953658,3,Alameda Avenue
83L,10413,SA,0,31.9,7.6,1st Ave & Fillmore Plaza,39.717983,-104.953658,83L,Cherry Creek / Parker Rd Limited
1,10422,SA,0,59.9,0.5,W 1st Ave & Fenton St,39.718495,-105.060519,1,West 1st Avenue
1,10423,SA,1,59.3,2.5,W 1st Ave & Fenton St,39.718608,-105.060474,1,West 1st Avenue
1,10429,SA,0,60.0,1.2,1st Ave & Gilpin St,39.718127,-104.966164,1,West 1st Avenue
1,10430,SA,1,59.0,2.9,1st Ave & Gilpin St,39.718382,-104.967193,1,West 1st Avenue
1,10433,SA,0,60.0,1.2,1st Ave & Grant St,39.718279,-104.983456,1,West 1st Avenue
1,10436,SA,0,59.9,0.5,W 1st Ave & Harlan St,39.718486,-105.062284,1,West 1st Avenue
1,10437,SA,1,59.3,2.5,W 1st Ave & Harlan St,39.718635,-105.062317,1,West 1st Avenue
1,10443,SA,1,59.3,2.5,W 1st Ave & Ingalls St,39.718582,-105.064461,1,West 1st Avenue
1,10445,SA,0,59.9,0.5,W 1st Ave & Jay St,39.718466,-105.064688,1,West 1st Avenue
1,10447,SA,1,59.3,2.5,W 1st Ave & Knox Ct,39.718214,-105.032991,1,West 1st Avenue
1,10448,SA,0,60.0,1.2,E 1st Ave & Lafayette St,39.718137,-104.970302,1,West 1st Avenue
83L,10448,SA,0,31.9,7.6,E 1st Ave & Lafayette St,39.718137,-104.970302,83L,Cherry Creek / Parker Rd Limited
1,10449,SA,0,59.9,0.5,W 1st Ave & Lamar St,39.718458,-105.067013,1,West 1st Avenue
1,10450,SA,1,59.3,2.5,W 1st Ave & Lamar St,39.718554,-105.06743,1,West 1st Avenue
1,10451,SA,1,59.0,2.9,1st Ave & Lincoln St,39.718403,-104.986632,1,West 1st Avenue
1,10457,SA,0,60.0,0.6,W 1st Ave & Meade St,39.718089,-105.035739,1,West 1st Avenue
1,10458,SA,1,59.2,2.5,W 1st Ave & Meade St,39.718205,-105.036629,1,West 1st Avenue
1,10459,SA,0,59.9,0.5,W 1st Ave & Newland St,39.718451,-105.069303,1,West 1st Avenue
1,10460,SA,1,59.3,2.5,W 1st Ave & Newland St,39.718558,-105.07011,1,West 1st Avenue
1,10464,SA,0,60.0,1.2,1st Ave & Pennsylvania St,39.718281,-104.981169,1,West 1st Avenue
1,10465,SA,1,59.0,2.9,1st Ave & Pennsylvania St,39.718374,-104.981687,1,West 1st Avenue
1,10466,SA,0,60.0,0.6,W 1st Ave & Perry St,39.718088,-105.039187,1,West 1st Avenue
1,10467,SA,1,59.2,2.5,W 1st Ave & Perry St,39.718234,-105.040255,1,West 1st Avenue
1,10469,SA,1,59.3,2.5,W 1st Ave & Quay St,39.718545,-105.072863,1,West 1st Avenue
1,10470,SA,1,58.9,2.9,1st Ave & Detroit St,39.71827,-104.956777,1,West 1st Avenue
46,10470,SA,1,30.0,0.0,1st Ave & Detroit St,39.71827,-104.956777,46,South Dahlia
1,10471,SA,0,60.0,0.6,W 1st Ave & Sheridan Blvd,39.718158,-105.052736,1,West 1st Avenue
1,10472,SA,1,59.3,2.5,W 1st Ave & Sheridan Blvd,39.71866,-105.053797,1,West 1st Avenue
1,10476,SA,0,60.0,0.6,W 1st Ave & Stuart St,39.718084,-105.042945,1,West 1st Avenue
1,10477,SA,1,59.2,2.5,W 1st Ave & Stuart St,39.718216,-105.043755,1,West 1st Avenue
1,10478,SA,0,59.9,0.5,W 1st Ave & Teller St,39.718412,-105.076463,1,West 1st Avenue
1,10480,SA,0,60.0,1.2,E 1st Ave & University Blvd,39.717998,-104.958053,1,West 1st Avenue
3,10480,SA,0,58.6,8.5,E 1st Ave & University Blvd,39.717998,-104.958053,3,Alameda Avenue
83L,10480,SA,0,31.9,7.6,E 1st Ave & University Blvd,39.717998,-104.958053,83L,Cherry Creek / Parker Rd Limited
1,10481,SA,1,59.0,2.9,E 1st Ave & University Blvd.,39.718394,-104.960082,1,West 1st Avenue
83L,10481,SA,1,32.0,7.6,E 1st Ave & University Blvd.,39.718394,-104.960082,83L,Cherry Creek / Parker Rd Limited
1,10482,SA,1,59.0,2.9,1st Ave & Vine St,39.718381,-104.962317,1,West 1st Avenue
1,10483,SA,0,60.0,1.2,1st Ave & Vine St,39.718137,-104.961797,1,West 1st Avenue
1,10484,SA,0,60.0,0.6,W 1st Ave & Vrain St,39.718102,-105.045417,1,West 1st Avenue
1,10485,SA,1,59.2,2.5,W 1st Ave & Vrain St,39.718239,-105.046051,1,West 1st Avenue
1,10488,SA,1,59.0,2.9,1st Ave & Washington St,39.718365,-104.979503,1,West 1st Avenue
1,10489,SA,0,60.0,1.2,1st Ave & Washington St,39.718288,-104.978513,1,West 1st Avenue
1,10490,SA,1,59.2,2.5,W 1st Ave & Wolff St,39.718255,-105.048491,1,West 1st Avenue
1,10491,SA,0,60.0,0.6,W 1st Ave & Wolff St,39.718123,-105.047607,1,West 1st Avenue
1,10492,SA,0,60.0,0.6,W 1st Ave & Yates St,39.718141,-105.050058,1,West 1st Avenue
1,10493,SA,1,59.2,2.5,W 1st Ave & Yates St,39.718269,-105.050425,1,West 1st Avenue
28,10526,SA,1,61.8,8.8,E 20th Ave & Logan St,39.747607,-104.981942,28,28th Avenue
52,10550,SA,1,36.4,13.1,20th St & Larimer St,39.753395,-104.993005,52,W 52nd Avenue / South Bannock
204,10552,SA,0,60.0,0.0,20th St & Mapleton Ave,40.023237,-105.270697,204,Table Mesa / Moorhead / North 19th
204,10553,SA,0,60.0,0.0,20th St & Mesa Dr,40.024791,-105.271299,204,Table Mesa / Moorhead / North 19th
204,10554,SA,0,60.0,0.0,20th St & Pine St,40.02233,-105.270394,204,Table Mesa / Moorhead / North 19th
28,10556,SA,1,61.9,8.8,E 22nd Ave & Downing St,39.749563,-104.97364,28,28th Avenue
28,10557,SA,0,64.1,11.3,22nd Ave & Clarkson St,39.749418,-104.977186,28,28th Avenue
28,10558,SA,1,61.8,8.8,E 22nd Ave & Ogden St,39.749566,-104.97513,28,28th Avenue
20,10568,SA,1,33.4,9.2,23rd Ave & Albion St,39.751095,-104.939679,20,20th Avenue
20,10569,SA,0,34.2,10.2,23rd Ave & Birch St,39.750974,-104.93589,20,20th Avenue
20,10570,SA,1,33.4,9.2,23rd Ave & Birch St,39.75111,-104.936454,20,20th Avenue
28,10571,SA,1,64.0,10.8,W 23rd Ave & Clay St,39.751248,-105.020919,28,28th Avenue
20,10574,SA,0,34.2,10.2,23rd Ave & Dexter St,39.750989,-104.932565,20,20th Avenue
20,10575,SA,1,33.4,9.2,23rd Ave & Dexter St,39.751103,-104.933099,20,20th Avenue
20,10576,SA,0,34.2,10.2,23rd Ave & Elm St,39.750995,-104.929011,20,20th Avenue
20,10577,SA,1,33.4,9.2,23rd Ave & Elm St,39.75111,-104.929883,20,20th Avenue
327,10578,SA,0,60.0,0.0,23rd Ave & Emery St,40.199597,-105.100845,327,Northside Loop Counterclockwise
326,10579,SA,0,60.0,0.0,23rd Ave & Emery St,40.19947,-105.099397,326,Northside Loop Clockwise
28,10580,SA,1,64.1,10.8,W 23rd Ave & Federal Blvd,39.751266,-105.025608,28,28th Avenue
327,10581,SA,0,59.9,0.7,23rd Ave & Gay St,40.199577,-105.110822,327,Northside Loop Counterclockwise
20,10582,SA,1,33.4,9.2,23rd Ave & Glencoe St,39.751124,-104.926096,20,20th Avenue
20,10583,SA,0,34.2,10.2,23rd Ave & Glencoe St,39.751003,-104.925255,20,20th Avenue
20,10585,SA,0,34.2,10.2,23rd Ave & Holly St,39.751001,-104.921986,20,20th Avenue
20,10586,SA,1,33.4,9.2,23rd Ave & Holly St,39.751132,-104.922766,20,20th Avenue
28,10587,SA,0,61.6,9.0,W 23rd Ave & Hooker St,39.751142,-105.028145,28,28th Avenue
28,10588,SA,1,64.0,10.9,W 23rd Ave & Hooker St,39.75126,-105.028692,28,28th Avenue
20,10591,SA,1,33.4,9.2,23rd Ave & Jasmine St,39.751132,-104.919082,20,20th Avenue
20,10592,SA,0,34.2,10.2,23rd Ave & Jasmine St,39.751013,-104.918223,20,20th Avenue
28,10593,SA,0,61.6,9.0,W 23rd Ave & Julian St,39.751147,-105.031268,28,28th Avenue
28,10594,SA,1,64.0,10.9,W 23rd Ave & Julian St,39.751265,-105.031838,28,28th Avenue
20,10595,SA,0,34.2,10.2,23rd Ave & Leyden St,39.75102,-104.914753,20,20th Avenue
20,10596,SA,1,33.4,9.2,23rd Ave & Leyden St,39.751137,-104.915441,20,20th Avenue
28,10597,SA,0,61.6,9.0,W 23rd Ave & Lowell Blvd,39.751141,-105.034336,28,28th Avenue
20,10599,SA,0,34.2,10.1,E 23rd Ave & Monaco Pkwy,39.750985,-104.912538,20,20th Avenue
20,10600,SA,1,33.4,9.2,E 23rd Ave & Monaco Pkwy,39.751109,-104.912696,20,20th Avenue
20,10601,SA,0,34.2,10.1,23rd Ave & Oneida St,39.750962,-104.908326,20,20th Avenue
20,10602,SA,1,33.4,9.2,23rd Ave & Oneida St,39.751055,-104.908029,20,20th Avenue
20,10605,SA,0,34.2,10.1,23rd Ave & Pontiac St,39.750957,-104.905505,20,20th Avenue
20,10606,SA,1,33.4,9.2,23rd Ave & Pontiac St,39.751058,-104.906119,20,20th Avenue
326,10607,SA,0,60.0,0.0,23rd Ave & Pratt St,40.19947,-105.106607,326,Northside Loop Clockwise
327,10608,SA,0,59.9,0.7,23rd Ave & Pratt St,40.199581,-105.107508,327,Northside Loop Counterclockwise
20,10609,SA,1,33.4,9.2,23rd Ave & Quebec St,39.751062,-104.903994,20,20th Avenue
28,10624,SA,0,61.6,9.0,W 26th Ave & Alcott St,39.754759,-105.017544,28,28th Avenue
28,10625,SA,1,64.0,10.8,W 26th Ave & Alcott St,39.754876,-105.017536,28,28th Avenue
28,10627,SA,0,59.2,2.0,W 26th Ave & Allison St,39.754763,-105.085807,28,28th Avenue
28,10628,SA,1,60.0,3.2,W 26th Ave & Allison St,39.754846,-105.086347,28,28th Avenue
28,10629,SA,0,59.2,2.0,W 26th Ave & Ames St,39.75477,-105.054181,28,28th Avenue
28,10630,SA,0,59.2,2.0,W 26th Ave & Benton St,39.754759,-105.05584,28,28th Avenue
28,10631,SA,0,59.2,2.0,W 26th Ave & Brentwood St,39.754755,-105.089818,28,28th Avenue
28,10632,SA,1,60.0,3.2,W 26th Ave & Carr St,39.754843,-105.090183,28,28th Avenue
28,10633,SA,1,60.0,3.2,W 26th Ave & Chase St,39.754866,-105.05688,28,28th Avenue
28,10634,SA,0,61.6,9.0,W 26th Ave & Clay St,39.754763,-105.020174,28,28th Avenue
28,10636,SA,0,59.2,2.0,W 26th Ave & Dover Ct,39.754748,-105.093572,28,28th Avenue
28,10637,SA,1,60.0,3.2,W 26th Ave & Dover Ct,39.754838,-105.093785,28,28th Avenue
28,10639,SA,0,59.2,2.0,W 26th Ave & Estes St,39.754707,-105.096787,28,28th Avenue
28,10642,SA,0,59.2,2.0,W 26th Ave & Fenton St,39.754754,-105.059709,28,28th Avenue
28,10643,SA,1,60.0,3.2,W 26th Ave & Fenton St,39.754864,-105.059851,28,28th Avenue
28,10644,SA,1,60.0,3.2,W 26th Ave & Francis Pl,39.754808,-105.097365,28,28th Avenue
28,10645,SA,0,59.2,2.0,W 26th Ave & Garrison St,39.754703,-105.099793,28,28th Avenue
28,10646,SA,1,60.0,3.2,W 26th Ave & Garrison St,39.754792,-105.100888,28,28th Avenue
28,10648,SA,0,59.2,2.0,W 26th Ave & Hoyt St,39.754703,-105.103727,28,28th Avenue
28,10649,SA,1,60.0,3.2,W 26th Ave & Hoyt St,39.754788,-105.104072,28,28th Avenue
28,10650,SA,0,59.2,2.0,W 26th Ave & Ingalls St,39.754747,-105.06338,28,28th Avenue
28,10651,SA,1,60.0,3.2,W 26th Ave & Ingalls St,39.754862,-105.063614,28,28th Avenue
28,10652,SA,0,59.2,2.0,W 26th Ave & Iris St,39.754684,-105.106798,28,28th Avenue
28,10653,SA,1,60.0,3.2,W 26th Ave & Iris St,39.754772,-105.106788,28,28th Avenue
28,10656,SA,0,59.2,2.0,W 26th Ave & Kendall St,39.75474,-105.065951,28,28th Avenue
28,10657,SA,1,60.0,3.2,W 26th Ave & Kendall St,39.754852,-105.066411,28,28th Avenue
28,10659,SA,0,59.2,2.0,W 26th Ave & Kipling St,39.754647,-105.109084,28,28th Avenue
28,10660,SA,1,60.0,3.2,W 26th Ave & Kipling St,39.754776,-105.110033,28,28th Avenue
28,10661,SA,0,59.2,2.0,W 26th Ave & Lamar St,39.754752,-105.067753,28,28th Avenue
28,10663,SA,0,59.2,2.0,W 26th Ave & Moore St,39.754617,-105.115115,28,28th Avenue
28,10664,SA,1,59.9,3.2,W 26th Ave & Moore St,39.754721,-105.115675,28,28th Avenue
28,10665,SA,1,60.0,3.2,W 26th Ave & Newland St,39.754858,-105.069525,28,28th Avenue
28,10666,SA,1,64.0,10.9,W 26th Ave & Newton St,39.754906,-105.037496,28,28th Avenue
28,10667,SA,0,61.6,9.0,W 26th Ave & Newton St,39.754818,-105.037134,28,28th Avenue
28,10668,SA,0,59.2,2.0,W 26th Ave & Oak St,39.754615,-105.118807,28,28th Avenue
28,10669,SA,1,59.9,3.2,W 26th Ave & Oak St,39.754723,-105.118717,28,28th Avenue
28,10670,SA,1,59.9,3.2,W 26th Ave & Paramount Pkwy,39.754734,-105.113916,28,28th Avenue
28,10671,SA,0,59.2,2.0,W 26th Ave & Pierce St,39.754749,-105.071593,28,28th Avenue
28,10672,SA,1,60.0,3.2,W 26th Ave & Quay St,39.754882,-105.072767,28,28th Avenue
28,10673,SA,0,59.2,2.0,W 26th Ave & Parfet St,39.754605,-105.122539,28,28th Avenue
28,10674,SA,1,59.9,3.2,W 26th Ave & Quail St,39.754688,-105.123299,28,28th Avenue
28,10675,SA,0,61.6,9.0,W 26th Ave & Quitman St,39.754823,-105.040065,28,28th Avenue
28,10676,SA,1,64.0,10.9,W 26th Ave & Quitman St,39.754909,-105.040888,28,28th Avenue
28,10677,SA,0,59.2,2.0,W 26th Ave & Robb St,39.754599,-105.126042,28,28th Avenue
28,10678,SA,1,59.9,3.2,W 26th Ave & Robb St,39.754679,-105.125747,28,28th Avenue
28,10679,SA,1,60.0,3.2,W 26th Ave & Teller St,39.754881,-105.077069,28,28th Avenue
32,10679,SA,1,60.0,0.4,W 26th Ave & Teller St,39.754881,-105.077069,32,West 32nd Avenue / City Park
28,10680,SA,1,60.0,3.2,W 26th Ave & Sheridan Blvd,39.754888,-105.053666,28,28th Avenue
28,10682,SA,0,59.2,2.0,W 26th Ave & Simms St,39.754589,-105.129564,28,28th Avenue
28,10683,SA,1,59.9,3.2,W 26th Ave & Simms St,39.754689,-105.12891,28,28th Avenue
28,10684,SA,0,59.2,2.0,W 26th Ave & Skyline Dr,39.754617,-105.113219,28,28th Avenue
28,10685,SA,1,59.9,3.2,W 26th Ave & Taft St,39.75467,-105.13191,28,28th Avenue
28,10686,SA,0,59.2,2.0,W 26th Ave & Taft Ct,39.754571,-105.131899,28,28th Avenue
28,10688,SA,0,59.2,2.0,W 26th Ave & Teller St,39.754773,-105.076391,28,28th Avenue
28,10689,SA,1,64.0,10.9,W 26th Ave & Tennyson St,39.754912,-105.043861,28,28th Avenue
28,10690,SA,0,61.6,9.0,W 26th Ave & Tennyson St,39.75482,-105.043971,28,28th Avenue
28,10691,SA,1,59.9,3.2,W 26th Ave & Van Gordon St,39.75466,-105.1348,28,28th Avenue
28,10692,SA,0,59.2,2.0,W 26th Ave & Van Gordon St,39.754564,-105.135049,28,28th Avenue
28,10693,SA,1,64.0,10.9,W 26th Ave & Vrain St,39.754905,-105.047255,28,28th Avenue
28,10694,SA,0,59.2,2.0,W 26th Ave & Wadsworth Blvd,39.754751,-105.079771,28,28th Avenue
28,10695,SA,1,60.0,3.2,W 26th Ave & Wadsworth Blvd,39.754892,-105.080362,28,28th Avenue
32,10695,SA,0,60.3,1.2,W 26th Ave & Wadsworth Blvd,39.754892,-105.080362,32,West 32nd Avenue / City Park
32,10695,SA,1,60.0,0.7,W 26th Ave & Wadsworth Blvd,39.754892,-105.080362,32,West 32nd Avenue / City Park
28,10696,SA,0,61.6,9.0,W 26th Ave & Wolff St,39.754816,-105.047921,28,28th Avenue
28,10697,SA,0,59.2,2.0,W 26th Ave & Yarrow St,39.754776,-105.083608,28,28th Avenue
28,10698,SA,1,60.0,3.2,W 26th Ave & Yarrow St,39.754855,-105.08282,28,28th Avenue
28,10699,SA,0,61.6,9.0,W 26th Ave & Yates St,39.754804,-105.050581,28,28th Avenue
28,10702,SA,0,59.2,2.0,W 27th Ave & Youngfield St,39.755433,-105.141737,28,28th Avenue
28,10705,SA,0,60.0,3.2,28th Ave & Columbine St,39.756913,-104.956879,28,28th Avenue
28,10706,SA,1,59.8,3.5,28th Ave & Columbine St,39.757033,-104.95762,28,28th Avenue
28,10708,SA,1,59.8,3.5,28th Ave & Fillmore St,39.757028,-104.953907,28,28th Avenue
28,10709,SA,0,60.0,3.2,28th Ave & Fillmore St,39.756905,-104.953122,28,28th Avenue
28,10714,SA,0,60.0,3.2,28th Ave & Race St,39.756918,-104.964069,28,28th Avenue
28,10715,SA,1,59.8,3.5,28th Ave & Race St,39.757037,-104.963739,28,28th Avenue
28,10716,SA,0,60.0,3.2,28th Ave & Steele St,39.756903,-104.949457,28,28th Avenue
28,10717,SA,1,59.8,3.5,28th Ave & Steele St,39.757021,-104.950448,28,28th Avenue
28,10719,SA,0,60.0,3.2,Williams St & 28th Ave,39.757377,-104.966013,28,28th Avenue
28,10720,SA,0,60.0,3.2,E 28th Ave & York St,39.756912,-104.959472,28,28th Avenue
28,10721,SA,1,59.8,3.5,E 28th Ave & York St,39.757031,-104.960076,28,28th Avenue
205,10723,SA,1,32.3,8.3,28th St & Northbrook Pl,40.045296,-105.258603,205,28th St / Gunbarrel
205,10725,SA,1,32.3,8.3,28th St & Iris Ave,40.035089,-105.25868,205,28th St / Gunbarrel
208,10725,SA,0,60.0,0.0,28th St & Iris Ave,40.035089,-105.25868,208,Iris / Valmont
BOLT,10725,SA,1,60.0,1.0,28th St & Iris Ave,40.035089,-105.25868,BOLT,Boulder / Longmont
205,10726,SA,0,31.2,6.1,28th St & Hwy 119,40.035155,-105.258283,205,28th St / Gunbarrel
208,10726,SA,1,60.0,0.0,28th St & Hwy 119,40.035155,-105.258283,208,Iris / Valmont
BOLT,10726,SA,0,60.0,0.9,28th St & Hwy 119,40.035155,-105.258283,BOLT,Boulder / Longmont
BOUND,10726,SA,0,30.0,0.0,28th St & Hwy 119,40.035155,-105.258283,BOUND,30th Street
BOUND,10726,SA,1,29.6,1.7,28th St & Hwy 119,40.035155,-105.258283,BOUND,30th Street
205,10727,SA,0,31.2,6.1,28th St & Kalmia Ave,40.039811,-105.258309,205,28th St / Gunbarrel
205,10728,SA,1,32.3,8.3,28th St & Kalmia Ave,40.040333,-105.258601,205,28th St / Gunbarrel
205,10729,SA,0,31.2,6.1,28th St & Mapleton Ave,40.025783,-105.258268,205,28th St / Gunbarrel
BOLT,10729,SA,0,59.9,0.4,28th St & Mapleton Ave,40.025783,-105.258268,BOLT,Boulder / Longmont
205,10730,SA,1,32.3,8.3,28th St & Mapleton Ave,40.025122,-105.258489,205,28th St / Gunbarrel
BOLT,10730,SA,1,60.0,0.9,28th St & Mapleton Ave,40.025122,-105.258489,BOLT,Boulder / Longmont
205,10732,SA,1,32.3,8.3,28th St & Walnut St,40.01955,-105.258603,205,28th St / Gunbarrel
BOLT,10732,SA,1,60.0,0.9,28th St & Walnut St,40.01955,-105.258603,BOLT,Boulder / Longmont
205,10734,SA,1,32.3,8.3,28th St & Winding Trail Dr,40.04327,-105.258638,205,28th St / Gunbarrel
28,10735,SA,0,60.0,3.2,29th Ave & Bellaire St,39.758256,-104.936959,28,28th Avenue
28,10736,SA,1,59.8,3.4,29th Ave & Bellaire St,39.758336,-104.937486,28,28th Avenue
28,10741,SA,0,60.0,3.2,29th Ave & Clermont St,39.758268,-104.934719,28,28th Avenue
28,10742,SA,1,59.8,3.4,29th Ave & Clermont St,39.758333,-104.935604,28,28th Avenue
28,10743,SA,0,60.0,3.2,E 29th Ave & Colorado Blvd,39.75825,-104.940044,28,28th Avenue
28,10744,SA,1,59.9,3.6,E 29th Ave & Colorado Blvd,39.758323,-104.941175,28,28th Avenue
28,10745,SA,1,59.8,3.4,29th Ave & Dahlia St,39.758342,-104.932234,28,28th Avenue
28,10747,SA,0,60.0,3.2,29th Ave & Dexter St,39.758272,-104.932514,28,28th Avenue
28,10748,SA,1,59.8,3.4,29th Ave & Elm St,39.758393,-104.929915,28,28th Avenue
28,10749,SA,0,60.0,3.2,29th Ave & Fairfax St,39.758325,-104.92865,28,28th Avenue
28,10754,SA,0,60.0,3.2,29th Ave & Forest St,39.758329,-104.927137,28,28th Avenue
28,10755,SA,1,59.7,3.3,29th Ave & Forest St,39.758403,-104.926387,28,28th Avenue
28,10758,SA,0,60.0,3.2,29th Ave & Hudson St,39.758329,-104.923561,28,28th Avenue
28,10759,SA,1,59.7,3.3,29th Ave & Hudson St,39.758419,-104.923323,28,28th Avenue
28,10764,SA,0,60.0,3.2,29th Ave & Ivanhoe St,39.758332,-104.921654,28,28th Avenue
28,10765,SA,1,59.7,3.3,29th Ave & Ivanhoe St,39.758403,-104.920554,28,28th Avenue
28,10766,SA,0,60.0,3.2,29th Ave & Jackson St,39.758143,-104.942642,28,28th Avenue
28,10767,SA,0,60.0,3.2,29th Ave & Jasmine St,39.758336,-104.918507,28,28th Avenue
28,10768,SA,1,59.7,3.3,29th Ave & Kearney St,39.758409,-104.918205,28,28th Avenue
28,10771,SA,0,60.0,3.2,29th Ave & Krameria St,39.758343,-104.915732,28,28th Avenue
28,10772,SA,1,59.7,3.3,29th Ave & Leyden St,39.758411,-104.915788,28,28th Avenue
28,10775,SA,0,60.0,3.2,29th Ave & Monaco Pkwy,39.758344,-104.912551,28,28th Avenue
28,10776,SA,1,59.7,3.3,E 29th Ave & Monaco Pkwy,39.758423,-104.912705,28,28th Avenue
28,10781,SA,1,59.6,3.3,29th Ave & Oneida St,39.758442,-104.907539,28,28th Avenue
28,10784,SA,1,59.6,3.3,29th Ave & Quebec St,39.758451,-104.903959,28,28th Avenue
28,10789,SA,1,59.8,3.5,29th Ave & Richard Allen Ct,39.758237,-104.942404,28,28th Avenue
28,10795,SA,1,64.0,10.8,W 29th Ave & Vallejo St,39.758465,-105.013755,28,28th Avenue
28,10796,SA,0,61.6,9.0,W 29th Ave & Vallejo St,39.758352,-105.01344,28,28th Avenue
32,10799,SA,1,60.0,0.4,W 29th Ave & Wadsworth Blvd,39.758389,-105.080862,32,West 32nd Avenue / City Park
28,10802,SA,0,61.6,9.0,W 29th Ave & Zuni St,39.758336,-105.015488,28,28th Avenue
121,10811,SA,1,30.0,0.5,30th Ave & Abilene St,39.75702,-104.825884,121,Peoria Street
121,10812,SA,1,30.0,0.5,30th Ave & Billings St,39.757012,-104.823502,121,Peoria Street
121,10813,SA,0,30.8,5.0,30th Ave & Billings St,39.756867,-104.822499,121,Peoria Street
121,10814,SA,0,30.8,5.0,30th Ave & Park Lane Dr,39.757453,-104.835947,121,Peoria Street
121,10815,SA,1,30.0,0.5,30th Ave & Parklane Dr,39.758261,-104.836974,121,Peoria Street
121,10816,SA,0,30.8,5.0,Peoria St & E 30th Ave,39.75885,-104.846744,121,Peoria Street
121,10817,SA,1,30.1,0.6,30th Ave & Sable Blvd,39.757009,-104.819857,121,Peoria Street
121,10818,SA,1,30.0,0.5,30th Ave & Scranton St,39.759009,-104.841739,121,Peoria Street
121,10819,SA,0,30.8,5.0,30th Ave & Scranton St,39.758868,-104.841486,121,Peoria Street
121,10820,SA,0,30.8,5.0,30th Ave & Uvalda St,39.757254,-104.833747,121,Peoria Street
121,10821,SA,1,30.0,0.5,30th Ave & Uvalda St,39.757433,-104.834417,121,Peoria Street
121,10822,SA,1,30.0,0.5,30th Ave & Wheeling St,39.757161,-104.831586,121,Peoria Street
121,10823,SA,0,30.8,5.0,30th Ave & Victor St,39.757063,-104.831661,121,Peoria Street
121,10824,SA,1,30.0,0.5,30th Ave & Xanadu St,39.757014,-104.829409,121,Peoria Street
121,10825,SA,0,30.8,5.0,30th Ave & Xanadu St,39.756906,-104.829559,121,Peoria Street
BOUND,10828,SA,0,30.0,0.0,30th St & E Aurora Ave,40.004183,-105.253023,BOUND,30th Street
BOUND,10829,SA,1,29.6,1.8,30th St & Colorado Ave,40.007074,-105.253371,BOUND,30th Street
BOUND,10833,SA,1,29.6,1.8,30th St & Canyon Blvd,40.015957,-105.253861,BOUND,30th Street
BOUND,10834,SA,0,30.0,0.0,30th St & Arapahoe Ave,40.015299,-105.253563,BOUND,30th Street
BOUND,10835,SA,1,29.6,1.8,30th St & Euclid Ave,40.004536,-105.253212,BOUND,30th Street
BOUND,10836,SA,0,30.0,0.0,30th St & Euclid Ave,40.005541,-105.253023,BOUND,30th Street
208,10838,SA,0,60.0,0.0,30th St & Glenwood Dr,40.032216,-105.253767,208,Iris / Valmont
BOUND,10838,SA,1,29.6,1.7,30th St & Glenwood Dr,40.032216,-105.253767,BOUND,30th Street
BOUND,10840,SA,0,30.0,0.0,30th St & Mapleton Ave,40.027419,-105.253583,BOUND,30th Street
BOUND,10841,SA,1,29.6,1.7,30th St & Bluff St,40.02603,-105.253767,BOUND,30th Street
BOUND,10842,SA,0,30.0,0.0,30th St & Pearl St,40.024917,-105.25356,BOUND,30th Street
BOUND,10843,SA,1,29.6,1.7,30th St & Pearl St,40.021767,-105.253795,BOUND,30th Street
208,10845,SA,1,60.0,0.0,30th St & Valmont Rd,40.029701,-105.253562,208,Iris / Valmont
BOUND,10845,SA,0,30.0,0.0,30th St & Valmont Rd,40.029701,-105.253562,BOUND,30th Street
BOUND,10846,SA,1,29.6,1.7,30th St & Valmont Rd,40.02886,-105.253804,BOUND,30th Street
BOUND,10847,SA,0,30.0,0.0,30th St & Walnut St,40.020728,-105.253517,BOUND,30th Street
BOUND,10848,SA,1,29.6,1.7,30th St & Walnut St,40.019505,-105.253785,BOUND,30th Street
43,10849,SA,0,22.1,7.5,31st Ave & Columbine St,39.761017,-104.957095,43,MLK Blvd / Gateway
43,10850,SA,0,22.0,7.5,31st Ave & Franklin St,39.760683,-104.96787,43,MLK Blvd / Gateway
43,10851,SA,0,22.0,7.5,31st Ave & Marion St,39.760688,-104.971798,43,MLK Blvd / Gateway
43,10852,SA,0,22.0,7.5,31st Ave & Race St,39.760692,-104.963175,43,MLK Blvd / Gateway
43,10853,SA,0,22.0,7.5,31st Ave & Williams St,39.760678,-104.965607,43,MLK Blvd / Gateway
43,10854,SA,0,22.1,7.5,31st Ave & York St,39.760691,-104.959332,43,MLK Blvd / Gateway
32,10858,SA,0,60.2,1.2,Green Ct & W 32nd Ave,39.762636,-105.027771,32,West 32nd Avenue / City Park
32,10859,SA,1,60.9,3.1,W 32nd Ave & Green Ct,39.762605,-105.02739,32,West 32nd Avenue / City Park
32,10869,SA,1,60.9,3.1,W 32nd Ave & Chase St,39.76213,-105.057169,32,West 32nd Avenue / City Park
32,10870,SA,0,60.2,1.2,W 32nd Ave & Chase St,39.762062,-105.056222,32,West 32nd Avenue / City Park
32,10871,SA,0,60.2,1.2,W 32nd Ave & Clay St,39.761972,-105.02077,32,West 32nd Avenue / City Park
32,10872,SA,1,60.9,3.1,W 32nd Ave & Clay St,39.762085,-105.020828,32,West 32nd Avenue / City Park
32,10873,SA,0,60.2,1.2,W 32nd Ave & Eliot St,39.76197,-105.022594,32,West 32nd Avenue / City Park
32,10878,SA,0,60.2,1.2,W 32nd Ave & Federal Blvd,39.761975,-105.024665,32,West 32nd Avenue / City Park
32,10879,SA,1,60.9,3.1,W 32nd Ave & Federal Blvd,39.762082,-105.025725,32,West 32nd Avenue / City Park
32,10880,SA,0,60.2,1.2,W 32nd Ave & Fenton St,39.762062,-105.059901,32,West 32nd Avenue / City Park
32,10883,SA,1,60.9,3.1,W 32nd Ave & Gray St,39.762136,-105.06177,32,West 32nd Avenue / City Park
32,10888,SA,0,60.2,1.2,W 32nd Ave & Ingalls St,39.76206,-105.064523,32,West 32nd Avenue / City Park
32,10889,SA,1,60.9,3.1,W 32nd Ave & Ingalls St,39.762141,-105.063818,32,West 32nd Avenue / City Park
32,10891,SA,0,60.2,1.2,W 32nd Ave & Julian St,39.762102,-105.03197,32,West 32nd Avenue / City Park
32,10892,SA,1,60.9,3.1,W 32nd Ave & Julian St,39.762189,-105.032615,32,West 32nd Avenue / City Park
32,10895,SA,0,60.2,1.2,W 32nd Ave & Lamar St,39.762068,-105.067295,32,West 32nd Avenue / City Park
32,10896,SA,1,60.9,3.1,W 32nd Ave & Marshall St,39.762131,-105.067913,32,West 32nd Avenue / City Park
32,10897,SA,0,60.2,1.2,W 32nd Ave & Meade St,39.762046,-105.035916,32,West 32nd Avenue / City Park
32,10898,SA,1,60.9,3.1,W 32nd Ave & Meade St,39.762186,-105.03605,32,West 32nd Avenue / City Park
32,10903,SA,0,60.2,1.2,W 32nd Ave & Osceola St,39.762087,-105.037794,32,West 32nd Avenue / City Park
32,10904,SA,1,60.9,3.1,W 32nd Ave & Perry St,39.762181,-105.039473,32,West 32nd Avenue / City Park
32,10905,SA,0,60.2,1.2,W 32nd Ave & Pierce St,39.762044,-105.0716,32,West 32nd Avenue / City Park
32,10906,SA,1,60.9,3.1,W 32nd Ave & Pierce St,39.762139,-105.072566,32,West 32nd Avenue / City Park
32,10911,SA,1,61.0,3.1,W 32nd Ave & Sheridan Blvd,39.762138,-105.053605,32,West 32nd Avenue / City Park
32,10912,SA,0,60.2,1.2,W 32nd Ave & Sheridan Blvd,39.762062,-105.052799,32,West 32nd Avenue / City Park
32,10913,SA,0,60.2,1.2,W 32nd Ave & Stuart St,39.762094,-105.04256,32,West 32nd Avenue / City Park
32,10914,SA,1,60.9,3.1,W 32nd Ave & Stuart St,39.762155,-105.043351,32,West 32nd Avenue / City Park
32,10917,SA,1,60.9,3.1,W 32nd Ave & Tejon St,39.762089,-105.011533,32,West 32nd Avenue / City Park
32,10918,SA,0,60.2,1.2,W 32nd Ave & Teller St,39.762066,-105.076102,32,West 32nd Avenue / City Park
32,10919,SA,1,60.9,3.1,W 32nd Ave & Teller St,39.762154,-105.077138,32,West 32nd Avenue / City Park
32,10920,SA,1,61.0,3.1,W 32nd Ave & Webster St,39.76215,-105.080247,32,West 32nd Avenue / City Park
32,10921,SA,0,60.2,1.2,W 32nd Ave & Vrain St,39.762083,-105.046052,32,West 32nd Avenue / City Park
32,10922,SA,1,60.9,3.1,W 32nd Ave & Vrain St,39.762146,-105.047088,32,West 32nd Avenue / City Park
32,10923,SA,0,60.3,1.1,W 32nd Ave & Wadsworth Blvd,39.76203,-105.080746,32,West 32nd Avenue / City Park
32,10927,SA,0,60.2,1.2,W 32nd Ave & Yates St,39.762073,-105.050554,32,West 32nd Avenue / City Park
32,10928,SA,1,60.9,3.1,W 32nd Ave & Yates St,39.762151,-105.050962,32,West 32nd Avenue / City Park
32,10933,SA,0,60.2,1.2,W 32nd Ave & Zuni St,39.761969,-105.015369,32,West 32nd Avenue / City Park
32,10934,SA,1,60.9,3.1,W 32nd Ave & Zuni St,39.762095,-105.016131,32,West 32nd Avenue / City Park
38,10936,SA,0,36.6,12.3,Bruce Randolph Ave & Bellaire St,39.764408,-104.93655,38,38th Avenue
38,10937,SA,1,33.0,9.4,Bruce Randolph Ave & Bellaire St,39.764521,-104.937389,38,38th Avenue
38,10938,SA,0,36.6,12.3,Bruce Randolph Ave & Cherry St,39.764412,-104.934978,38,38th Avenue
38,10939,SA,1,33.0,9.4,Bruce Randolph Ave & Cherry St,39.764527,-104.934953,38,38th Avenue
38,10940,SA,1,33.1,9.3,Bruce Randolph Ave & Clayton St,39.76453,-104.955423,38,38th Avenue
38,10941,SA,0,36.6,12.4,Bruce Randolph Ave & Colorado Blvd,39.764401,-104.940151,38,38th Avenue
38,10942,SA,1,33.1,9.3,Bruce Randolph Ave & Colorado Blvd,39.764514,-104.941295,38,38th Avenue
38,10943,SA,0,36.6,12.3,Bruce Randolph Ave & Elizabeth St,39.764413,-104.955829,38,38th Avenue
38,10944,SA,0,36.6,12.3,Bruce Randolph Ave & Fillmore St,39.764406,-104.953925,38,38th Avenue
38,10945,SA,1,33.1,9.3,Bruce Randolph Ave & Fillmore St,39.764526,-104.954089,38,38th Avenue
38,10946,SA,0,36.6,12.3,34th Ave & Forest St,39.764648,-104.927153,38,38th Avenue
38,10947,SA,1,33.1,9.2,Bruce Randolph Ave & Franklin St,39.764563,-104.968739,38,38th Avenue
38,10948,SA,0,36.6,12.3,Bruce Randolph Ave & Franklin St,39.764443,-104.968644,38,38th Avenue
38,10949,SA,1,33.1,9.3,Bruce Randolph Ave & Jackson St,39.764516,-104.943025,38,38th Avenue
38,10950,SA,0,36.6,12.3,Bruce Randolph Ave & Jackson St,39.764373,-104.94295,38,38th Avenue
38,10951,SA,0,36.6,12.3,Bruce Randolph Ave & Madison St,39.764411,-104.945729,38,38th Avenue
38,10952,SA,0,36.6,12.3,Bruce Randolph Ave & Lafayette St,39.764446,-104.971205,38,38th Avenue
38,10953,SA,1,33.1,9.2,Bruce Randolph Ave & Marion St,39.764565,-104.97235,38,38th Avenue
38,10954,SA,1,33.1,9.3,Bruce Randolph Ave & Monroe St,39.76452,-104.945935,38,38th Avenue
38,10955,SA,1,33.1,9.2,Bruce Randolph Ave & Race St,39.764556,-104.963762,38,38th Avenue
38,10956,SA,0,36.6,12.3,Bruce Randolph Ave & Race St,39.764433,-104.962955,38,38th Avenue
38,10957,SA,0,36.6,12.3,Bruce Randolph Ave & Steele St,39.764415,-104.949584,38,38th Avenue
38,10958,SA,1,33.1,9.3,Bruce Randolph Ave & Steele St,39.764515,-104.950511,38,38th Avenue
38,10959,SA,0,36.6,12.3,Bruce Randolph Ave & Williams St,39.764439,-104.965624,38,38th Avenue
38,10960,SA,1,33.1,9.2,Bruce Randolph Ave & Williams St,39.764556,-104.966272,38,38th Avenue
38,10961,SA,0,36.6,12.3,Bruce Randolph Ave & York St,39.764426,-104.959264,38,38th Avenue
38,10962,SA,1,33.1,9.3,Bruce Randolph Ave & York St,39.764546,-104.960068,38,38th Avenue
38,10963,SA,1,33.0,9.4,35th Ave & Elm St,39.765636,-104.92986,38,38th Avenue
38,10964,SA,0,36.6,12.3,35th Ave & Eudora St,39.765515,-104.930753,38,38th Avenue
38,10965,SA,1,33.0,9.4,35th Ave & Forest St,39.76566,-104.926807,38,38th Avenue
38,10966,SA,0,36.6,12.3,35th Ave & Glencoe St,39.765558,-104.925259,38,38th Avenue
38,10967,SA,0,34.8,12.1,W 38th Ave & Alcott St,39.769202,-105.017733,38,38th Avenue
38,10968,SA,1,34.1,10.5,W 38th Ave & Alcott St,39.769353,-105.017101,38,38th Avenue
38,10969,SA,1,34.0,10.5,W 38th Ave & Allison St,39.769417,-105.086316,38,38th Avenue
38,10970,SA,0,34.9,12.2,W 38th Ave & Allison St,39.769285,-105.085273,38,38th Avenue
38,10972,SA,1,34.1,10.5,W 38th Ave & Benton St,39.76939,-105.056145,38,38th Avenue
38,10973,SA,0,34.9,12.1,W 38th Ave & Benton St,39.769252,-105.055799,38,38th Avenue
38,10974,SA,1,34.0,10.5,W 38th Ave & Brentwood St,39.76944,-105.089886,38,38th Avenue
38,10975,SA,0,34.9,12.2,W 38th Ave & Brentwood St,39.769251,-105.089586,38,38th Avenue
38,10977,SA,0,34.8,12.1,W 38th Ave & Bryant St,39.769207,-105.019232,38,38th Avenue
38,10978,SA,1,34.1,10.5,W 38th Ave & Clay St,39.769355,-105.021026,38,38th Avenue
38,10979,SA,1,34.1,10.5,W 38th Ave & Depew St,39.769396,-105.058291,38,38th Avenue
38,10980,SA,0,34.9,12.1,W 38th Ave & Depew St,39.769263,-105.057317,38,38th Avenue
38,10981,SA,1,34.0,10.5,W 38th Ave & Dover St,39.769408,-105.092321,38,38th Avenue
38,10982,SA,0,34.9,12.2,W 38th Ave & Dudley St,39.769271,-105.092797,38,38th Avenue
38,10984,SA,0,34.9,12.2,W 38th Ave & Estes St,39.769271,-105.097111,38,38th Avenue
38,10985,SA,1,34.0,10.5,W 38th Ave & Everett St,39.76939,-105.097594,38,38th Avenue
38,10987,SA,0,34.8,12.1,W 38th Ave & Federal Blvd,39.769192,-105.024789,38,38th Avenue
38,10988,SA,1,34.2,10.5,W 38th Ave & Federal Blvd,39.769359,-105.025837,38,38th Avenue
38,10991,SA,0,34.9,12.1,W 38th Ave & Harlan St,39.769298,-105.062228,38,38th Avenue
38,10992,SA,1,34.1,10.5,W 38th Ave & Harlan St,39.769432,-105.063248,38,38th Avenue
38,10993,SA,1,34.1,10.5,W 38th Ave & High Ct,39.769433,-105.076553,38,38th Avenue
38,10994,SA,0,34.9,12.1,W 38th Ave & High Ct,39.769296,-105.076414,38,38th Avenue
38,10995,SA,1,34.0,10.5,W 38th Ave & Holland St,39.769382,-105.102254,38,38th Avenue
38,10996,SA,0,34.9,12.2,W 38th Ave & Holland St,39.769266,-105.101511,38,38th Avenue
38,10998,SA,1,34.0,10.5,W 38th Ave & Independence Ct,39.769391,-105.104752,38,38th Avenue
38,10999,SA,0,34.9,12.2,W 38th Ave & Independence St,39.769263,-105.104472,38,38th Avenue
38,11000,SA,0,34.8,12.1,W 38th Ave & Irving St,39.769312,-105.029395,38,38th Avenue
38,11001,SA,1,34.1,10.5,W 38th Ave & Irving St,39.769495,-105.030392,38,38th Avenue
38,11004,SA,1,34.1,10.4,W 38th Ave & Kalamath St,39.76935,-105.00093,38,38th Avenue
38,11005,SA,1,34.1,10.5,W 38th Ave & Kendall St,39.769423,-105.067135,38,38th Avenue
38,11006,SA,0,34.9,12.1,W 38th Ave & Kendall St,39.769302,-105.06689,38,38th Avenue
38,11007,SA,1,34.1,10.5,W 38th Ave & Kipling St,39.769384,-105.110422,38,38th Avenue
38,11008,SA,0,34.9,12.1,W 38th Ave & Kipling St (NS),39.769261,-105.110586,38,38th Avenue
38,11009,SA,0,36.6,12.3,38th Ave & Leyden St,39.769222,-104.914571,38,38th Avenue
38,11010,SA,1,33.0,9.4,38th Ave & Leyden St,39.769304,-104.91577,38,38th Avenue
38,11011,SA,0,34.8,12.1,W 38th Ave & Kalamath St,39.769203,-105.000672,38,38th Avenue
38,11012,SA,0,34.8,12.1,W 38th Ave & Lowell Blvd,39.769456,-105.034356,38,38th Avenue
38,11013,SA,1,34.1,10.5,W 38th Ave & Lowell Blvd,39.769615,-105.034993,38,38th Avenue
38,11015,SA,1,34.1,10.5,W 38th Ave & Marshall St,39.76943,-105.069095,38,38th Avenue
38,11016,SA,0,34.9,12.1,W 38th Ave & Miller St,39.769228,-105.114208,38,38th Avenue
38,11017,SA,1,34.5,10.6,W 38th Ave & Miller St,39.769333,-105.11505,38,38th Avenue
38,11018,SA,0,36.6,12.4,38th Ave & Monaco Pkwy,39.769221,-104.912951,38,38th Avenue
38,11019,SA,1,33.1,9.3,38th Ave & Monaco Pkwy,39.76931,-104.912462,38,38th Avenue
38,11020,SA,1,34.1,10.5,W 38th Ave & Navajo St,39.769356,-105.004511,38,38th Avenue
38,11021,SA,0,34.8,12.1,W 38th Ave & Navajo St,39.769205,-105.003834,38,38th Avenue
52,11021,SA,1,36.4,13.1,W 38th Ave & Navajo St,39.769205,-105.003834,52,W 52nd Avenue / South Bannock
6,11021,SA,1,60.1,0.8,W 38th Ave & Navajo St,39.769205,-105.003834,6,East 6th Avenue / North Pecos
38,11023,SA,0,34.9,12.1,W 38th Ave & Nelson St,39.769218,-105.118053,38,38th Avenue
38,11024,SA,1,34.5,10.6,W 38th Ave & Nelson St,39.769292,-105.11826,38,38th Avenue
38,11025,SA,0,34.9,12.1,W 38th Ave & Newland St,39.769316,-105.068429,38,38th Avenue
38,11026,SA,0,36.6,12.4,38th Ave & Newport St,39.76922,-104.908844,38,38th Avenue
38,11027,SA,0,34.8,12.1,W 38th Ave & Newton St,39.769437,-105.036647,38,38th Avenue
38,11028,SA,1,34.1,10.5,W 38th Ave & Newton St,39.769582,-105.037293,38,38th Avenue
38,11029,SA,0,36.6,12.4,38th Ave & Olive St,39.769225,-104.907128,38,38th Avenue
38,11030,SA,1,33.0,9.4,38th Ave & Olive St,39.769306,-104.907228,38,38th Avenue
38,11031,SA,1,33.0,9.4,38th Ave & Oneida St,39.76931,-104.908874,38,38th Avenue
38,11032,SA,1,34.5,10.6,W 38th Ave & Owens St,39.76929,-105.120766,38,38th Avenue
38,11033,SA,0,34.9,12.1,W 38th Ave & Parfet St,39.769191,-105.121093,38,38th Avenue
38,11034,SA,1,34.1,10.5,W 38th Ave & Quivas St,39.769357,-105.0075,38,38th Avenue
38,11035,SA,0,34.8,12.1,W 38th Ave & Quivas St,39.769215,-105.007126,38,38th Avenue
38,11036,SA,1,34.1,10.5,W 38th Ave & Perry St,39.769512,-105.039825,38,38th Avenue
38,11037,SA,0,34.8,12.1,W 38th Ave & Perry St,39.769367,-105.038775,38,38th Avenue
38,11038,SA,0,34.9,12.1,W 38th Ave & Pierce St,39.7693,-105.071548,38,38th Avenue
38,11039,SA,1,34.1,10.5,W 38th Ave & Pierce St,39.769444,-105.072644,38,38th Avenue
38,11040,SA,0,34.9,12.1,W 38th Ave & Quail St,39.769175,-105.124326,38,38th Avenue
38,11041,SA,1,34.5,10.6,W 38th Ave & Quail St,39.769253,-105.124557,38,38th Avenue
38,11043,SA,1,34.5,10.6,W 38th Ave & Routt St,39.769237,-105.127687,38,38th Avenue
38,11044,SA,0,34.9,12.1,W 38th Ave & Routt St,39.769156,-105.127455,38,38th Avenue
38,11045,SA,1,34.2,10.5,W 38th Ave & Sheridan Blvd,39.769387,-105.054624,38,38th Avenue
38,11046,SA,0,34.9,12.1,W 38th Ave & Sheridan Blvd,39.769259,-105.052771,38,38th Avenue
38,11047,SA,0,34.9,12.1,W 38th Ave & Swadley St,39.768933,-105.130013,38,38th Avenue
38,11048,SA,1,34.5,10.6,W 38th Ave & Simmsct,39.76909,-105.129601,38,38th Avenue
38,11049,SA,1,34.1,10.5,W 38th Ave & Tejon St,39.769358,-105.010869,38,38th Avenue
38,11050,SA,0,34.8,12.1,W 38th Ave & Tennyson St,39.76929,-105.043669,38,38th Avenue
38,11051,SA,1,34.1,10.5,W 38th Ave & Tennyson St,39.769437,-105.044549,38,38th Avenue
38,11053,SA,0,34.9,12.1,W 38th Ave & Union Ct,39.768526,-105.133188,38,38th Avenue
38,11054,SA,1,34.5,10.6,W 38th Ave & Union Ct,39.768432,-105.134112,38,38th Avenue
38,11055,SA,0,34.9,12.2,W 38th Ave & Wadsworth Blvd,39.769243,-105.081,38,38th Avenue
38,11056,SA,1,34.2,10.5,W 38th Ave & Wadsworth Blvd,39.769434,-105.082396,38,38th Avenue
38,11057,SA,1,34.1,10.5,W 38th Ave & Vance St,39.769461,-105.080114,38,38th Avenue
38,11058,SA,1,34.5,10.6,W 38th Ave & Wright St,39.767711,-105.138185,38,38th Avenue
38,11059,SA,0,34.9,12.1,W 38th Ave & Ward Rd,39.767623,-105.138102,38,38th Avenue
38,11060,SA,0,34.8,12.1,W 38th Ave & Wolff St,39.769264,-105.048403,38,38th Avenue
38,11061,SA,1,34.1,10.5,W 38th Ave & Wolff St,39.769437,-105.049079,38,38th Avenue
38,11062,SA,0,34.9,12.1,W 38th Ave & Wright Ct,39.76723,-105.140209,38,38th Avenue
38,11063,SA,0,34.8,12.1,W 38th Ave & Zuni St,39.769204,-105.015055,38,38th Avenue
38,11064,SA,0,34.8,12.1,W 38th Ave & Yates St,39.769271,-105.050612,38,38th Avenue
38,11065,SA,1,34.1,10.5,W 38th Ave & Yates St,39.769425,-105.051147,38,38th Avenue
12,11067,SA,0,38.2,13.3,38th St & Arkins Ct,39.774849,-104.977789,12,Downing Street
12,11068,SA,0,38.2,13.3,38th St & Brighton Blvd,39.773244,-104.975691,12,Downing Street
12,11069,SA,1,37.1,12.2,38th St & Brighton Blvd,39.772599,-104.975069,12,Downing Street
12,11070,SA,1,37.1,12.2,38th St & Chestnut Pl,39.77442,-104.977446,12,Downing Street
12,11071,SA,1,37.1,12.2,38th St & Ringsby Ct,39.775601,-104.978718,12,Downing Street
323,11076,SA,1,60.0,0.0,3rd Ave & Coffman St,40.164026,-105.104067,323,Skyline / Twin Peaks
323,11080,SA,0,60.0,0.0,3rd Ave & Terry St,40.163867,-105.104496,323,Skyline / Twin Peaks
44,11090,SA,1,59.2,3.3,40th Ave & Columbine St,39.772963,-104.956854,44,44th Avenue
44,11091,SA,0,59.2,4.7,40th Ave & Milwaukee St,39.772857,-104.952052,44,44th Avenue
44,11092,SA,1,59.2,3.3,40th Ave & Fillmore St,39.772954,-104.953225,44,44th Avenue
24,11094,SA,0,60.0,0.7,40th Ave & Madison St,39.772814,-104.94465,24,University Blvd
44,11094,SA,0,59.2,4.7,40th Ave & Madison St,39.772814,-104.94465,44,44th Avenue
44,11097,SA,1,59.2,3.3,40th Ave & Race St,39.772943,-104.963661,44,44th Avenue
24,11098,SA,0,60.0,0.7,E 40th Ave & Steele St,39.772828,-104.949256,24,University Blvd
44,11098,SA,0,59.2,4.7,E 40th Ave & Steele St,39.772828,-104.949256,44,44th Avenue
44,11100,SA,1,59.2,3.3,40th Ave & Steele St,39.77295,-104.950487,44,44th Avenue
44,11101,SA,0,59.2,4.7,40th Ave & Williams St,39.772835,-104.965366,44,44th Avenue
44,11102,SA,1,59.2,3.3,40th Ave & Williams St,39.772945,-104.965347,44,44th Avenue
44,11103,SA,1,59.2,3.3,40th Ave & York St,39.772954,-104.960307,44,44th Avenue
44,11104,SA,0,59.2,4.7,40th Ave & York St,39.77283,-104.959903,44,44th Avenue
24,11106,SA,0,60.0,0.7,E 41st Ave & Jackson St,39.773788,-104.941423,24,University Blvd
24,11106,SA,1,60.2,0.8,E 41st Ave & Jackson St,39.773788,-104.941423,24,University Blvd
40,11106,SA,0,29.9,0.2,E 41st Ave & Jackson St,39.773788,-104.941423,40,Colorado Boulevard
40,11106,SA,1,29.9,0.2,E 41st Ave & Jackson St,39.773788,-104.941423,40,Colorado Boulevard
44,11111,SA,0,59.6,2.9,W 44th Ave & Ammons St,39.776569,-105.08694,44,44th Avenue
44,11112,SA,1,57.8,7.9,W 44th Ave & Brentwood St,39.776677,-105.088693,44,44th Avenue
44,11113,SA,1,57.8,7.5,W 44th Ave & Bryant St,39.776659,-105.019698,44,44th Avenue
44,11114,SA,0,59.5,2.6,W 44th Ave & Bryant St,39.776544,-105.019298,44,44th Avenue
44,11115,SA,0,59.6,2.7,W 44th Ave & Chase St,39.776524,-105.05637,44,44th Avenue
51,11115,SA,1,41.4,15.8,W 44th Ave & Chase St,39.776524,-105.05637,51,Sheridan Blvd
44,11117,SA,1,57.8,7.9,W 44th Ave & Cody St,39.776676,-105.09178,44,44th Avenue
44,11118,SA,0,59.6,2.9,W 44th Ave & Cody St,39.776565,-105.091187,44,44th Avenue
44,11119,SA,1,57.8,7.6,W 44th Ave & Depew St,39.776661,-105.05782,44,44th Avenue
51,11119,SA,0,39.0,13.8,W 44th Ave & Depew St,39.776661,-105.05782,51,Sheridan Blvd
44,11124,SA,1,57.9,7.7,W 44th Ave & Eaton St,39.776689,-105.059591,44,44th Avenue
51,11124,SA,0,39.1,13.8,W 44th Ave & Eaton St,39.776689,-105.059591,51,Sheridan Blvd
44,11128,SA,0,59.5,2.6,W 44th Ave & Elm Ct,39.776567,-105.022458,44,44th Avenue
44,11129,SA,1,57.8,7.5,W 44th Ave & Elm Ct,39.776671,-105.023025,44,44th Avenue
44,11130,SA,1,57.8,7.9,W 44th Ave & Everett Dr,39.777431,-105.095351,44,44th Avenue
44,11131,SA,0,59.6,2.9,W 44th Ave & Everett St,39.777241,-105.095269,44,44th Avenue
44,11132,SA,0,59.6,2.7,W 44th Ave & Federal Blvd,39.776577,-105.0248,44,44th Avenue
44,11133,SA,1,57.9,7.5,W 44th Ave & Federal Blvd,39.776697,-105.025712,44,44th Avenue
44,11134,SA,0,59.6,2.7,W 44th Ave & Fenton St,39.776521,-105.059875,44,44th Avenue
51,11134,SA,1,41.4,15.8,W 44th Ave & Fenton St,39.776521,-105.059875,51,Sheridan Blvd
44,11135,SA,1,59.8,3.5,W 44th Ave & Field St,39.778137,-105.098684,44,44th Avenue
44,11136,SA,0,59.6,2.9,W 44th Ave & Field St,39.777986,-105.098003,44,44th Avenue
44,11138,SA,0,60.2,2.4,W 44th Ave & Garrison St,39.778034,-105.100474,44,44th Avenue
44,11139,SA,1,59.8,3.5,W 44th Ave & Garrison St,39.778148,-105.101314,44,44th Avenue
44,11141,SA,0,59.6,2.8,W 44th Ave & Harlan St,39.776535,-105.062159,44,44th Avenue
51,11141,SA,1,41.4,15.8,W 44th Ave & Harlan St,39.776535,-105.062159,51,Sheridan Blvd
44,11143,SA,0,59.6,2.7,W 44th Ave & Hooker St,39.776604,-105.028464,44,44th Avenue
44,11144,SA,1,57.8,7.6,W 44th Ave & Hooker St,39.776733,-105.02861,44,44th Avenue
44,11145,SA,0,60.2,2.4,W 44th Ave & Hoyt Ct,39.778048,-105.103854,44,44th Avenue
44,11146,SA,1,59.8,3.5,W 44th Ave & Independence St,39.778165,-105.105306,44,44th Avenue
44,11149,SA,0,59.6,2.8,W 44th Ave & Jay St,39.776543,-105.064517,44,44th Avenue
44,11150,SA,1,57.9,7.7,W 44th Ave & Jay St,39.776677,-105.065349,44,44th Avenue
44,11153,SA,0,60.3,2.4,W 44th Ave & Kipling St,39.778068,-105.108911,44,44th Avenue
44,11154,SA,1,59.8,3.5,W 44th Ave & Kipling St,39.778209,-105.1105,44,44th Avenue
44,11155,SA,0,59.6,2.7,W 44th Ave & Knox Ct,39.77665,-105.031723,44,44th Avenue
44,11156,SA,1,57.8,7.6,W 44th Ave & Knox Ct,39.776767,-105.031332,44,44th Avenue
44,11157,SA,0,59.6,2.8,W 44th Ave & Lamar St,39.776559,-105.067167,44,44th Avenue
44,11158,SA,1,57.9,7.7,W 44th Ave & Lamar St,39.776674,-105.067594,44,44th Avenue
44,11159,SA,1,57.8,7.6,W 44th Ave & Meade St,39.776783,-105.035403,44,44th Avenue
44,11162,SA,0,59.6,2.7,W 44th Ave & Meade St,39.776688,-105.035523,44,44th Avenue
44,11163,SA,0,60.3,2.4,W 44th Ave & Miller St,39.778081,-105.114051,44,44th Avenue
44,11164,SA,1,59.8,3.5,W 44th Ave & Miller St,39.778226,-105.11412,44,44th Avenue
44,11167,SA,0,60.3,2.4,W 44th Ave & Oak St,39.778142,-105.118413,44,44th Avenue
44,11168,SA,1,59.8,3.5,W 44th Ave & Owens St,39.77826,-105.119697,44,44th Avenue
44,11170,SA,0,59.6,2.7,W 44th Ave & Perry St,39.776653,-105.038996,44,44th Avenue
44,11171,SA,1,57.8,7.6,W 44th Ave & Perry St,39.776763,-105.03907,44,44th Avenue
44,11172,SA,0,59.6,2.8,W 44th Ave & Pierce St,39.776555,-105.071677,44,44th Avenue
44,11173,SA,1,57.9,7.7,W 44th Ave & Pierce St,39.776696,-105.071825,44,44th Avenue
44,11174,SA,0,60.3,2.4,W 44th Ave & Pierson St,39.778156,-105.12177,44,44th Avenue
44,11175,SA,1,59.8,3.5,W 44th Ave & Pierson St,39.778271,-105.122851,44,44th Avenue
44,11176,SA,1,59.8,3.5,W 44th Ave & Robb St,39.778289,-105.12653,44,44th Avenue
44,11177,SA,0,60.3,2.4,W 44th Ave & Robb St,39.778171,-105.126428,44,44th Avenue
44,11180,SA,1,57.9,7.7,W 44th Ave & Saulsbury St,39.776691,-105.076038,44,44th Avenue
44,11181,SA,0,59.6,2.8,W 44th Ave & Saulsbury St,39.776573,-105.075778,44,44th Avenue
44,11182,SA,0,59.6,2.7,W 44th Ave & Sheridan Blvd,39.776489,-105.052778,44,44th Avenue
44,11183,SA,1,57.8,7.6,W 44th Ave & Sheridan Blvd,39.776635,-105.053774,44,44th Avenue
51,11183,SA,0,39.0,13.8,W 44th Ave & Sheridan Blvd,39.776635,-105.053774,51,Sheridan Blvd
44,11184,SA,0,60.3,2.4,W 44th Ave & Tabor St,39.778087,-105.130403,44,44th Avenue
44,11185,SA,1,59.8,3.5,W 44th Ave & Tabor St,39.778297,-105.130454,44,44th Avenue
44,11186,SA,1,57.8,7.5,W 44th Ave & Tejon St,39.776603,-105.011788,44,44th Avenue
44,11187,SA,0,59.6,2.7,W 44th Ave & Tennyson St,39.776562,-105.043648,44,44th Avenue
44,11188,SA,1,57.8,7.6,W 44th Ave & Tennyson St,39.77662,-105.044261,44,44th Avenue
44,11189,SA,1,59.8,3.5,W 44th Ave & Van Gordon St,39.778315,-105.1332,44,44th Avenue
44,11191,SA,0,59.6,2.8,W 44th Ave & Vance St,39.776563,-105.078784,44,44th Avenue
44,11193,SA,0,59.6,2.7,W 44th Ave & Vrain St,39.776499,-105.045993,44,44th Avenue
44,11194,SA,1,57.8,7.6,W 44th Ave & Vrain St,39.776634,-105.046789,44,44th Avenue
44,11195,SA,0,59.6,2.8,W 44th Ave & Wadsworth Blvd,39.776526,-105.080644,44,44th Avenue
44,11196,SA,1,57.9,7.7,W 44th Ave & Wadsworth Blvd,39.776733,-105.081997,44,44th Avenue
44,11197,SA,0,60.3,2.4,W 44th Ave & Ward Rd,39.778213,-105.137336,44,44th Avenue
44,11198,SA,1,59.9,3.6,W 44th Ave & Ward Rd,39.778441,-105.138763,44,44th Avenue
44,11199,SA,1,57.8,7.5,W 44th Ave & Wyandot St,39.776607,-105.014954,44,44th Avenue
44,11200,SA,0,59.5,2.6,W 44th Ave & Wyandot St,39.776508,-105.015119,44,44th Avenue
44,11201,SA,1,57.8,7.6,W 44th Ave & Xavier St,39.776615,-105.049263,44,44th Avenue
44,11202,SA,0,59.6,2.7,W 44th Ave & Xavier St,39.776526,-105.049233,44,44th Avenue
44,11203,SA,0,59.6,2.9,W 44th Ave & Yarrow St,39.77657,-105.083329,44,44th Avenue
44,11204,SA,1,57.8,7.9,W 44th Ave & Yarrow St,39.776679,-105.084197,44,44th Avenue
48,11207,SA,1,35.0,11.2,44th St & MacFarland Dr,39.779215,-104.969557,48,East 48th Avenue / Commerce City
48,11208,SA,0,35.3,11.6,44th St & MacFarland Dr,39.779348,-104.969463,48,East 48th Avenue / Commerce City
24,11220,SA,0,60.0,0.7,E 46th Ave & Clayton St,39.779941,-104.953508,24,University Blvd
52,11224,SA,1,36.4,13.1,W 46th Ave & Lipan St,39.780218,-105.002174,52,W 52nd Avenue / South Bannock
6,11224,SA,1,60.2,0.8,W 46th Ave & Lipan St,39.780218,-105.002174,6,East 6th Avenue / North Pecos
52,11225,SA,0,34.8,10.9,W 46th Ave & Pecos St,39.780105,-105.005302,52,W 52nd Avenue / South Bannock
6,11225,SA,0,60.5,3.3,W 46th Ave & Pecos St,39.780105,-105.005302,6,East 6th Avenue / North Pecos
24,11226,SA,1,60.0,0.0,E 46th Ave & Steele St,39.780176,-104.950478,24,University Blvd
48,11229,SA,0,35.3,11.6,47th Ave & Gaylord St,39.7819,-104.960927,48,East 48th Avenue / Commerce City
48,11230,SA,1,34.9,11.2,47th Ave & Gaylord St,39.781997,-104.961605,48,East 48th Avenue / Commerce City
43,11231,SA,0,30.7,4.6,47th Ave & Havana St,39.782227,-104.865472,43,MLK Blvd / Gateway
44,11231,SA,0,59.5,4.5,47th Ave & Havana St,39.782227,-104.865472,44,44th Avenue
43,11232,SA,1,31.8,9.7,47th Ave & Havana St,39.782496,-104.866336,43,MLK Blvd / Gateway
48,11233,SA,1,34.9,11.2,47th Ave & High St,39.781992,-104.964934,48,East 48th Avenue / Commerce City
48,11234,SA,0,35.3,11.6,47th Ave & High St,39.781897,-104.96477,48,East 48th Avenue / Commerce City
43,11235,SA,0,30.7,4.6,47th Ave & Ironton St,39.782231,-104.862942,43,MLK Blvd / Gateway
44,11235,SA,0,59.5,4.5,47th Ave & Ironton St,39.782231,-104.862942,44,44th Avenue
43,11236,SA,1,31.8,9.7,47th Ave & Ironton St,39.78248,-104.863622,43,MLK Blvd / Gateway
44,11236,SA,1,59.0,3.6,47th Ave & Ironton St,39.78248,-104.863622,44,44th Avenue
43,11237,SA,0,30.8,4.6,47th Ave & Joliet St,39.782235,-104.860638,43,MLK Blvd / Gateway
44,11237,SA,0,59.5,4.5,47th Ave & Joliet St,39.782235,-104.860638,44,44th Avenue
43,11238,SA,1,31.8,9.7,47th Ave & Joliet St,39.782484,-104.861644,43,MLK Blvd / Gateway
44,11238,SA,1,59.0,3.6,47th Ave & Joliet St,39.782484,-104.861644,44,44th Avenue
43,11241,SA,0,30.8,4.6,47th Ave & Lima St,39.782318,-104.856265,43,MLK Blvd / Gateway
44,11241,SA,0,59.5,4.5,47th Ave & Lima St,39.782318,-104.856265,44,44th Avenue
43,11242,SA,1,31.8,9.7,47th Ave & Lima St,39.782421,-104.857137,43,MLK Blvd / Gateway
44,11242,SA,1,59.0,3.6,47th Ave & Lima St,39.782421,-104.857137,44,44th Avenue
43,11245,SA,0,30.8,4.6,47th Ave & Moline St,39.782321,-104.854205,43,MLK Blvd / Gateway
44,11245,SA,0,59.5,4.5,47th Ave & Moline St,39.782321,-104.854205,44,44th Avenue
43,11246,SA,1,31.8,9.7,47th Ave & Moline St,39.782424,-104.855193,43,MLK Blvd / Gateway
44,11246,SA,1,59.0,3.6,47th Ave & Moline St,39.782424,-104.855193,44,44th Avenue
43,11248,SA,1,31.8,9.7,47th Ave & Nome St,39.782431,-104.853077,43,MLK Blvd / Gateway
44,11248,SA,1,59.0,3.6,47th Ave & Nome St,39.782431,-104.853077,44,44th Avenue
43,11249,SA,0,30.8,4.6,47th Ave & Nome St,39.782324,-104.852554,43,MLK Blvd / Gateway
44,11249,SA,0,59.5,4.5,47th Ave & Nome St,39.782324,-104.852554,44,44th Avenue
43,11250,SA,1,31.8,9.7,47th Ave & Oakland St,39.782432,-104.850966,43,MLK Blvd / Gateway
44,11250,SA,1,59.0,3.6,47th Ave & Oakland St,39.782432,-104.850966,44,44th Avenue
43,11251,SA,0,30.8,4.6,47th Ave & Oakland St,39.782326,-104.85074,43,MLK Blvd / Gateway
44,11251,SA,0,59.5,4.5,47th Ave & Oakland St,39.782326,-104.85074,44,44th Avenue
43,11252,SA,0,30.8,4.6,47th Ave & Paris St,39.782328,-104.848264,43,MLK Blvd / Gateway
44,11252,SA,0,59.5,4.5,47th Ave & Paris St,39.782328,-104.848264,44,44th Avenue
43,11253,SA,1,31.8,9.7,47th Ave & Paris St,39.782439,-104.848467,43,MLK Blvd / Gateway
44,11253,SA,1,59.0,3.6,47th Ave & Paris St,39.782439,-104.848467,44,44th Avenue
48,11261,SA,0,35.3,11.6,47th Ave & York St,39.781903,-104.958926,48,East 48th Avenue / Commerce City
51,11265,SA,0,39.0,13.8,W 48th Ave & Chase St,39.783748,-105.056967,51,Sheridan Blvd
51,11266,SA,1,41.4,15.8,W 48th Ave & Chase St,39.78389,-105.057044,51,Sheridan Blvd
40,11267,SA,1,30.0,0.0,E 48th Ave & Dahlia St,39.783461,-104.935574,40,Colorado Boulevard
40,11268,SA,0,30.8,4.8,E 48th Ave & Dahlia St,39.783321,-104.935604,40,Colorado Boulevard
48,11269,SA,0,35.3,11.6,E 48th Ave & Clayton St,39.783701,-104.95432,48,East 48th Avenue / Commerce City
48,11270,SA,1,35.0,11.3,E 48th Ave & Clayton St,39.783783,-104.953991,48,East 48th Avenue / Commerce City
48,11271,SA,0,35.3,11.6,E 48th Ave & Claude Ct,39.783723,-104.959708,48,East 48th Avenue / Commerce City
40,11272,SA,0,30.8,4.8,E 48th Ave & Colorado Blvd Srvc Rd E,39.783346,-104.939443,40,Colorado Boulevard
40,11275,SA,1,30.0,0.0,E 48th Ave & Colorado Blvd Srvc Rd E,39.783465,-104.939881,40,Colorado Boulevard
48,11276,SA,0,35.3,11.6,E 48th Ave & Columbine St,39.783705,-104.956508,48,East 48th Avenue / Commerce City
48,11277,SA,1,35.0,11.3,E 48th Ave & Columbine St,39.783806,-104.956856,48,East 48th Avenue / Commerce City
40,11278,SA,1,30.0,0.0,E 48th Ave & Dahlia St,39.783474,-104.932015,40,Colorado Boulevard
40,11280,SA,1,30.0,0.0,E 48th Ave & Dahlia St,39.783466,-104.933827,40,Colorado Boulevard
40,11281,SA,0,30.8,4.8,E 48th Ave & Dahlia St,39.783357,-104.933718,40,Colorado Boulevard
51,11284,SA,1,41.4,15.8,W 48th Ave & Golden Ct,39.783904,-105.061181,51,Sheridan Blvd
51,11285,SA,0,39.0,13.8,W 48th Ave & Golden Ct,39.783758,-105.060949,51,Sheridan Blvd
52,11292,SA,1,36.4,13.1,W 48th Ave & Pecos St,39.783939,-105.006995,52,W 52nd Avenue / South Bannock
52,11293,SA,0,34.8,10.9,W 48th Ave & Pecos St,39.783754,-105.006885,52,W 52nd Avenue / South Bannock
52,11294,SA,0,34.8,10.9,W 48th Ave & Raritan St,39.783786,-105.008976,52,W 52nd Avenue / South Bannock
52,11295,SA,1,36.4,13.0,W 48th Ave & Raritan St,39.783877,-105.00945,52,W 52nd Avenue / South Bannock
51,11296,SA,1,41.4,15.8,W 48th Ave & Sheridan Blvd,39.783894,-105.053874,51,Sheridan Blvd
48,11297,SA,1,35.0,11.3,E 48th Ave & Saint Paul St,39.783791,-104.951326,48,East 48th Avenue / Commerce City
48,11298,SA,0,35.3,11.6,E 48th Ave & Saint Paul St,39.783694,-104.950877,48,East 48th Avenue / Commerce City
52,11299,SA,1,36.4,13.0,W 48th Ave & Tejon St,39.783887,-105.01104,52,W 52nd Avenue / South Bannock
48,11302,SA,1,34.9,11.2,E 48th Ave & York St,39.783821,-104.959752,48,East 48th Avenue / Commerce City
52,11326,SA,0,34.8,10.9,W 50th Ave & Beach Ct,39.787379,-105.017607,52,W 52nd Avenue / South Bannock
52,11327,SA,1,36.4,13.0,W 50th Ave & Beach Ct,39.787471,-105.017976,52,W 52nd Avenue / South Bannock
52,11328,SA,1,36.4,13.0,W 50th Ave & Clay St,39.787485,-105.020792,52,W 52nd Avenue / South Bannock
52,11329,SA,0,34.8,10.9,W 50th Ave & Clay St,39.787378,-105.01987,52,W 52nd Avenue / South Bannock
52,11330,SA,1,36.4,13.0,W 50th Ave & Elm Ct,39.787485,-105.023141,52,W 52nd Avenue / South Bannock
52,11331,SA,0,34.8,10.9,W 50th Ave & Elm Ct,39.787375,-105.022251,52,W 52nd Avenue / South Bannock
52,11332,SA,1,36.4,13.0,W 50th Ave & Federal Blvd,39.787554,-105.025811,52,W 52nd Avenue / South Bannock
52,11333,SA,0,34.8,10.9,W 50th Ave & Federal Blvd,39.787372,-105.024784,52,W 52nd Avenue / South Bannock
52,11334,SA,1,36.4,13.0,W 50th Ave & Irving St,39.787622,-105.029948,52,W 52nd Avenue / South Bannock
52,11335,SA,0,34.7,10.9,Regis Blvd & Irving St,39.787378,-105.030254,52,W 52nd Avenue / South Bannock
52,11336,SA,0,34.7,10.9,W 50th Ave & Knox Ct,39.787385,-105.0317,52,W 52nd Avenue / South Bannock
52,11337,SA,1,36.4,13.0,W 50th Ave & Knox Ct,39.787556,-105.032873,52,W 52nd Avenue / South Bannock
52,11340,SA,1,36.4,13.0,W 50th Ave & Lowell Blvd,39.787487,-105.034953,52,W 52nd Avenue / South Bannock
52,11341,SA,0,34.7,10.9,W 50th Ave & Lowell Blvd,39.787375,-105.034151,52,W 52nd Avenue / South Bannock
52,11344,SA,0,34.7,10.9,W 50th Ave & Osceola St,39.787389,-105.037586,52,W 52nd Avenue / South Bannock
52,11345,SA,1,36.4,13.0,W 50th Ave & Osceola St,39.787481,-105.037882,52,W 52nd Avenue / South Bannock
52,11347,SA,0,34.7,10.9,W 50th Ave & Quitman St,39.787389,-105.040549,52,W 52nd Avenue / South Bannock
52,11348,SA,1,36.4,13.0,W 50th Ave & Quitman St,39.787477,-105.040272,52,W 52nd Avenue / South Bannock
52,11349,SA,1,36.4,13.0,W 50th Ave & Tejon St,39.787466,-105.011613,52,W 52nd Avenue / South Bannock
52,11350,SA,0,34.7,10.9,W 50th Ave & Tennyson St,39.78739,-105.043384,52,W 52nd Avenue / South Bannock
52,11351,SA,1,36.4,13.0,W 50th Ave & Tennyson St,39.787481,-105.043777,52,W 52nd Avenue / South Bannock
52,11352,SA,0,34.8,10.9,W 50th Ave & Wyandot St,39.787373,-105.014153,52,W 52nd Avenue / South Bannock
52,11353,SA,1,36.4,13.0,W 50th Ave & Wyandot St,39.787511,-105.014915,52,W 52nd Avenue / South Bannock
44,11354,SA,0,59.7,5.1,E 51st Ave & Billings St,39.789043,-104.829621,44,44th Avenue
8,11355,SA,1,60.0,0.4,51st Ave & Broadway,39.789166,-104.986988,8,North Broadway / Huron
44,11356,SA,1,59.1,3.6,51st Ave & Crown Blvd,39.788954,-104.8287,44,44th Avenue
8,11357,SA,0,60.3,2.0,E 51st Ave & Lincoln St,39.789268,-104.986877,8,North Broadway / Huron
153,11362,SA,0,31.7,7.0,51st Ave & Ursula Way,39.790031,-104.837862,153,Chambers Road
44,11362,SA,1,59.0,3.8,51st Ave & Ursula Way,39.790031,-104.837862,44,44th Avenue
44,11363,SA,0,59.7,5.1,51st Ave & Ursula Way,39.789449,-104.838568,44,44th Avenue
44,11364,SA,0,59.7,5.1,51st Ave & Uvalda St,39.790927,-104.834928,44,44th Avenue
44,11365,SA,1,59.0,3.8,51st Ave & Uvalda St,39.791196,-104.834663,44,44th Avenue
44,11366,SA,0,59.7,5.1,51st Ave & Victor Way,39.79035,-104.832886,44,44th Avenue
44,11367,SA,1,59.0,3.8,51st Ave & Victor Way,39.790719,-104.832977,44,44th Avenue
44,11369,SA,0,59.7,5.1,51st Ave & Xanadu St,39.789399,-104.83047,44,44th Avenue
44,11370,SA,1,59.0,3.8,51st Ave & Worchester St,39.790336,-104.832011,44,44th Avenue
52,11371,SA,0,34.7,10.8,W 52nd Ave & Clear Creek Dr,39.791011,-105.056806,52,W 52nd Avenue / South Bannock
52,11372,SA,1,36.4,13.0,W 52nd Ave & Clear Creek Dr,39.791102,-105.055979,52,W 52nd Avenue / South Bannock
44,11373,SA,0,59.7,5.1,52nd Ave & Crown Blvd,39.790254,-104.824187,44,44th Avenue
44,11374,SA,1,59.1,3.6,52nd Ave & Crown Blvd,39.790315,-104.824107,44,44th Avenue
44,11375,SA,0,59.7,5.1,52nd Ave & Crystal St,39.789566,-104.821618,44,44th Avenue
44,11377,SA,1,59.1,3.6,52nd Ave & Deephaven Ct,39.789221,-104.819432,44,44th Avenue
52,11378,SA,1,36.4,13.0,W 52nd Ave & Eaton St,39.79112,-105.058626,52,W 52nd Avenue / South Bannock
52,11379,SA,0,34.7,10.8,W 52nd Ave & Gray St,39.791016,-105.060532,52,W 52nd Avenue / South Bannock
52,11380,SA,0,34.7,10.8,W 52nd Ave & Marshall St,39.79097,-105.070221,52,W 52nd Avenue / South Bannock
52,11381,SA,0,34.8,10.9,W 52nd Ave & Sheridan Blvd,39.791015,-105.05251,52,W 52nd Avenue / South Bannock
52,11382,SA,1,36.4,13.1,W 52nd Ave & Sheridan Blvd,39.79111,-105.054793,52,W 52nd Avenue / South Bannock
48,11383,SA,0,35.3,11.6,52nd Ave & Steele St,39.790956,-104.94929,48,East 48th Avenue / Commerce City
52,11384,SA,1,36.4,13.0,W 52nd Ave & Tennyson St,39.791146,-105.044467,52,W 52nd Avenue / South Bannock
52,11385,SA,0,34.7,10.9,W 52nd Ave & Sheridan Blvd,39.791029,-105.047686,52,W 52nd Avenue / South Bannock
52,11386,SA,1,36.4,13.0,W 52nd Ave & Tennyson St,39.791144,-105.047637,52,W 52nd Avenue / South Bannock
44,11387,SA,0,59.7,5.1,53rd Ave & Altura St,39.790529,-104.81299,44,44th Avenue
44,11388,SA,1,59.1,3.6,53rd Ave & Altura St,39.790886,-104.813454,44,44th Avenue
44,11389,SA,0,59.7,5.1,53rd Ave & Eagle St,39.790879,-104.81465,44,44th Avenue
44,11390,SA,1,59.1,3.6,53rd Ave & Eagle St,39.791267,-104.815275,44,44th Avenue
72,11394,SA,1,60.0,0.0,W 55th Ave & Marshall St,39.796322,-105.069435,72,72nd Avenue
72,11395,SA,0,60.0,0.0,W 55th Ave & Otis Ct,39.796224,-105.07086,72,72nd Avenue
72,11396,SA,1,60.0,0.0,W 55th Ave & Otis Ct,39.796333,-105.071817,72,72nd Avenue
72,11398,SA,0,60.0,0.0,W 55th Ave & Reed St,39.796233,-105.073782,72,72nd Avenue
72,11399,SA,1,60.0,0.0,W 55th Ave & Reed St,39.796326,-105.073762,72,72nd Avenue
72,11400,SA,1,60.0,0.0,W 55th Ave & Saulsbury Ct,39.796334,-105.076473,72,72nd Avenue
208,11406,SA,1,60.0,0.0,55th St & Central Ave,40.02154,-105.225272,208,Iris / Valmont
208,11407,SA,0,60.0,0.0,55th St & Central Ave,40.019339,-105.225524,208,Iris / Valmont
208,11408,SA,0,60.0,0.0,55th St & Valmont Rd,40.028682,-105.225484,208,Iris / Valmont
40,11412,SA,1,30.0,0.0,56th Ave & Forest St,39.79839,-104.926105,40,Colorado Boulevard
88,11413,SA,1,41.5,14.8,56th Ave & Holly St,39.798246,-104.921894,88,Northglenn/Commerce City/Stapleton
40,11414,SA,1,30.0,0.0,56th Ave & Holly St,39.798413,-104.922657,40,Colorado Boulevard
88,11415,SA,1,41.5,14.8,56th Ave & Holly St,39.798253,-104.919507,88,Northglenn/Commerce City/Stapleton
88,11416,SA,0,41.5,14.6,56th Ave & Kearney St,39.798428,-104.91936,88,Northglenn/Commerce City/Stapleton
88,11417,SA,1,41.5,14.8,56th Ave & Leyden St,39.798272,-104.91531,88,Northglenn/Commerce City/Stapleton
88,11418,SA,0,41.5,14.6,56th Ave & Locust St,39.798444,-104.915126,88,Northglenn/Commerce City/Stapleton
8,11426,SA,1,60.0,0.4,Logan Ct & 57th Ave,39.80015,-104.981252,8,North Broadway / Huron
8,11427,SA,0,60.3,2.3,Logan Ct & 57th Ave,39.79989,-104.98115,8,North Broadway / Huron
8,11430,SA,1,60.0,0.4,58th Ave & Broadway,39.801662,-104.98666,8,North Broadway / Huron
100,11432,SA,0,59.9,0.3,W 58th Ave & Kipling St,39.801822,-105.107379,100,Kipling Street
52,11432,SA,0,35.9,11.9,W 58th Ave & Kipling St,39.801822,-105.107379,52,W 52nd Avenue / South Bannock
100,11433,SA,0,59.9,0.3,W 58th Ave & Kipling St,39.801766,-105.110141,100,Kipling Street
52,11433,SA,0,35.9,11.9,W 58th Ave & Kipling St,39.801766,-105.110141,52,W 52nd Avenue / South Bannock
52,11435,SA,1,36.2,12.5,W 58th Ave & Miller St,39.80189,-105.114473,52,W 52nd Avenue / South Bannock
52,11436,SA,0,35.9,11.9,W 58th Ave & Miller St,39.801703,-105.114362,52,W 52nd Avenue / South Bannock
52,11437,SA,0,35.9,11.9,W 58th Ave & Oak St,39.801712,-105.118721,52,W 52nd Avenue / South Bannock
52,11438,SA,1,36.2,12.5,W 58th Ave & Oak St,39.801888,-105.119293,52,W 52nd Avenue / South Bannock
52,11439,SA,0,35.9,11.9,W 58th Ave & Quail St,39.801614,-105.123353,52,W 52nd Avenue / South Bannock
52,11440,SA,1,36.2,12.5,W 58th Ave & Quail St,39.80188,-105.123814,52,W 52nd Avenue / South Bannock
52,11442,SA,0,35.9,11.9,W 58th Ave & Simms St,39.801695,-105.129425,52,W 52nd Avenue / South Bannock
52,11443,SA,1,36.2,12.5,W 58th Ave & Simms St,39.801871,-105.129703,52,W 52nd Avenue / South Bannock
52,11444,SA,1,36.2,12.5,W 58th Ave & Urban St,39.801872,-105.134101,52,W 52nd Avenue / South Bannock
52,11445,SA,0,35.9,11.9,W 58th Ave & Urban St,39.80169,-105.133941,52,W 52nd Avenue / South Bannock
52,11447,SA,0,35.9,11.9,W 58th Ave & Ward Rd,39.80174,-105.136944,52,W 52nd Avenue / South Bannock
6,11454,SA,0,32.6,8.2,6th Ave & Corona St,39.725517,-104.97381,6,East 6th Avenue / North Pecos
40,11488,SA,0,30.8,4.8,60th Ave & Dahlia St,39.805452,-104.928854,40,Colorado Boulevard
40,11488,SA,1,30.0,0.0,60th Ave & Dahlia St,39.805452,-104.928854,40,Colorado Boulevard
48,11488,SA,0,35.3,11.6,60th Ave & Dahlia St,39.805452,-104.928854,48,East 48th Avenue / Commerce City
88,11488,SA,0,41.5,14.7,60th Ave & Dahlia St,39.805452,-104.928854,88,Northglenn/Commerce City/Stapleton
48,11489,SA,1,35.0,11.3,60th Ave & Dahlia St,39.805637,-104.928908,48,East 48th Avenue / Commerce City
88,11489,SA,1,41.5,14.8,60th Ave & Dahlia St,39.805637,-104.928908,88,Northglenn/Commerce City/Stapleton
40,11490,SA,1,30.0,0.0,60th Ave & Glencoe St,39.805506,-104.926042,40,Colorado Boulevard
48,11490,SA,0,35.3,11.6,60th Ave & Glencoe St,39.805506,-104.926042,48,East 48th Avenue / Commerce City
88,11490,SA,0,41.5,14.7,60th Ave & Glencoe St,39.805506,-104.926042,88,Northglenn/Commerce City/Stapleton
48,11491,SA,1,35.0,11.3,60th Ave & Hudson St,39.805643,-104.922771,48,East 48th Avenue / Commerce City
88,11491,SA,1,41.5,14.8,60th Ave & Hudson St,39.805643,-104.922771,88,Northglenn/Commerce City/Stapleton
40,11492,SA,1,30.0,0.0,60th Ave & Hudson St,39.805514,-104.923718,40,Colorado Boulevard
48,11492,SA,0,35.3,11.6,60th Ave & Hudson St,39.805514,-104.923718,48,East 48th Avenue / Commerce City
88,11492,SA,0,41.5,14.7,60th Ave & Hudson St,39.805514,-104.923718,88,Northglenn/Commerce City/Stapleton
72,11500,SA,0,60.0,0.0,W 64th Ave & Quail St,39.81265,-105.123251,72,72nd Avenue
72,11501,SA,1,60.0,0.0,W 64th Ave & Quail St,39.812826,-105.124069,72,72nd Avenue
72,11502,SA,0,60.0,0.0,W 64th Ave & Simms St,39.812658,-105.128041,72,72nd Avenue
72,11503,SA,1,60.0,0.0,W 64th Ave & Simms St,39.812869,-105.129263,72,72nd Avenue
72,11506,SA,1,60.0,0.0,W 64th Ave & Union St,39.812823,-105.133424,72,72nd Avenue
72,11507,SA,0,60.0,0.0,W 64th Ave & Union St,39.81262,-105.132383,72,72nd Avenue
72,11508,SA,0,60.0,0.0,W 64th Ave & Ward Rd,39.812599,-105.136055,72,72nd Avenue
72,11509,SA,1,60.0,0.0,W 64th Ave & Urban St,39.812848,-105.136295,72,72nd Avenue
48,11513,SA,0,35.3,11.6,69th Ave & Ivy St,39.821864,-104.919009,48,East 48th Avenue / Commerce City
48,11514,SA,1,35.0,11.3,69th Ave & Ivy St,39.821974,-104.919526,48,East 48th Avenue / Commerce City
48,11515,SA,1,35.0,11.3,69th Ave & Krameria St,39.821996,-104.91679,48,East 48th Avenue / Commerce City
48,11516,SA,0,35.3,11.6,69th Ave & Krameria St,39.82188,-104.91692,48,East 48th Avenue / Commerce City
48,11517,SA,1,35.0,11.4,69th Ave & Monaco St,39.822024,-104.913127,48,East 48th Avenue / Commerce City
6,11519,SA,0,32.6,8.2,6th Ave & Adams St,39.725547,-104.948256,6,East 6th Avenue / North Pecos
6,11520,SA,0,32.6,8.2,6th Ave & Ash St,39.725276,-104.937323,6,East 6th Avenue / North Pecos
6,11521,SA,1,33.2,9.5,6th Ave & Ash St,39.725646,-104.938948,6,East 6th Avenue / North Pecos
6,11524,SA,1,33.2,9.5,6th Ave & Birch St,39.725653,-104.936522,6,East 6th Avenue / North Pecos
6,11525,SA,0,32.6,8.2,6th Ave & Clermont Pkwy,39.725267,-104.934622,6,East 6th Avenue / North Pecos
6,11527,SA,0,32.6,8.2,6th Ave & Clayton St,39.725551,-104.955439,6,East 6th Avenue / North Pecos
323,11531,SA,1,59.8,0.3,6th Ave & Collyer St,40.169085,-105.098466,323,Skyline / Twin Peaks
6,11532,SA,0,32.6,8.2,E. 6th Ave & Colorado Blvd,39.725261,-104.939775,6,East 6th Avenue / North Pecos
6,11533,SA,0,32.1,8.3,6th Ave & Dayton St,39.725469,-104.87491,6,East 6th Avenue / North Pecos
6,11534,SA,1,33.2,9.5,6th Ave & Dayton St,39.725668,-104.875794,6,East 6th Avenue / North Pecos
6,11536,SA,1,33.2,9.4,6th Ave & Del Mar Cir W,39.725792,-104.850883,6,East 6th Avenue / North Pecos
6,11539,SA,0,32.6,8.2,6th Ave & Dexter St,39.725272,-104.93227,6,East 6th Avenue / North Pecos
6,11540,SA,1,33.2,9.5,6th Ave & Dexter St,39.725657,-104.933242,6,East 6th Avenue / North Pecos
6,11541,SA,0,32.6,8.2,6th Ave & Elm St,39.725279,-104.929176,6,East 6th Avenue / North Pecos
6,11542,SA,1,33.2,9.5,6th Ave & Elm St,39.725652,-104.929761,6,East 6th Avenue / North Pecos
6,11543,SA,0,32.6,8.2,6th Ave & Emerson St,39.725537,-104.976041,6,East 6th Avenue / North Pecos
6,11544,SA,0,32.1,8.3,6th Ave & Empire St,39.725467,-104.872088,6,East 6th Avenue / North Pecos
6,11545,SA,1,33.2,9.5,6th Ave & Empire St,39.725647,-104.872705,6,East 6th Avenue / North Pecos
6,11546,SA,0,32.6,8.2,6th Ave & Franklin St,39.725522,-104.96774,6,East 6th Avenue / North Pecos
6,11547,SA,0,32.1,8.3,6th Ave & Fulton St,39.725466,-104.869972,6,East 6th Avenue / North Pecos
6,11548,SA,1,33.2,9.5,6th Ave & Fulton St,39.725646,-104.870947,6,East 6th Avenue / North Pecos
6,11549,SA,0,32.6,8.2,6th Ave & Glencoe St,39.725282,-104.925809,6,East 6th Avenue / North Pecos
6,11550,SA,1,33.2,9.5,6th Ave & Glencoe St,39.725672,-104.926313,6,East 6th Avenue / North Pecos
6,11552,SA,0,32.6,8.2,6th Ave & Havana St,39.725482,-104.865438,6,East 6th Avenue / North Pecos
6,11553,SA,1,33.3,9.4,6th Ave & Havana St,39.725685,-104.866569,6,East 6th Avenue / North Pecos
6,11554,SA,0,32.6,8.2,6th Ave & Holly St,39.725292,-104.922242,6,East 6th Avenue / North Pecos
6,11555,SA,1,33.2,9.5,6th Ave & Holly St,39.725657,-104.923136,6,East 6th Avenue / North Pecos
6,11556,SA,0,32.6,8.2,6th Ave & Ivy Ln,39.725289,-104.918725,6,East 6th Avenue / North Pecos
6,11558,SA,0,32.6,8.2,6th Ave & Jackson St,39.725536,-104.942651,6,East 6th Avenue / North Pecos
6,11559,SA,1,33.2,9.5,6th Ave & Jersey St,39.725672,-104.919952,6,East 6th Avenue / North Pecos
6,11560,SA,0,32.6,8.2,6th Ave & Josephine St,39.725548,-104.958387,6,East 6th Avenue / North Pecos
6,11561,SA,0,32.6,8.2,6th Ave & Kenton St,39.725502,-104.861422,6,East 6th Avenue / North Pecos
6,11562,SA,1,33.1,9.5,6th Ave & Kenton St,39.725724,-104.862196,6,East 6th Avenue / North Pecos
6,11566,SA,0,32.6,8.2,6th Ave & Krameria St,39.725299,-104.915628,6,East 6th Avenue / North Pecos
6,11567,SA,1,33.2,9.5,6th Ave & Krameria St,39.725675,-104.916466,6,East 6th Avenue / North Pecos
6,11568,SA,0,32.6,8.2,6th Ave & Lafayette St,39.725519,-104.97028,6,East 6th Avenue / North Pecos
6,11569,SA,0,32.6,8.2,6th Ave & Milwaukee St,39.725544,-104.951937,6,East 6th Avenue / North Pecos
6,11570,SA,0,32.6,8.2,6th Ave & Moline St,39.725505,-104.856561,6,East 6th Avenue / North Pecos
6,11571,SA,1,57.6,8.3,6th Ave & Moline St,39.725774,-104.856539,6,East 6th Avenue / North Pecos
6,11572,SA,0,32.6,8.2,6th Ave & Monaco Pkwy,39.725298,-104.91213,6,East 6th Avenue / North Pecos
6,11573,SA,1,33.2,9.5,6th Ave & Monaco Pkwy,39.725676,-104.913043,6,East 6th Avenue / North Pecos
6,11576,SA,0,32.6,8.2,6th Ave & Monroe St,39.725546,-104.944662,6,East 6th Avenue / North Pecos
6,11580,SA,0,32.6,8.2,E 6th Ave S & Olive St,39.725302,-104.906843,6,East 6th Avenue / North Pecos
6,11581,SA,1,33.2,9.5,6th Ave & Olive St,39.725684,-104.907499,6,East 6th Avenue / North Pecos
6,11583,SA,0,32.6,8.2,E 6th Ave & Pennsylvania St,39.725566,-104.980921,6,East 6th Avenue / North Pecos
10,11585,SA,0,29.9,0.5,6th Ave & Peoria St,39.725824,-104.847972,10,East 12th Avenue
121,11585,SA,1,30.0,0.4,6th Ave & Peoria St,39.725824,-104.847972,121,Peoria Street
6,11585,SA,1,33.3,9.4,6th Ave & Peoria St,39.725824,-104.847972,6,East 6th Avenue / North Pecos
6,11588,SA,0,32.6,8.2,E. 6th Ave S & Quebec St,39.725368,-104.903978,6,East 6th Avenue / North Pecos
6,11589,SA,1,33.3,9.5,6th Ave & Quebec St,39.725677,-104.904017,6,East 6th Avenue / North Pecos
6,11602,SA,0,32.6,8.2,6th Ave & Gaylord St,39.725525,-104.962304,6,East 6th Avenue / North Pecos
6,11603,SA,0,32.6,8.2,6th Ave & Washington St,39.725555,-104.978388,6,East 6th Avenue / North Pecos
6,11604,SA,0,32.6,8.2,6th Ave & Williams St,39.725531,-104.96612,6,East 6th Avenue / North Pecos
6,11611,SA,0,32.6,8.2,E. 6th Ave & York St,39.725546,-104.959768,6,East 6th Avenue / North Pecos
100,11614,SA,1,59.7,0.4,W 6th Ave N Service Rd & Kipling St,39.725824,-105.113139,100,Kipling Street
100,11615,SA,0,60.0,0.0,W 6th Ave N Service Rd & Miller Ct,39.725707,-105.11294,100,Kipling Street
100,11616,SA,1,59.7,0.4,W 6th Ave N Service Rd & Kipling St,39.727173,-105.110251,100,Kipling Street
100,11617,SA,1,59.7,0.4,W 6th Ave N Service Rd & Miller Ct,39.725799,-105.114744,100,Kipling Street
100,11618,SA,0,60.0,0.0,W 6th Ave N Service Rd & Miller Ct,39.725671,-105.115115,100,Kipling Street
72,11623,SA,1,60.0,0.0,W 70th Ave & Broadway,39.823744,-104.987997,72,72nd Avenue
8,11623,SA,1,60.0,0.2,W 70th Ave & Broadway,39.823744,-104.987997,8,North Broadway / Huron
48,11625,SA,1,35.0,11.4,70th Ave & Colorado Blvd,39.823565,-104.939796,48,East 48th Avenue / Commerce City
72,11626,SA,0,60.0,0.0,W 70th Ave & Elati St,39.823532,-104.993045,72,72nd Avenue
72,11627,SA,0,60.0,0.0,W 70th Ave & Santa Fe Dr,39.823541,-104.997002,72,72nd Avenue
72,11628,SA,1,60.0,0.0,W 70th Ave & Huron St,39.823702,-104.995979,72,72nd Avenue
72,11629,SA,1,60.0,0.0,W 70th Ave & Jennie Dr,39.823708,-104.993046,72,72nd Avenue
72,11630,SA,0,60.0,0.0,W 70th Ave & Mariposa St,39.823542,-105.002607,72,72nd Avenue
72,11631,SA,1,60.0,0.0,W 70th Ave & Mariposa St,39.823683,-105.002835,72,72nd Avenue
48,11632,SA,0,35.3,11.5,70th Ave & Monaco St,39.823799,-104.912336,48,East 48th Avenue / Commerce City
48,11633,SA,1,35.0,11.4,70th Ave & Monaco St,39.823874,-104.911161,48,East 48th Avenue / Commerce City
48,11634,SA,0,35.3,11.5,70th Ave & Niagara St,39.823781,-104.90922,48,East 48th Avenue / Commerce City
72,11636,SA,0,60.0,0.0,W 70th Ave & Pecos St,39.823542,-105.005701,72,72nd Avenue
48,11638,SA,1,35.0,11.4,70th Ave & Poplar St,39.823887,-104.905517,48,East 48th Avenue / Commerce City
72,11640,SA,1,60.0,0.0,W 70th Ave & Santa Fe Dr,39.823665,-104.999106,72,72nd Avenue
31,11643,SA,0,33.6,19.2,W 71st Ave & Grove St,39.824717,-105.026585,31,Federal Blvd
31,11644,SA,0,33.6,19.2,W 71st Ave & Hooker St,39.824679,-105.028503,31,Federal Blvd
72,11648,SA,1,60.0,0.0,W 72nd Ave & Alcott St,39.827361,-105.0161,72,72nd Avenue
72,11649,SA,0,60.0,0.0,W 72nd Ave & Berthoud St,39.827212,-105.016455,72,72nd Avenue
48,11651,SA,0,35.3,11.5,72nd Ave & Brighton Rd,39.827292,-104.928579,48,East 48th Avenue / Commerce City
72,11652,SA,0,60.0,0.0,W 72nd Ave & Clay St,39.827208,-105.020173,72,72nd Avenue
48,11653,SA,1,35.0,11.4,72nd Ave & Clermont St,39.827171,-104.934483,48,East 48th Avenue / Commerce City
72,11653,SA,0,60.0,0.0,72nd Ave & Clermont St,39.827171,-104.934483,72,72nd Avenue
48,11654,SA,0,35.3,11.5,72nd Ave & Clermont St,39.82731,-104.934695,48,East 48th Avenue / Commerce City
72,11654,SA,1,60.0,0.0,72nd Ave & Clermont St,39.82731,-104.934695,72,72nd Avenue
48,11655,SA,0,35.3,11.5,72nd Ave & Colorado Blvd,39.827296,-104.938886,48,East 48th Avenue / Commerce City
48,11655,SA,1,35.0,11.4,72nd Ave & Colorado Blvd,39.827296,-104.938886,48,East 48th Avenue / Commerce City
72,11655,SA,1,60.0,0.0,72nd Ave & Colorado Blvd,39.827296,-104.938886,72,72nd Avenue
48,11656,SA,1,35.0,11.4,72nd Ave & Dahlia St,39.827188,-104.931057,48,East 48th Avenue / Commerce City
72,11656,SA,0,60.0,0.0,72nd Ave & Dahlia St,39.827188,-104.931057,72,72nd Avenue
48,11657,SA,0,35.3,11.5,72nd Ave & Dahlia St,39.827293,-104.931076,48,East 48th Avenue / Commerce City
72,11658,SA,1,60.0,0.0,W 72nd Ave & Depew St,39.826838,-105.05861,72,72nd Avenue
72,11659,SA,0,60.0,0.0,W 72nd Ave & Depew St,39.826659,-105.058534,72,72nd Avenue
72,11660,SA,1,60.0,0.0,W 72nd Ave & Eliot Cir,39.827297,-105.020976,72,72nd Avenue
72,11662,SA,1,60.0,0.0,W 72nd Ave & Federal Blvd,39.827391,-105.02548,72,72nd Avenue
72,11663,SA,0,60.0,0.0,W 72nd Ave & Federal Blvd,39.827179,-105.024103,72,72nd Avenue
72,11664,SA,0,60.0,0.0,W 72nd Ave & Ingalls St,39.827232,-105.062998,72,72nd Avenue
72,11665,SA,1,60.0,0.0,W 72nd Ave & Ingalls St,39.827416,-105.063075,72,72nd Avenue
31,11666,SA,1,57.1,7.0,W 72nd Ave & Irving St,39.827211,-105.02903,31,Federal Blvd
72,11666,SA,0,60.0,0.0,W 72nd Ave & Irving St,39.827211,-105.02903,72,72nd Avenue
72,11667,SA,1,60.0,0.0,W 72nd Ave & Irving St,39.827361,-105.030246,72,72nd Avenue
48,11668,SA,0,35.3,11.5,72nd Ave & Ivanhoe St,39.827311,-104.92091,48,East 48th Avenue / Commerce City
48,11669,SA,1,35.0,11.4,72nd Ave & Ivanhoe St,39.827145,-104.920546,48,East 48th Avenue / Commerce City
48,11671,SA,0,35.3,11.5,72nd Ave & Kearney St,39.82732,-104.916919,48,East 48th Avenue / Commerce City
88,11671,SA,0,41.5,14.7,72nd Ave & Kearney St,39.82732,-104.916919,88,Northglenn/Commerce City/Stapleton
48,11673,SA,0,35.3,11.5,72nd Ave & Monaco St,39.827297,-104.914037,48,East 48th Avenue / Commerce City
88,11673,SA,0,41.5,14.7,72nd Ave & Monaco St,39.827297,-104.914037,88,Northglenn/Commerce City/Stapleton
72,11674,SA,0,60.0,0.0,W 72nd Ave & Lowell Blvd,39.827215,-105.034005,72,72nd Avenue
72,11675,SA,1,60.0,0.0,W 72nd Ave & Lowell Blvd,39.827365,-105.034938,72,72nd Avenue
48,11676,SA,0,35.3,11.5,72nd Ave & Magnolia St,39.827296,-104.911405,48,East 48th Avenue / Commerce City
72,11677,SA,1,60.0,0.0,W 72nd Ave & Newton St,39.827363,-105.03772,72,72nd Avenue
72,11678,SA,0,60.0,0.0,W 72nd Ave & Newton St,39.827222,-105.037341,72,72nd Avenue
48,11679,SA,1,35.0,11.4,72nd Ave & Niagara St,39.827113,-104.910138,48,East 48th Avenue / Commerce City
48,11681,SA,1,35.0,11.4,72nd Ave & Olive St,39.827121,-104.906668,48,East 48th Avenue / Commerce City
48,11682,SA,0,35.3,11.5,72nd Ave & Olive St,39.827304,-104.907389,48,East 48th Avenue / Commerce City
72,11683,SA,1,60.0,0.0,W 72nd Ave & Pecos St,39.827366,-105.006792,72,72nd Avenue
72,11687,SA,0,60.0,0.0,W 72nd Ave & Raleigh St,39.827223,-105.040576,72,72nd Avenue
72,11688,SA,0,60.0,0.0,W 72nd Ave & Raritan St,39.82721,-105.009293,72,72nd Avenue
72,11689,SA,1,60.0,0.0,W 72nd Ave & Raritan St,39.827361,-105.010221,72,72nd Avenue
72,11690,SA,1,60.0,0.0,W 72nd Ave & Ruth Way,39.827365,-105.013654,72,72nd Avenue
72,11691,SA,0,60.0,0.0,W 72nd Ave & Ruth Wy,39.827212,-105.012869,72,72nd Avenue
72,11692,SA,0,60.0,0.0,W 72nd Ave & Sheridan Blvd,39.827196,-105.051923,72,72nd Avenue
72,11693,SA,1,60.0,0.0,W 72nd Ave & Sheridan Blvd,39.827353,-105.053789,72,72nd Avenue
72,11698,SA,1,60.0,0.0,W 72nd Ave & Utica St,39.827355,-105.044884,72,72nd Avenue
72,11699,SA,0,60.0,0.0,W 72nd Ave & Utica St,39.827228,-105.045252,72,72nd Avenue
72,11700,SA,1,60.0,0.0,W 72nd Ave & Xavier St,39.827361,-105.049578,72,72nd Avenue
72,11701,SA,0,60.0,0.0,W 72nd Ave & Xavier St,39.827212,-105.04954,72,72nd Avenue
205,11702,SA,0,32.4,8.6,75th St & Club House Rd,40.065873,-105.178356,205,28th St / Gunbarrel
205,11702,SA,1,30.0,0.4,75th St & Club House Rd,40.065873,-105.178356,205,28th St / Gunbarrel
205,11703,SA,0,32.4,8.6,75th St & Club House Rd,40.065633,-105.178555,205,28th St / Gunbarrel
205,11703,SA,1,30.0,0.4,75th St & Club House Rd,40.065633,-105.178555,205,28th St / Gunbarrel
205,11704,SA,0,32.4,8.6,75th St & Old Post Rd,40.062991,-105.178331,205,28th St / Gunbarrel
205,11704,SA,1,30.0,0.4,75th St & Old Post Rd,40.062991,-105.178331,205,28th St / Gunbarrel
205,11705,SA,0,32.4,8.6,75th St & Old Post Rd,40.062074,-105.17853,205,28th St / Gunbarrel
205,11705,SA,1,30.0,0.4,75th St & Old Post Rd,40.062074,-105.17853,205,28th St / Gunbarrel
31,11706,SA,1,57.1,7.0,W 76th Ave & Irving St,39.834481,-105.029865,31,Federal Blvd
31,11707,SA,1,57.1,7.0,W 76th Ave & Lowell Blvd,39.834499,-105.033898,31,Federal Blvd
31,11708,SA,0,60.2,5.6,W 76th Ave & Lowell Blvd,39.834593,-105.035114,31,Federal Blvd
31,11709,SA,0,60.2,5.6,W 76th Ave & Osceola St,39.834582,-105.039423,31,Federal Blvd
31,11710,SA,1,57.1,7.0,W 76th Ave & Osceola St,39.834481,-105.039421,31,Federal Blvd
31,11711,SA,1,57.1,7.0,W 76th Ave & Raleigh St,39.834471,-105.043345,31,Federal Blvd
31,11712,SA,0,60.2,5.6,W 76th Ave & Raleigh St,39.834577,-105.044053,31,Federal Blvd
31,11713,SA,1,57.1,7.0,W 76th Ave & Sheridan Blvd,39.834469,-105.052621,31,Federal Blvd
31,11714,SA,0,60.2,5.6,W 76th Ave & Winona Ct,39.834584,-105.047544,31,Federal Blvd
31,11715,SA,1,57.1,7.0,W 76th Ave & Wolff St,39.834473,-105.047871,31,Federal Blvd
1,11721,SA,1,59.0,2.9,W 7th Ave & Galapago St,39.727366,-104.99676,1,West 1st Avenue
1,11723,SA,1,59.0,2.9,W 7th Ave & Santa Fe Dr,39.727359,-104.998428,1,West 1st Avenue
8,11780,SA,0,60.3,2.4,W 84th Ave & Conifer Rd,39.849108,-104.990137,8,North Broadway / Huron
8,11781,SA,0,60.3,2.4,W 84th Ave & Fox St,39.84911,-104.99428,8,North Broadway / Huron
8,11785,SA,1,60.1,0.3,W 84th Ave & Huron St,39.848896,-104.995336,8,North Broadway / Huron
100,11800,SA,0,59.8,1.0,W 88th Ave & Harlan St,39.856359,-105.062572,100,Kipling Street
31,11800,SA,1,57.1,7.0,W 88th Ave & Harlan St,39.856359,-105.062572,31,Federal Blvd
51,11800,SA,1,41.3,16.0,W 88th Ave & Harlan St,39.856359,-105.062572,51,Sheridan Blvd
92,11800,SA,0,36.0,12.3,W 88th Ave & Harlan St,39.856359,-105.062572,92,92nd Avenue
100,11802,SA,0,59.8,0.7,W 88th Ave & W 87th Dr,39.856215,-105.088334,100,Kipling Street
100,11803,SA,1,59.7,0.4,W 88th Ave & W 87th Dr,39.856327,-105.089647,100,Kipling Street
100,11804,SA,1,60.0,0.5,W 88th Ave & Benton St,39.85654,-105.05646,100,Kipling Street
31,11804,SA,0,60.3,5.6,W 88th Ave & Benton St,39.85654,-105.05646,31,Federal Blvd
51,11804,SA,0,39.1,13.8,W 88th Ave & Benton St,39.85654,-105.05646,51,Sheridan Blvd
92,11804,SA,1,38.2,13.6,W 88th Ave & Benton St,39.85654,-105.05646,92,92nd Avenue
100,11805,SA,0,59.8,1.0,W 88th Ave & Benton St,39.856282,-105.056625,100,Kipling Street
31,11805,SA,1,57.1,7.0,W 88th Ave & Benton St,39.856282,-105.056625,31,Federal Blvd
51,11805,SA,1,41.3,16.0,W 88th Ave & Benton St,39.856282,-105.056625,51,Sheridan Blvd
92,11805,SA,0,36.0,12.3,W 88th Ave & Benton St,39.856282,-105.056625,92,92nd Avenue
88,11806,SA,1,41.5,14.9,88th Ave & Corona St,39.856161,-104.974011,88,Northglenn/Commerce City/Stapleton
88,11807,SA,0,41.5,14.7,88th Ave & Corona St,39.856343,-104.974959,88,Northglenn/Commerce City/Stapleton
100,11808,SA,0,59.8,0.7,W 88th Ave & Dover St,39.856193,-105.093014,100,Kipling Street
88,11809,SA,1,41.5,14.9,88th Ave & Downing St,39.856145,-104.97082,88,Northglenn/Commerce City/Stapleton
88,11810,SA,0,41.5,14.7,88th Ave & Downing St,39.856319,-104.971296,88,Northglenn/Commerce City/Stapleton
100,11811,SA,0,59.8,0.7,W 88th Ave & Field St,39.85625,-105.097911,100,Kipling Street
100,11812,SA,1,59.7,0.4,W 88th Ave & Field St,39.856438,-105.098692,100,Kipling Street
92,11814,SA,1,38.2,13.6,88th Ave & Grant St,39.856421,-104.984264,92,92nd Avenue
100,11815,SA,1,60.0,0.5,W 88th Ave & Harlan St,39.856604,-105.061363,100,Kipling Street
31,11815,SA,0,60.3,5.6,W 88th Ave & Harlan St,39.856604,-105.061363,31,Federal Blvd
51,11815,SA,0,39.1,13.8,W 88th Ave & Harlan St,39.856604,-105.061363,51,Sheridan Blvd
92,11815,SA,1,38.2,13.6,W 88th Ave & Harlan St,39.856604,-105.061363,92,92nd Avenue
88,11816,SA,0,41.5,14.7,88th Ave & Hoffman Way,39.85627,-104.96399,88,Northglenn/Commerce City/Stapleton
88,11817,SA,1,41.5,14.8,88th Ave & Hoffman Way,39.856079,-104.963524,88,Northglenn/Commerce City/Stapleton
100,11818,SA,0,59.8,1.0,W 88th Ave & Lamar Dr,39.856333,-105.066466,100,Kipling Street
100,11819,SA,1,60.0,0.5,W 88th Ave & Lamar Dr,39.85663,-105.067196,100,Kipling Street
88,11820,SA,1,41.5,14.8,88th Ave & Mc Elwain Blvd,39.856116,-104.96687,88,Northglenn/Commerce City/Stapleton
100,11821,SA,0,59.8,1.0,W 88th Ave & Pierce St,39.856432,-105.073545,100,Kipling Street
100,11822,SA,1,60.0,0.5,W 88th Ave & Pierce St,39.856636,-105.074696,100,Kipling Street
88,11823,SA,0,41.5,14.7,88th Ave & Poze Blvd,39.856291,-104.966969,88,Northglenn/Commerce City/Stapleton
100,11824,SA,1,60.0,0.5,W 88th Ave & Teller St,39.8566,-105.077051,100,Kipling Street
100,11825,SA,0,59.8,1.0,W 88th Ave & Teller St,39.856357,-105.077052,100,Kipling Street
100,11826,SA,0,59.9,0.8,W 88th Ave & Wadsworth Blvd,39.856296,-105.08086,100,Kipling Street
100,11827,SA,1,60.0,0.5,W 88th Ave & Wadsworth Blvd,39.856536,-105.082658,100,Kipling Street
88,11828,SA,1,41.5,14.9,88th Ave & Washington St,39.856187,-104.977391,88,Northglenn/Commerce City/Stapleton
