route_id,stop_id,service_id,direction_id,avghdwy,stdev_hdwy,stop_name,stop_lat,stop_lon,route_short_name,route_long_name
7820,3092,1,0,6.6,3.0,Beach St & Mason St,37.807407,-122.414125,F,MARKET & WHARVES
7820,3095,1,0,6.7,2.9,Beach St & Stockton St,37.807841,-122.41081,F,MARKET & WHARVES
1093,3212,1,1,9.1,3.2,9th Ave & Irving St,37.763913,-122.466241,N,JUDAH
1198,3266,1,0,10.2,3.8,15th Ave & Taraval St,37.743124,-122.471297,L,TARAVAL
1198,3267,1,1,10.1,3.9,15th Ave & Taraval St,37.743069,-122.471405,L,TARAVAL
1198,3268,1,0,10.2,3.8,15th Ave & Ulloa St,37.741525,-122.471192,L,TARAVAL
1198,3269,1,1,10.1,3.9,15th Ave & Ulloa St,37.741484,-122.4713,L,TARAVAL
7820,3308,1,0,16.2,7.8,Church St & 18th St,37.76281,-122.4285,F,MARKET & WHARVES
7820,3311,1,0,7.1,3.5,17th St & Castro St,37.76252,-122.434866,F,MARKET & WHARVES
7820,3311,1,1,6.7,3.0,17th St & Castro St,37.76252,-122.434866,F,MARKET & WHARVES
7820,3318,1,0,16.2,7.8,17th St & Noe St,37.762645,-122.432991,F,MARKET & WHARVES
1199,3358,1,0,11.6,3.8,19th Ave & Holloway Ave,37.721074,-122.475233,M,OCEAN VIEW
1199,3361,1,1,11.1,3.9,19th Ave & Junipero Serra Blvd,37.716889,-122.472275,M,OCEAN VIEW
1199,3376,1,0,11.6,3.8,19th Ave & Randolph St,37.7162,-122.47167,M,OCEAN VIEW
1199,3385,1,1,11.1,3.9,19th Ave & Randolph St,37.714282,-122.469618,M,OCEAN VIEW
1199,3387,1,0,11.6,3.8,19th Ave & Randolph St,37.714443,-122.469998,M,OCEAN VIEW
1199,3403,1,0,11.6,3.8,19th Ave & Winston Dr,37.727017,-122.474937,M,OCEAN VIEW
1094,3537,1,1,11.4,8.0,30th St & Dolores St,37.742304,-122.424026,J,CHURCH
7820,3537,1,1,18.5,10.2,30th St & Dolores St,37.742304,-122.424026,F,MARKET & WHARVES
1094,3538,1,0,11.3,3.7,30th St & Dolores St,37.74217,-122.424457,J,CHURCH
7820,3538,1,0,16.0,7.7,30th St & Dolores St,37.74217,-122.424457,F,MARKET & WHARVES
1198,3599,1,1,10.1,3.9,46th Ave & Taraval St,37.741685,-122.504534,L,TARAVAL
1198,3600,1,0,10.2,3.8,46th Ave & Ulloa St,37.739998,-122.504579,L,TARAVAL
1198,3601,1,1,10.1,3.9,46th Ave & Ulloa St,37.739829,-122.504407,L,TARAVAL
1198,3602,1,0,10.2,3.8,46th Ave & Vicente St,37.738142,-122.50444,L,TARAVAL
1198,3603,1,1,10.1,3.9,46th Ave & Vicente St,37.737973,-122.504268,L,TARAVAL
1199,3715,1,1,11.1,3.9,Broad St & Capitol Ave,37.713191,-122.458921,M,OCEAN VIEW
1199,3716,1,0,11.6,3.8,Broad St & Capitol Ave,37.713152,-122.459159,M,OCEAN VIEW
1199,3717,1,1,11.1,3.9,Broad St & Orizaba Ave,37.713178,-122.462331,M,OCEAN VIEW
1199,3718,1,1,11.2,3.9,Broad St & Plymouth Ave,37.713222,-122.455927,M,OCEAN VIEW
1199,3719,1,0,11.6,3.8,Broad St & Plymouth Ave,37.713161,-122.45618,M,OCEAN VIEW
1093,3909,1,0,9.1,3.1,Carl St & Cole St,37.765863,-122.449804,N,JUDAH
1093,3911,1,1,9.1,3.2,Carl St & Cole St,37.765745,-122.450131,N,JUDAH
1093,3912,1,0,9.1,3.1,Carl St & Hillway Ave,37.765003,-122.456561,N,JUDAH
1093,3913,1,1,9.1,3.2,Carl St & Hillway Ave,37.764932,-122.456512,N,JUDAH
1093,3914,1,0,9.1,3.1,Carl St & Stanyan St,37.765495,-122.45259,N,JUDAH
1093,3915,1,1,9.1,3.2,Carl St & Stanyan St,37.765371,-122.452928,N,JUDAH
1094,3984,1,0,11.3,3.7,Church St & 16th St,37.764621,-122.428722,J,CHURCH
1094,3985,1,1,11.4,8.0,Church St & 16th St,37.764382,-122.428609,J,CHURCH
7820,3985,1,1,,,Church St & 16th St,37.764382,-122.428609,F,MARKET & WHARVES
7820,3986,1,1,18.6,10.1,Church St & 17th St,37.76281,-122.4285,F,MARKET & WHARVES
1094,3987,1,0,11.3,3.7,Church St & 18th St,37.761467,-122.428416,J,CHURCH
7820,3987,1,0,16.1,7.7,Church St & 18th St,37.761467,-122.428416,F,MARKET & WHARVES
1094,3994,1,1,11.4,8.0,Church St & 22nd St,37.754785,-122.427659,J,CHURCH
7820,3994,1,1,18.5,10.1,Church St & 22nd St,37.754785,-122.427659,F,MARKET & WHARVES
1094,3995,1,0,11.3,3.7,Church St & 24th St,37.7518,-122.427497,J,CHURCH
7820,3995,1,0,16.1,7.7,Church St & 24th St,37.7518,-122.427497,F,MARKET & WHARVES
1094,3996,1,1,11.5,8.0,Church St & 24th St,37.751591,-122.42735,J,CHURCH
7820,3996,1,1,18.5,10.1,Church St & 24th St,37.751591,-122.42735,F,MARKET & WHARVES
1094,3997,1,0,11.3,3.7,Church St & 27th St,37.746985,-122.427073,J,CHURCH
7820,3997,1,0,16.1,7.7,Church St & 27th St,37.746985,-122.427073,F,MARKET & WHARVES
1094,3998,1,1,11.5,8.0,Church St & 27th St,37.746781,-122.426893,J,CHURCH
7820,3998,1,1,18.5,10.1,Church St & 27th St,37.746781,-122.426893,F,MARKET & WHARVES
1094,3999,1,1,11.5,8.0,Church St & 29th St,37.743587,-122.426585,J,CHURCH
7820,3999,1,1,18.5,10.1,Church St & 29th St,37.743587,-122.426585,F,MARKET & WHARVES
1094,4000,1,1,11.5,8.0,Church St & 30th St,37.742222,-122.426459,J,CHURCH
7820,4000,1,1,18.5,10.1,Church St & 30th St,37.742222,-122.426459,F,MARKET & WHARVES
1094,4001,1,0,11.3,3.7,Church St & 30th St,37.742097,-122.426528,J,CHURCH
7820,4001,1,0,16.1,7.7,Church St & 30th St,37.742097,-122.426528,F,MARKET & WHARVES
1094,4002,1,0,11.3,3.7,Church St & Clipper St,37.749388,-122.427289,J,CHURCH
7820,4002,1,0,16.1,7.7,Church St & Clipper St,37.749388,-122.427289,F,MARKET & WHARVES
1094,4003,1,1,11.5,8.0,Church St & Clipper St,37.749182,-122.427122,J,CHURCH
7820,4003,1,1,18.5,10.1,Church St & Clipper St,37.749182,-122.427122,F,MARKET & WHARVES
1094,4004,1,0,11.3,3.7,Church St & Day St,37.742811,-122.426654,J,CHURCH
7820,4004,1,0,16.1,7.7,Church St & Day St,37.742811,-122.426654,F,MARKET & WHARVES
1094,4006,1,1,11.4,8.0,Church St & Duboce Ave,37.769302,-122.429087,J,CHURCH
1093,4447,1,0,9.1,3.1,Duboce Ave & Church St,37.769472,-122.429408,N,JUDAH
1093,4448,1,1,9.1,3.2,Duboce Ave & Church St,37.769409,-122.4294,N,JUDAH
7820,4501,1,1,6.7,3.0,The Embarcadero & Bay St,37.806945,-122.406278,F,MARKET & WHARVES
7820,4502,1,0,6.7,2.9,The Embarcadero & Bay St,37.806629,-122.40603,F,MARKET & WHARVES
7820,4503,1,1,6.7,3.0,THE EMBARCADERO & BROADWAY,37.799552,-122.397869,F,MARKET & WHARVES
7820,4504,1,0,6.7,2.9,THE EMBARCADERO & BROADWAY,37.798901,-122.397434,F,MARKET & WHARVES
1093,4506,1,1,9.0,2.7,The Embarcadero & Brannan St,37.784359,-122.388138,N,JUDAH
1094,4506,1,1,30.0,,The Embarcadero & Brannan St,37.784359,-122.388138,J,CHURCH
1196,4506,1,1,11.1,3.2,The Embarcadero & Brannan St,37.784359,-122.388138,KT,INGLESIDE/THIRD
1093,4509,1,1,9.0,2.6,The Embarcadero & Folsom St,37.790481,-122.389692,N,JUDAH
1094,4509,1,1,29.0,,The Embarcadero & Folsom St,37.790481,-122.389692,J,CHURCH
1196,4509,1,1,11.1,3.1,The Embarcadero & Folsom St,37.790481,-122.389692,KT,INGLESIDE/THIRD
1093,4510,1,0,9.4,3.2,The Embarcadero & Folsom St,37.790749,-122.389841,N,JUDAH
1196,4510,1,0,10.9,3.4,The Embarcadero & Folsom St,37.790749,-122.389841,KT,INGLESIDE/THIRD
7820,4513,1,1,6.7,3.0,THE EMBARCADERO/Ferry Building,37.795105,-122.393861,F,MARKET & WHARVES
7820,4515,1,1,6.7,3.0,The Embarcadero & Greenwich St,37.803263,-122.401113,F,MARKET & WHARVES
7820,4516,1,0,6.7,2.9,The Embarcadero & Greenwich St,37.80296,-122.401029,F,MARKET & WHARVES
7820,4517,1,1,6.7,3.0,The Embarcadero & Green St,37.801264,-122.399369,F,MARKET & WHARVES
7820,4518,1,0,6.7,2.9,The Embarcadero & Green St,37.800605,-122.39892,F,MARKET & WHARVES
7820,4529,1,0,6.7,2.9,The Embarcadero & Sansome St,37.805022,-122.403314,F,MARKET & WHARVES
7820,4530,1,1,6.7,3.0,The Embarcadero & Stockton St,37.808351,-122.410287,F,MARKET & WHARVES
7820,4532,1,1,6.7,3.0,The Embarcadero & Washington St,37.797085,-122.39567,F,MARKET & WHARVES
7820,4534,1,0,6.7,2.9,The Embarcadero & Washington St,37.796355,-122.395181,F,MARKET & WHARVES
7820,4726,1,0,6.7,2.9,Don Chee Way/Steuart St,37.794105,-122.393874,F,MARKET & WHARVES
7820,4727,1,1,6.7,3.0,Don Chee Way/Steuart St,37.7939,-122.39345,F,MARKET & WHARVES
1094,4787,1,1,11.4,8.0,San Jose Ave/Glen Park Station,37.732525,-122.433416,J,CHURCH
7820,4787,1,1,18.5,10.2,San Jose Ave/Glen Park Station,37.732525,-122.433416,F,MARKET & WHARVES
1094,4788,1,0,11.3,3.7,San Jose Ave/Glen Park Station,37.732401,-122.433855,J,CHURCH
7820,4788,1,0,16.0,7.7,San Jose Ave/Glen Park Station,37.732401,-122.433855,F,MARKET & WHARVES
1093,5118,1,0,9.1,3.1,Irving St & 2nd Ave,37.764441,-122.458643,N,JUDAH
1093,5119,1,0,9.1,3.1,Irving St & 4th Ave,37.764299,-122.460824,N,JUDAH
1093,5120,1,1,9.1,3.2,Irving St & 4th Ave,37.764226,-122.461061,N,JUDAH
1093,5121,1,0,9.1,3.1,Irving St & 7th Ave,37.764155,-122.464034,N,JUDAH
1093,5122,1,1,9.1,3.2,Irving St & 7th Ave,37.764092,-122.464282,N,JUDAH
1093,5123,1,0,9.1,3.1,Irving St & 9th Ave,37.764106,-122.466165,N,JUDAH
1093,5124,1,1,9.1,3.2,Irving St & Arguello Blvd,37.764366,-122.458024,N,JUDAH
7820,5174,1,1,6.7,3.0,Jefferson St & Powell St,37.808594,-122.413357,F,MARKET & WHARVES
7820,5175,1,1,6.7,3.0,Jefferson St & Taylor St,37.80832,-122.415514,F,MARKET & WHARVES
7820,5184,1,0,6.7,2.9,Jones St & Beach St,37.807248,-122.417366,F,MARKET & WHARVES
7820,5184,1,1,6.7,3.0,Jones St & Beach St,37.807248,-122.417366,F,MARKET & WHARVES
1093,5193,1,0,9.1,3.1,Judah St & 9th Ave,37.762227,-122.466688,N,JUDAH
1093,5194,1,1,9.1,3.2,Judah St & 9th Ave,37.762139,-122.466312,N,JUDAH
1093,5195,1,0,9.1,3.1,Judah St & 12th Ave,37.762069,-122.469324,N,JUDAH
1093,5196,1,1,9.1,3.2,Judah St & 12th Ave,37.761988,-122.469526,N,JUDAH
1093,5197,1,1,9.1,3.2,Judah St & 15th Ave,37.761848,-122.472777,N,JUDAH
1093,5198,1,0,9.1,3.1,Judah St & 16th Ave,37.761913,-122.473781,N,JUDAH
1093,5199,1,0,9.1,3.1,Judah St & 19th Ave,37.76174,-122.476825,N,JUDAH
1093,5200,1,1,9.1,3.2,Judah St & 19th Ave,37.761655,-122.477194,N,JUDAH
1093,5201,1,1,9.1,3.2,Judah St & 22nd Ave,37.761534,-122.479855,N,JUDAH
1093,5202,1,0,9.0,3.1,Judah St & 23rd Ave,37.761547,-122.481164,N,JUDAH
1093,5203,1,0,9.0,3.1,Judah St & 25th Ave,37.761452,-122.4833,N,JUDAH
1093,5204,1,1,9.1,3.2,Judah St & 25th Ave,37.761373,-122.48356,N,JUDAH
1093,5205,1,0,9.0,3.1,Judah St & 28th Ave,37.76131,-122.48651,N,JUDAH
1093,5206,1,1,9.1,3.2,Judah St & 28th Ave,37.761232,-122.486763,N,JUDAH
1093,5207,1,0,9.0,3.1,Judah St & 31st Ave,37.761172,-122.489719,N,JUDAH
1093,5208,1,1,9.1,3.2,Judah St & 31st Ave,37.761105,-122.4895,N,JUDAH
1093,5209,1,0,9.0,3.1,Judah St & 34th Ave,37.761028,-122.49293,N,JUDAH
1093,5210,1,1,9.1,3.2,Judah St & 34th Ave,37.760955,-122.493199,N,JUDAH
1093,5211,1,0,9.0,3.2,Judah St & 40th Ave,37.760743,-122.499359,N,JUDAH
1093,5212,1,1,9.1,3.2,Judah St & 40th Ave,37.760679,-122.499154,N,JUDAH
1093,5213,1,0,9.0,3.2,Judah St & 43rd Ave,37.760598,-122.502574,N,JUDAH
1093,5214,1,1,9.0,3.2,Judah St & 43rd Ave,37.760518,-122.502839,N,JUDAH
1093,5215,1,0,9.0,3.2,Judah St & 46th Ave,37.760493,-122.505832,N,JUDAH
1093,5216,1,1,9.0,3.2,Judah St & 46th Ave,37.760392,-122.506064,N,JUDAH
1093,5219,1,0,9.1,3.1,Judah St & Funston Ave,37.762075,-122.470329,N,JUDAH
1093,5220,1,1,9.1,3.2,Judah St & Funston Ave,37.76195,-122.470572,N,JUDAH
1093,5221,1,0,9.0,3.2,Judah/La Playa/Ocean Beach,37.760363,-122.509011,N,JUDAH
1093,5223,1,1,9.1,3.2,Judah/La Playa/Ocean Beach,37.76017,-122.508777,N,JUDAH
1093,5224,1,0,9.1,3.1,Judah St & Sunset Blvd,37.760912,-122.495565,N,JUDAH
1093,5225,1,1,9.1,3.2,Judah St & Sunset Blvd,37.760828,-122.495964,N,JUDAH
1093,5234,1,1,9.0,2.7,King St & 2nd St,37.77972,-122.389872,N,JUDAH
1094,5234,1,1,30.0,,King St & 2nd St,37.77972,-122.389872,J,CHURCH
1196,5234,1,1,11.1,3.2,King St & 2nd St,37.77972,-122.389872,KT,INGLESIDE/THIRD
1093,5237,1,0,9.4,3.2,King St & 2nd St,37.779621,-122.389824,N,JUDAH
1196,5237,1,0,10.9,3.4,King St & 2nd St,37.779621,-122.389824,KT,INGLESIDE/THIRD
1093,5239,1,1,9.1,2.6,King St & 4th St,37.776207,-122.394231,N,JUDAH
1094,5239,1,1,30.0,,King St & 4th St,37.776207,-122.394231,J,CHURCH
1093,5240,1,0,9.4,3.2,King St & 4th St,37.776058,-122.394364,N,JUDAH
1093,5417,1,1,9.0,2.6,Metro Powell Station/Downtown,37.784199,-122.407695,N,JUDAH
1094,5417,1,1,11.2,3.6,Metro Powell Station/Downtown,37.784199,-122.407695,J,CHURCH
1196,5417,1,1,10.9,3.5,Metro Powell Station/Downtown,37.784199,-122.407695,KT,INGLESIDE/THIRD
1197,5417,1,1,9.5,2.1,Metro Powell Station/Downtown,37.784199,-122.407695,S,CASTRO SHUTTLE
1198,5417,1,1,10.5,3.6,Metro Powell Station/Downtown,37.784199,-122.407695,L,TARAVAL
1199,5417,1,1,11.5,3.6,Metro Powell Station/Downtown,37.784199,-122.407695,M,OCEAN VIEW
1196,5418,1,0,10.7,3.7,Balboa Park BART/Mezzanine Level,37.720876,-122.446651,KT,INGLESIDE/THIRD
1196,5418,1,1,10.6,3.7,Balboa Park BART/Mezzanine Level,37.720876,-122.446651,KT,INGLESIDE/THIRD
1093,5419,1,1,9.1,2.6,Metro Van Ness Station,37.775069,-122.419193,N,JUDAH
1094,5419,1,1,11.1,3.7,Metro Van Ness Station,37.775069,-122.419193,J,CHURCH
1196,5419,1,1,11.0,3.6,Metro Van Ness Station,37.775069,-122.419193,KT,INGLESIDE/THIRD
1197,5419,1,1,9.5,2.1,Metro Van Ness Station,37.775069,-122.419193,S,CASTRO SHUTTLE
1198,5419,1,1,10.5,3.6,Metro Van Ness Station,37.775069,-122.419193,L,TARAVAL
1199,5419,1,1,11.5,3.6,Metro Van Ness Station,37.775069,-122.419193,M,OCEAN VIEW
1094,5448,1,0,11.3,3.7,Balboa Park BART/Mezzanine level,37.720899,-122.446657,J,CHURCH
1094,5448,1,1,11.4,8.0,Balboa Park BART/Mezzanine level,37.720899,-122.446657,J,CHURCH
7820,5639,1,0,6.7,2.9,Market St & 2nd St,37.789353,-122.401306,F,MARKET & WHARVES
7820,5640,1,1,6.7,3.0,Market St & 3rd St,37.787525,-122.403519,F,MARKET & WHARVES
7820,5643,1,1,6.7,3.0,Market St & 4th St,37.785652,-122.405893,F,MARKET & WHARVES
7820,5645,1,1,6.7,3.0,Market St & 5th St,37.783886,-122.408141,F,MARKET & WHARVES
7820,5647,1,1,6.7,3.0,Market St & 6th St,37.782102,-122.4104,F,MARKET & WHARVES
7820,5650,1,1,6.7,3.0,Market St & 7th St,37.780363,-122.412613,F,MARKET & WHARVES
7820,5651,1,1,6.7,3.0,Market St & 8th St,37.778606,-122.414826,F,MARKET & WHARVES
7820,5652,1,1,6.7,3.0,Market St & 9th St,37.77741,-122.41634,F,MARKET & WHARVES
7820,5655,1,0,6.7,2.9,Market St & 5th  St,37.784082,-122.407992,F,MARKET & WHARVES
7820,5656,1,0,6.7,2.9,Market St & 7th St,37.780568,-122.412441,F,MARKET & WHARVES
7820,5657,1,0,6.7,2.9,Market St & Battery St,37.79111,-122.399069,F,MARKET & WHARVES
7820,5659,1,0,6.7,2.9,Market St & Buchanan St,37.769786,-122.426149,F,MARKET & WHARVES
7820,5661,1,0,6.7,2.9,Market St & Church St,37.767829,-122.428628,F,MARKET & WHARVES
7820,5662,1,1,6.7,3.0,Market St & Church St,37.767259,-122.42915,F,MARKET & WHARVES
7820,5668,1,1,6.7,3.0,Market St & Dolores St,37.76888,-122.427103,F,MARKET & WHARVES
7820,5669,1,0,6.7,2.9,Market St & Drumm St,37.793473,-122.396178,F,MARKET & WHARVES
7820,5672,1,0,6.7,2.9,Market St & Gough St,37.773269,-122.421768,F,MARKET & WHARVES
7820,5673,1,1,6.7,3.0,Market St & Gough St,37.772875,-122.421991,F,MARKET & WHARVES
7820,5675,1,1,6.7,3.0,Market St & Guerrero St,37.77057,-122.424971,F,MARKET & WHARVES
7820,5676,1,0,6.7,2.9,Market St & Hyde St,37.779105,-122.414379,F,MARKET & WHARVES
7820,5678,1,0,6.7,2.9,Market St & Kearny St,37.78773,-122.40337,F,MARKET & WHARVES
7820,5679,1,0,6.7,2.9,Market St & Larkin St,37.777589,-122.416213,F,MARKET & WHARVES
7820,5681,1,0,6.7,2.9,Market St & Laguna St,37.770953,-122.424666,F,MARKET & WHARVES
7820,5682,1,1,6.7,3.0,Market St & Main St,37.792984,-122.396627,F,MARKET & WHARVES
7820,5685,1,1,6.7,3.0,Market St & New Montgomery St,37.788613,-122.402163,F,MARKET & WHARVES
7820,5686,1,0,6.6,2.9,Market St & Noe St,37.764489,-122.432812,F,MARKET & WHARVES
7820,5687,1,1,6.7,3.0,Market St & Noe St,37.763958,-122.433323,F,MARKET & WHARVES
7820,5690,1,0,6.6,2.9,Market St & Sanchez St,37.766185,-122.430707,F,MARKET & WHARVES
7820,5691,1,1,6.7,3.0,Market St & Sanchez St,37.765689,-122.43114,F,MARKET & WHARVES
7820,5692,1,1,6.7,3.0,Market St & South Van Ness Ave,37.775056,-122.419321,F,MARKET & WHARVES
7820,5694,1,0,6.7,2.9,Market St & Stockton St,37.785857,-122.405744,F,MARKET & WHARVES
7820,5695,1,0,6.7,2.9,Market St & Taylor St,37.782316,-122.410228,F,MARKET & WHARVES
7820,5696,1,0,6.7,2.9,Market St & Van Ness Ave,37.775243,-122.419183,F,MARKET & WHARVES
1196,5726,1,1,10.9,3.5,Metro Church Station/Downtown,37.767194,-122.429168,KT,INGLESIDE/THIRD
1197,5726,1,1,9.5,2.1,Metro Church Station/Downtown,37.767194,-122.429168,S,CASTRO SHUTTLE
1198,5726,1,1,10.5,3.6,Metro Church Station/Downtown,37.767194,-122.429168,L,TARAVAL
1199,5726,1,1,11.5,3.6,Metro Church Station/Downtown,37.767194,-122.429168,M,OCEAN VIEW
1093,5727,1,1,9.0,2.6,Metro Civic Center Station/Downtn,37.778542,-122.414813,N,JUDAH
1094,5727,1,1,11.2,3.6,Metro Civic Center Station/Downtn,37.778542,-122.414813,J,CHURCH
1196,5727,1,1,10.9,3.5,Metro Civic Center Station/Downtn,37.778542,-122.414813,KT,INGLESIDE/THIRD
1197,5727,1,1,9.5,2.1,Metro Civic Center Station/Downtn,37.778542,-122.414813,S,CASTRO SHUTTLE
1198,5727,1,1,10.5,3.6,Metro Civic Center Station/Downtn,37.778542,-122.414813,L,TARAVAL
1199,5727,1,1,11.5,3.6,Metro Civic Center Station/Downtn,37.778542,-122.414813,M,OCEAN VIEW
1196,5728,1,1,11.0,3.6,Metro Castro Station/Downtown,37.762576,-122.435231,KT,INGLESIDE/THIRD
1197,5728,1,1,9.5,2.1,Metro Castro Station/Downtown,37.762576,-122.435231,S,CASTRO SHUTTLE
1198,5728,1,1,10.5,3.6,Metro Castro Station/Downtown,37.762576,-122.435231,L,TARAVAL
1199,5728,1,1,11.5,3.6,Metro Castro Station/Downtown,37.762576,-122.435231,M,OCEAN VIEW
1196,5730,1,1,10.9,3.5,Metro Forest Hill Station/Downtown,37.748351,-122.458623,KT,INGLESIDE/THIRD
1198,5730,1,1,10.5,3.6,Metro Forest Hill Station/Downtown,37.748351,-122.458623,L,TARAVAL
1199,5730,1,1,11.5,3.6,Metro Forest Hill Station/Downtown,37.748351,-122.458623,M,OCEAN VIEW
1093,5731,1,1,9.0,2.6,Metro Montgomery Station/Downtown,37.788702,-122.401925,N,JUDAH
1094,5731,1,1,11.2,3.6,Metro Montgomery Station/Downtown,37.788702,-122.401925,J,CHURCH
1196,5731,1,1,10.9,3.5,Metro Montgomery Station/Downtown,37.788702,-122.401925,KT,INGLESIDE/THIRD
1197,5731,1,1,9.5,2.1,Metro Montgomery Station/Downtown,37.788702,-122.401925,S,CASTRO SHUTTLE
1198,5731,1,1,10.5,3.6,Metro Montgomery Station/Downtown,37.788702,-122.401925,L,TARAVAL
1199,5731,1,1,11.5,3.6,Metro Montgomery Station/Downtown,37.788702,-122.401925,M,OCEAN VIEW
1196,5779,1,1,10.6,3.7,Ocean Ave & Aptos Ave,37.728285,-122.467561,KT,INGLESIDE/THIRD
1196,5780,1,0,10.6,3.7,Ocean Ave & Aptos Ave,37.728383,-122.467871,KT,INGLESIDE/THIRD
1196,5784,1,1,10.6,3.7,OCEAN AVE/CCSF Pedestrian Bridge,37.72304,-122.451448,KT,INGLESIDE/THIRD
1196,5785,1,0,10.6,3.7,OCEAN AVE/CCSF Pedestrian Bridge,37.722947,-122.450866,KT,INGLESIDE/THIRD
1196,5786,1,0,10.6,3.7,Ocean Ave & Cerritos Ave,37.727252,-122.46676,KT,INGLESIDE/THIRD
1196,5787,1,1,10.6,3.7,Ocean Ave & Dorado Ter,37.724957,-122.461059,KT,INGLESIDE/THIRD
1196,5788,1,1,10.6,3.7,Ocean Ave & Fairfield Way,37.726008,-122.464072,KT,INGLESIDE/THIRD
1196,5793,1,0,10.6,3.7,Ocean Ave & Jules Ave,37.724955,-122.46139,KT,INGLESIDE/THIRD
1196,5794,1,1,10.6,3.7,Ocean Ave & Lee St,37.723459,-122.453999,KT,INGLESIDE/THIRD
1196,5795,1,0,10.6,3.7,Ocean Ave & Lee St,37.723451,-122.454217,KT,INGLESIDE/THIRD
1196,5797,1,1,10.6,3.7,Ocean Ave & Miramar Ave,37.724387,-122.458077,KT,INGLESIDE/THIRD
1196,5798,1,0,10.6,3.7,Ocean Ave & Miramar Ave,37.724262,-122.458306,KT,INGLESIDE/THIRD
1196,5806,1,1,10.6,3.7,Ocean Ave & San Leandro Way,37.729989,-122.469097,KT,INGLESIDE/THIRD
1196,5807,1,0,10.6,3.7,Ocean Ave & San Leandro Way,37.729945,-122.469475,KT,INGLESIDE/THIRD
1196,5808,1,0,10.6,3.7,Ocean Ave & Victoria St,37.726029,-122.464337,KT,INGLESIDE/THIRD
1196,5809,1,1,10.6,3.7,Ocean Ave & Westgate Dr,37.727199,-122.46648,KT,INGLESIDE/THIRD
1199,5825,1,0,11.6,3.8,Orizaba Ave & Broad St,37.713328,-122.462585,M,OCEAN VIEW
1199,6172,1,1,11.1,3.9,Randolph St & Arch St,37.714342,-122.466982,M,OCEAN VIEW
1199,6173,1,0,11.6,3.8,Randolph St & Arch St,37.714201,-122.467218,M,OCEAN VIEW
1199,6174,1,1,11.1,3.9,Randolph St & Bright St,37.714348,-122.463392,M,OCEAN VIEW
1199,6175,1,0,11.6,3.8,Randolph St & Bright St,37.71424,-122.46361,M,OCEAN VIEW
1094,6213,1,1,11.4,8.0,Right Of Way/18th St,37.761192,-122.428184,J,CHURCH
7820,6213,1,1,18.5,10.1,Right Of Way/18th St,37.761192,-122.428184,F,MARKET & WHARVES
1094,6214,1,0,11.3,3.7,Right Of Way/20th St,37.758264,-122.427924,J,CHURCH
7820,6214,1,0,16.1,7.7,Right Of Way/20th St,37.758264,-122.427924,F,MARKET & WHARVES
1094,6215,1,1,11.4,8.0,Right Of Way/20th St,37.758229,-122.427795,J,CHURCH
7820,6215,1,1,18.5,10.1,Right Of Way/20th St,37.758229,-122.427795,F,MARKET & WHARVES
1094,6216,1,0,11.3,3.7,Right Of Way/21st St,37.756643,-122.426922,J,CHURCH
7820,6216,1,0,16.1,7.7,Right Of Way/21st St,37.756643,-122.426922,F,MARKET & WHARVES
1094,6217,1,1,11.4,8.0,Right Of Way/21st St,37.756436,-122.426822,J,CHURCH
7820,6217,1,1,18.5,10.1,Right Of Way/21st St,37.756436,-122.426822,F,MARKET & WHARVES
1094,6218,1,0,11.3,3.7,Right Of Way/22nd St,37.754607,-122.42775,J,CHURCH
7820,6218,1,0,16.1,7.7,Right Of Way/22nd St,37.754607,-122.42775,F,MARKET & WHARVES
1199,6219,1,0,11.6,3.8,Right Of Way/Eucalyptus Dr,37.73119,-122.47435,M,OCEAN VIEW
1199,6220,1,1,11.1,3.9,Right Of Way/Eucalyptus Dr,37.730987,-122.474366,M,OCEAN VIEW
1094,6221,1,0,11.3,3.7,Right Of Way/Liberty St,37.757451,-122.426999,J,CHURCH
7820,6221,1,0,16.1,7.7,Right Of Way/Liberty St,37.757451,-122.426999,F,MARKET & WHARVES
1094,6222,1,1,11.4,8.0,Right Of Way/Liberty St,37.757239,-122.426867,J,CHURCH
7820,6222,1,1,18.5,10.1,Right Of Way/Liberty St,37.757239,-122.426867,F,MARKET & WHARVES
1199,6223,1,0,11.6,3.8,Right Of Way/Ocean Ave,37.732022,-122.473719,M,OCEAN VIEW
1199,6224,1,1,11.1,3.9,Right Of Way/Ocean Ave,37.731808,-122.473815,M,OCEAN VIEW
1199,6257,1,1,11.1,3.9,San Jose Ave & Farallones St,37.714153,-122.452148,M,OCEAN VIEW
1199,6259,1,0,11.6,3.8,San Jose Ave & Farallones St,37.71407,-122.45208,M,OCEAN VIEW
7820,6260,1,1,18.4,10.2,San Jose Ave & Geneva Ave,37.720827,-122.446474,F,MARKET & WHARVES
1199,6262,1,1,11.2,3.9,San Jose Ave & Geneva Ave,37.720631,-122.446818,M,OCEAN VIEW
7820,6263,1,0,16.0,7.7,San Jose Ave & Geneva Ave,37.720676,-122.446783,F,MARKET & WHARVES
1199,6265,1,1,11.1,3.9,San Jose Ave & Lakeview Ave,37.71626,-122.450334,M,OCEAN VIEW
1199,6266,1,0,11.6,3.8,San Jose Ave & Lakeview Ave,37.716083,-122.450435,M,OCEAN VIEW
1199,6268,1,0,11.6,3.8,San Jose Ave & Mt Vernon Ave,37.718284,-122.448593,M,OCEAN VIEW
1199,6269,1,0,11.6,3.8,San Jose Ave & Niagra Ave,37.7194,-122.44762,M,OCEAN VIEW
1094,6274,1,0,11.3,3.7,San Jose Ave & Ocean Ave,37.723085,-122.444699,J,CHURCH
7820,6274,1,0,16.0,7.7,San Jose Ave & Ocean Ave,37.723085,-122.444699,F,MARKET & WHARVES
1094,6275,1,1,11.4,8.0,San Jose Ave & Ocean Ave,37.722862,-122.44479,J,CHURCH
7820,6275,1,1,18.4,10.2,San Jose Ave & Ocean Ave,37.722862,-122.44479,F,MARKET & WHARVES
1094,6277,1,1,11.4,8.0,San Jose Ave & Randall St,37.739741,-122.424157,J,CHURCH
7820,6277,1,1,18.5,10.2,San Jose Ave & Randall St,37.739741,-122.424157,F,MARKET & WHARVES
1094,6280,1,0,11.3,3.7,San Jose Ave & Randall St,37.739385,-122.42432,J,CHURCH
7820,6280,1,0,16.0,7.7,San Jose Ave & Randall St,37.739385,-122.42432,F,MARKET & WHARVES
1094,6284,1,1,11.4,8.0,San Jose Ave & Santa Rosa Ave,37.728991,-122.439922,J,CHURCH
7820,6284,1,1,18.4,10.2,San Jose Ave & Santa Rosa Ave,37.728991,-122.439922,F,MARKET & WHARVES
1094,6285,1,0,11.3,3.7,San Jose Ave & Santa Rosa Ave,37.728996,-122.440016,J,CHURCH
7820,6285,1,0,16.0,7.7,San Jose Ave & Santa Rosa Ave,37.728996,-122.440016,F,MARKET & WHARVES
1094,6287,1,0,11.3,3.7,San Jose Ave & Santa Ynez Ave,37.725877,-122.442359,J,CHURCH
7820,6287,1,0,16.0,7.7,San Jose Ave & Santa Ynez Ave,37.725877,-122.442359,F,MARKET & WHARVES
1094,6288,1,1,11.4,8.0,San Jose Ave & Santa Ynez Ave,37.725681,-122.442442,J,CHURCH
7820,6288,1,1,18.4,10.2,San Jose Ave & Santa Ynez Ave,37.725681,-122.442442,F,MARKET & WHARVES
7820,6347,1,1,18.4,10.2,San Jose Ave & Geneva Ave,37.720524,-122.446657,F,MARKET & WHARVES
1196,6503,1,0,10.7,3.7,West Portal/Sloat/St Francis Circle,37.734807,-122.471618,KT,INGLESIDE/THIRD
1199,6503,1,0,11.6,3.9,West Portal/Sloat/St Francis Circle,37.734807,-122.471618,M,OCEAN VIEW
1198,6614,1,0,10.2,3.8,Taraval St & 17th Ave,37.743204,-122.473429,L,TARAVAL
1198,6615,1,1,10.1,3.9,Taraval St & 17th Ave,37.743068,-122.473705,L,TARAVAL
1198,6616,1,0,10.2,3.8,Taraval St & 19th Ave,37.74311,-122.475444,L,TARAVAL
1198,6617,1,1,10.1,3.9,Taraval St & 19th Ave,37.742971,-122.475821,L,TARAVAL
1198,6618,1,0,10.2,3.8,Taraval St & 22nd Ave,37.742967,-122.478791,L,TARAVAL
1198,6619,1,1,10.1,3.9,Taraval St & 22nd Ave,37.74289,-122.478426,L,TARAVAL
1198,6620,1,0,10.2,3.8,Taraval St & 23rd Ave,37.742872,-122.48045,L,TARAVAL
1198,6621,1,1,10.1,3.9,Taraval St & 24th Ave,37.742735,-122.481199,L,TARAVAL
1198,6622,1,0,10.2,3.8,Taraval St & 26th Ave,37.74278,-122.483068,L,TARAVAL
1198,6623,1,1,10.1,3.9,Taraval St & 26th Ave,37.742653,-122.483324,L,TARAVAL
1198,6624,1,0,10.2,3.8,Taraval St & 28th Ave,37.742684,-122.485212,L,TARAVAL
1198,6625,1,1,10.1,3.9,Taraval St & 28th Ave,37.74254,-122.485467,L,TARAVAL
1198,6626,1,0,10.2,3.8,Taraval St & 30th Ave,37.74259,-122.487338,L,TARAVAL
1198,6627,1,1,10.1,3.9,Taraval St & 30th Ave,37.742461,-122.487615,L,TARAVAL
1198,6628,1,0,10.2,3.8,Taraval St & 32nd Ave,37.74249,-122.489489,L,TARAVAL
1198,6629,1,1,10.1,3.9,Taraval St & 32nd Ave,37.742355,-122.489749,L,TARAVAL
1198,6630,1,0,10.2,3.8,Taraval St & 35th Ave,37.742354,-122.492708,L,TARAVAL
1198,6631,1,1,10.1,3.9,Taraval St & 35th Ave,37.742235,-122.492961,L,TARAVAL
1198,6632,1,0,10.2,3.8,Taraval St & 40th Ave,37.742124,-122.498055,L,TARAVAL
1198,6633,1,1,10.1,3.9,Taraval St & 40th Ave,37.74199,-122.498316,L,TARAVAL
1198,6634,1,0,10.2,3.8,Taraval St & 42nd Ave,37.742021,-122.500202,L,TARAVAL
1198,6635,1,1,10.1,3.9,Taraval St & 42nd Ave,37.7419,-122.500461,L,TARAVAL
1198,6636,1,0,10.2,3.8,Taraval St & 44th Ave,37.741924,-122.502346,L,TARAVAL
1198,6637,1,1,10.1,3.9,Taraval St & 44th Ave,37.741804,-122.502606,L,TARAVAL
1198,6638,1,0,10.2,3.8,Taraval St & 46th Ave,37.741823,-122.50449,L,TARAVAL
1198,6640,1,0,10.2,3.8,Taraval St & Sunset Blvd,37.742267,-122.494218,L,TARAVAL
1198,6641,1,1,10.1,3.9,Taraval St & Sunset Blvd,37.742179,-122.494651,L,TARAVAL
1198,6736,1,0,10.2,3.8,Ulloa St & Forest Side Ave,37.741535,-122.46847,L,TARAVAL
1198,6737,1,1,10.1,3.9,Ulloa St & Forest Side Ave,37.741435,-122.4688,L,TARAVAL
1196,6739,1,0,11.1,3.5,West Portal Station,37.740956,-122.4658,KT,INGLESIDE/THIRD
1198,6739,1,0,10.6,3.8,West Portal Station,37.740956,-122.4658,L,TARAVAL
1199,6739,1,0,11.6,3.9,West Portal Station,37.740956,-122.4658,M,OCEAN VIEW
1196,6740,1,1,11.0,3.6,West Portal Station,37.74092,-122.465777,KT,INGLESIDE/THIRD
1198,6740,1,1,10.5,3.6,West Portal Station,37.74092,-122.465777,L,TARAVAL
1199,6740,1,1,11.5,3.6,West Portal Station,37.74092,-122.465777,M,OCEAN VIEW
1196,6898,1,1,10.6,3.7,West Portal Ave & 14th Ave,37.737859,-122.469042,KT,INGLESIDE/THIRD
1199,6898,1,1,11.1,3.9,West Portal Ave & 14th Ave,37.737859,-122.469042,M,OCEAN VIEW
1198,6932,1,0,10.2,3.8,Wawona/46th Ave /SF Zoo,37.736125,-122.504351,L,TARAVAL
1198,6932,1,1,10.1,3.9,Wawona/46th Ave /SF Zoo,37.736125,-122.504351,L,TARAVAL
1196,6991,1,0,11.1,3.5,Metro Castro Station/Outbound,37.762683,-122.435289,KT,INGLESIDE/THIRD
1197,6991,1,0,9.5,1.6,Metro Castro Station/Outbound,37.762683,-122.435289,S,CASTRO SHUTTLE
1198,6991,1,0,10.6,3.8,Metro Castro Station/Outbound,37.762683,-122.435289,L,TARAVAL
1199,6991,1,0,11.6,3.9,Metro Castro Station/Outbound,37.762683,-122.435289,M,OCEAN VIEW
1093,6992,1,1,9.1,2.6,Metro Embarcadero Station,37.793143,-122.396396,N,JUDAH
1094,6992,1,1,11.1,3.7,Metro Embarcadero Station,37.793143,-122.396396,J,CHURCH
1196,6992,1,1,10.9,3.6,Metro Embarcadero Station,37.793143,-122.396396,KT,INGLESIDE/THIRD
1197,6992,1,1,9.5,2.1,Metro Embarcadero Station,37.793143,-122.396396,S,CASTRO SHUTTLE
1198,6992,1,1,10.5,3.6,Metro Embarcadero Station,37.793143,-122.396396,L,TARAVAL
1199,6992,1,1,11.5,3.6,Metro Embarcadero Station,37.793143,-122.396396,M,OCEAN VIEW
1196,6993,1,0,11.1,3.5,Forest Hill Station Outbound,37.74817,-122.459192,KT,INGLESIDE/THIRD
1198,6993,1,0,10.6,3.8,Forest Hill Station Outbound,37.74817,-122.459192,L,TARAVAL
1199,6993,1,0,11.6,3.9,Forest Hill Station Outbound,37.74817,-122.459192,M,OCEAN VIEW
1093,6994,1,0,9.5,3.2,Metro Montgomery Station/Outbound,37.788791,-122.402127,N,JUDAH
1094,6994,1,0,11.3,3.5,Metro Montgomery Station/Outbound,37.788791,-122.402127,J,CHURCH
1196,6994,1,0,11.1,3.5,Metro Montgomery Station/Outbound,37.788791,-122.402127,KT,INGLESIDE/THIRD
1197,6994,1,0,9.5,1.6,Metro Montgomery Station/Outbound,37.788791,-122.402127,S,CASTRO SHUTTLE
1198,6994,1,0,10.6,3.8,Metro Montgomery Station/Outbound,37.788791,-122.402127,L,TARAVAL
1199,6994,1,0,11.6,3.9,Metro Montgomery Station/Outbound,37.788791,-122.402127,M,OCEAN VIEW
1093,6995,1,0,9.5,3.2,Metro Powell Station/Outbound,37.7843,-122.407822,N,JUDAH
1094,6995,1,0,11.3,3.5,Metro Powell Station/Outbound,37.7843,-122.407822,J,CHURCH
1196,6995,1,0,11.1,3.5,Metro Powell Station/Outbound,37.7843,-122.407822,KT,INGLESIDE/THIRD
1197,6995,1,0,9.5,1.6,Metro Powell Station/Outbound,37.7843,-122.407822,S,CASTRO SHUTTLE
1198,6995,1,0,10.6,3.8,Metro Powell Station/Outbound,37.7843,-122.407822,L,TARAVAL
1199,6995,1,0,11.6,3.9,Metro Powell Station/Outbound,37.7843,-122.407822,M,OCEAN VIEW
1093,6996,1,0,10.1,7.4,Van Ness Station Outbound,37.775234,-122.41934,N,JUDAH
1094,6996,1,0,11.3,3.5,Van Ness Station Outbound,37.775234,-122.41934,J,CHURCH
1196,6996,1,0,11.1,3.5,Van Ness Station Outbound,37.775234,-122.41934,KT,INGLESIDE/THIRD
1197,6996,1,0,9.5,1.6,Van Ness Station Outbound,37.775234,-122.41934,S,CASTRO SHUTTLE
1198,6996,1,0,10.6,3.8,Van Ness Station Outbound,37.775234,-122.41934,L,TARAVAL
1199,6996,1,0,11.6,3.9,Van Ness Station Outbound,37.775234,-122.41934,M,OCEAN VIEW
1093,6997,1,0,9.5,3.2,Metro Civic Center Station/Outbd,37.778675,-122.414995,N,JUDAH
1094,6997,1,0,11.3,3.5,Metro Civic Center Station/Outbd,37.778675,-122.414995,J,CHURCH
1196,6997,1,0,11.1,3.5,Metro Civic Center Station/Outbd,37.778675,-122.414995,KT,INGLESIDE/THIRD
1197,6997,1,0,9.5,1.6,Metro Civic Center Station/Outbd,37.778675,-122.414995,S,CASTRO SHUTTLE
1198,6997,1,0,10.6,3.8,Metro Civic Center Station/Outbd,37.778675,-122.414995,L,TARAVAL
1199,6997,1,0,11.6,3.9,Metro Civic Center Station/Outbd,37.778675,-122.414995,M,OCEAN VIEW
1196,6998,1,0,11.1,3.5,Metro Church Station/Outbound,37.767327,-122.429321,KT,INGLESIDE/THIRD
1197,6998,1,0,9.5,1.6,Metro Church Station/Outbound,37.767327,-122.429321,S,CASTRO SHUTTLE
1198,6998,1,0,10.6,3.8,Metro Church Station/Outbound,37.767327,-122.429321,L,TARAVAL
1199,6998,1,0,11.6,3.9,Metro Church Station/Outbound,37.767327,-122.429321,M,OCEAN VIEW
1196,7058,1,0,10.7,3.7,West Portal Ave & Ulloa St,37.740893,-122.465846,KT,INGLESIDE/THIRD
1196,7058,1,1,10.6,3.7,West Portal Ave & Ulloa St,37.740893,-122.465846,KT,INGLESIDE/THIRD
1198,7058,1,0,10.2,3.8,West Portal Ave & Ulloa St,37.740893,-122.465846,L,TARAVAL
1198,7058,1,1,10.1,3.9,West Portal Ave & Ulloa St,37.740893,-122.465846,L,TARAVAL
1199,7058,1,0,11.6,3.9,West Portal Ave & Ulloa St,37.740893,-122.465846,M,OCEAN VIEW
1199,7058,1,1,11.2,3.9,West Portal Ave & Ulloa St,37.740893,-122.465846,M,OCEAN VIEW
1199,7065,1,1,11.2,3.9,19th Ave & Holloway Ave,37.721244,-122.475096,M,OCEAN VIEW
1094,7073,1,1,11.4,8.0,Church St & Market St,37.767384,-122.428893,J,CHURCH
7820,7073,1,1,,,Church St & Market St,37.767384,-122.428893,F,MARKET & WHARVES
1196,7109,1,1,10.6,3.7,West Portal/Sloat/St Francis Circle,37.734825,-122.471446,KT,INGLESIDE/THIRD
1199,7109,1,1,11.2,3.9,West Portal/Sloat/St Francis Circle,37.734825,-122.471446,M,OCEAN VIEW
1199,7111,1,1,11.2,3.9,San Jose Ave & Mt Vernon Ave,37.71847,-122.44864,M,OCEAN VIEW
1196,7113,1,1,10.6,3.7,Junipero Serra Blvd & Ocean Ave,37.731628,-122.471707,KT,INGLESIDE/THIRD
1196,7114,1,0,10.6,3.7,Junipero Serra Blvd & Ocean Ave,37.731271,-122.471818,KT,INGLESIDE/THIRD
1196,7125,1,0,10.7,3.7,West Portal Ave & 14th Ave,37.738064,-122.468984,KT,INGLESIDE/THIRD
1199,7125,1,0,11.6,3.9,West Portal Ave & 14th Ave,37.738064,-122.468984,M,OCEAN VIEW
1093,7145,1,0,9.4,3.2,The Embarcadero & Brannan St,37.784627,-122.387977,N,JUDAH
1196,7145,1,0,10.9,3.4,The Embarcadero & Brannan St,37.784627,-122.387977,KT,INGLESIDE/THIRD
1093,7162,1,0,9.5,5.4,Duboce Ave & Church St - Ramp,37.769463,-122.429133,N,JUDAH
1093,7162,1,1,9.1,3.2,Duboce Ave & Church St - Ramp,37.769463,-122.429133,N,JUDAH
1094,7162,1,0,11.3,3.7,Duboce Ave & Church St - Ramp,37.769463,-122.429133,J,CHURCH
1094,7162,1,1,11.3,8.0,Duboce Ave & Church St - Ramp,37.769463,-122.429133,J,CHURCH
1199,7164,1,1,11.2,3.9,SAN JOSE AVE & GENEVA AVE,37.720613,-122.446577,M,OCEAN VIEW
1199,7165,1,0,11.6,3.8,SAN JOSE AVE & GENEVA AVE,37.720622,-122.446566,M,OCEAN VIEW
1196,7166,1,0,10.1,3.6,4th St & King St,37.776278,-122.393864,KT,INGLESIDE/THIRD
1093,7217,1,0,10.0,7.4,Metro Embarcadero Station,37.793152,-122.396431,N,JUDAH
1094,7217,1,0,11.3,3.5,Metro Embarcadero Station,37.793152,-122.396431,J,CHURCH
1196,7217,1,0,10.8,3.5,Metro Embarcadero Station,37.793152,-122.396431,KT,INGLESIDE/THIRD
1197,7217,1,0,9.5,1.6,Metro Embarcadero Station,37.793152,-122.396431,S,CASTRO SHUTTLE
1198,7217,1,0,10.6,3.8,Metro Embarcadero Station,37.793152,-122.396431,L,TARAVAL
1199,7217,1,0,11.6,3.9,Metro Embarcadero Station,37.793152,-122.396431,M,OCEAN VIEW
1093,7219,1,0,9.1,3.1,Judah/La Playa/Ocean Beach,37.760348,-122.509201,N,JUDAH
1093,7252,1,0,9.0,3.1,Duboce St/Noe St/Duboce Park,37.769392,-122.433694,N,JUDAH
7820,7264,1,1,6.7,3.0,Market St & 1st St,37.79094,-122.399195,F,MARKET & WHARVES
7820,7281,1,1,6.7,3.0,Embarcadero & Sansome St,37.805146,-122.403233,F,MARKET & WHARVES
7820,7283,1,0,6.7,2.9,The Embarcadero & Ferry Building,37.794828,-122.39377,F,MARKET & WHARVES
1094,7316,1,0,11.3,3.7,Church St & 14th St,37.767786,-122.428996,J,CHURCH
1093,7318,1,1,9.1,3.2,Sunset Tunnel East Portal,37.769134,-122.433076,N,JUDAH
1196,7342,1,1,10.9,3.4,Third Street/Gilman/Paul,37.722413,-122.395644,KT,INGLESIDE/THIRD
1196,7343,1,0,11.1,3.6,Third Street & Carroll Ave,37.725491,-122.394222,KT,INGLESIDE/THIRD
1196,7344,1,1,10.9,3.4,Third Street & Carroll Ave,37.725464,-122.394256,KT,INGLESIDE/THIRD
1196,7345,1,0,11.1,3.6,Third Street & Williams Ave,37.729291,-122.392604,KT,INGLESIDE/THIRD
1196,7346,1,1,10.9,3.4,Third Street & Williams Ave,37.729264,-122.392638,KT,INGLESIDE/THIRD
1196,7347,1,0,11.2,3.6,Third Street/Gilman/Paul,37.722449,-122.39561,KT,INGLESIDE/THIRD
1196,7352,1,0,11.1,3.7,Third Street & Evans Ave,37.742726,-122.38792,KT,INGLESIDE/THIRD
1196,7353,1,0,11.1,3.7,Third Street & Marin St,37.748999,-122.387445,KT,INGLESIDE/THIRD
1196,7354,1,0,10.1,3.6,Third Street & 23rd St,37.755414,-122.388001,KT,INGLESIDE/THIRD
1196,7355,1,0,10.1,3.6,Third Street & 20th St,37.760518,-122.388558,KT,INGLESIDE/THIRD
1196,7356,1,0,10.1,3.6,Third Street & Mariposa St,37.764391,-122.388853,KT,INGLESIDE/THIRD
1196,7357,1,0,10.2,3.5,UCSF/Mission Bay,37.769049,-122.389308,KT,INGLESIDE/THIRD
1196,7358,1,0,10.2,3.5,Third Street & Mission Rock St,37.772993,-122.389717,KT,INGLESIDE/THIRD
1196,7359,1,1,10.3,2.9,Third Street & Mission Rock St,37.772832,-122.389717,KT,INGLESIDE/THIRD
1196,7360,1,1,10.3,2.9,UCSF/Mission Bay,37.76854,-122.389274,KT,INGLESIDE/THIRD
1196,7361,1,1,10.3,2.9,Third Street & Mariposa St,37.764239,-122.388865,KT,INGLESIDE/THIRD
1196,7362,1,1,10.4,2.8,Third Street & 20th St,37.760376,-122.388558,KT,INGLESIDE/THIRD
1196,7363,1,1,10.4,2.8,Third Street & 23rd St,37.75529,-122.388012,KT,INGLESIDE/THIRD
1196,7364,1,1,10.9,3.4,Third Street & Marin St,37.749079,-122.387479,KT,INGLESIDE/THIRD
1196,7365,1,1,10.9,3.4,Third Street & Evans Ave,37.742727,-122.388034,KT,INGLESIDE/THIRD
1093,7380,1,0,9.4,3.2,The Embarcadero & Harrison St,37.78957,-122.388489,N,JUDAH
1093,7380,1,1,9.0,2.6,The Embarcadero & Harrison St,37.78957,-122.388489,N,JUDAH
1094,7380,1,1,30.0,,The Embarcadero & Harrison St,37.78957,-122.388489,J,CHURCH
1196,7380,1,0,10.9,3.4,The Embarcadero & Harrison St,37.78957,-122.388489,KT,INGLESIDE/THIRD
1196,7380,1,1,11.1,3.2,The Embarcadero & Harrison St,37.78957,-122.388489,KT,INGLESIDE/THIRD
1196,7390,1,1,10.9,3.4,Third Street/Hudson/Innes,37.739916,-122.388907,KT,INGLESIDE/THIRD
1196,7391,1,1,10.9,3.4,Third Street/Kirkwood/La Salle,37.737641,-122.389711,KT,INGLESIDE/THIRD
1196,7392,1,1,10.9,3.4,Third Street/Oakdale/Palou,37.73435,-122.390859,KT,INGLESIDE/THIRD
1196,7393,1,1,10.9,3.4,Third Street/Revere/Shafter,37.73228,-122.391536,KT,INGLESIDE/THIRD
1196,7394,1,1,10.9,3.4,Third Street & Le Conte Ave,37.718827,-122.397491,KT,INGLESIDE/THIRD
1196,7395,1,1,10.9,3.4,Bay Shore Blvd/Arleta/Blanken,37.712253,-122.402316,KT,INGLESIDE/THIRD
1196,7396,1,1,10.9,3.4,Bay Shore Blvd & Sunnydale Ave,37.70897,-122.405055,KT,INGLESIDE/THIRD
1196,7397,1,1,10.4,2.8,4th St & King St,37.776252,-122.394036,KT,INGLESIDE/THIRD
1196,7398,1,0,11.3,3.6,Bay Shore Blvd & Sunnydale Ave,37.708997,-122.405021,KT,INGLESIDE/THIRD
1196,7399,1,0,11.2,3.5,Bay Shore Blvd/Arleta/Blanken,37.712226,-122.402339,KT,INGLESIDE/THIRD
1196,7401,1,0,11.1,3.6,Third Street/Revere/Shafter,37.732262,-122.391502,KT,INGLESIDE/THIRD
1196,7402,1,0,11.1,3.7,Third Street/Oakdale/Palou,37.734358,-122.390836,KT,INGLESIDE/THIRD
1196,7403,1,0,11.1,3.7,Third Street/Kirkwood/La Salle,37.737641,-122.389688,KT,INGLESIDE/THIRD
1196,7404,1,0,11.1,3.7,Third Street/Hudson/Innes,37.739916,-122.388884,KT,INGLESIDE/THIRD
1196,7440,1,0,16.7,9.9,Muni Metro East/Not a public stop,37.752808,-122.386823,KT,INGLESIDE/THIRD
1196,7440,1,1,24.2,15.4,Muni Metro East/Not a public stop,37.752808,-122.386823,KT,INGLESIDE/THIRD
1199,7449,1,1,11.1,3.9,19th Ave & Winston Dr,37.727195,-122.474846,M,OCEAN VIEW
7820,3092,2,0,6.6,3.0,Beach St & Mason St,37.807407,-122.414125,F,MARKET & WHARVES
7820,3095,2,0,6.7,2.9,Beach St & Stockton St,37.807841,-122.41081,F,MARKET & WHARVES
1093,3212,2,1,11.5,3.5,9th Ave & Irving St,37.763913,-122.466241,N,JUDAH
1198,3266,2,0,12.6,4.4,15th Ave & Taraval St,37.743124,-122.471297,L,TARAVAL
1198,3267,2,1,12.5,4.5,15th Ave & Taraval St,37.743069,-122.471405,L,TARAVAL
1198,3268,2,0,12.6,4.4,15th Ave & Ulloa St,37.741525,-122.471192,L,TARAVAL
1198,3269,2,1,12.5,4.5,15th Ave & Ulloa St,37.741484,-122.4713,L,TARAVAL
7820,3308,2,0,16.2,7.8,Church St & 18th St,37.76281,-122.4285,F,MARKET & WHARVES
7820,3311,2,0,7.1,3.5,17th St & Castro St,37.76252,-122.434866,F,MARKET & WHARVES
7820,3311,2,1,6.7,3.0,17th St & Castro St,37.76252,-122.434866,F,MARKET & WHARVES
7820,3318,2,0,16.2,7.8,17th St & Noe St,37.762645,-122.432991,F,MARKET & WHARVES
1199,3358,2,0,14.6,4.4,19th Ave & Holloway Ave,37.721074,-122.475233,M,OCEAN VIEW
1199,3361,2,1,14.3,4.2,19th Ave & Junipero Serra Blvd,37.716889,-122.472275,M,OCEAN VIEW
1199,3376,2,0,14.6,4.4,19th Ave & Randolph St,37.7162,-122.47167,M,OCEAN VIEW
1199,3385,2,1,14.3,4.2,19th Ave & Randolph St,37.714282,-122.469618,M,OCEAN VIEW
1199,3387,2,0,14.6,4.4,19th Ave & Randolph St,37.714443,-122.469998,M,OCEAN VIEW
1199,3403,2,0,14.6,4.4,19th Ave & Winston Dr,37.727017,-122.474937,M,OCEAN VIEW
1094,3537,2,1,15.6,3.4,30th St & Dolores St,37.742304,-122.424026,J,CHURCH
7820,3537,2,1,18.5,10.2,30th St & Dolores St,37.742304,-122.424026,F,MARKET & WHARVES
1094,3538,2,0,16.0,4.2,30th St & Dolores St,37.74217,-122.424457,J,CHURCH
7820,3538,2,0,16.0,7.8,30th St & Dolores St,37.74217,-122.424457,F,MARKET & WHARVES
1198,3599,2,1,12.5,4.4,46th Ave & Taraval St,37.741685,-122.504534,L,TARAVAL
1198,3600,2,0,12.6,4.4,46th Ave & Ulloa St,37.739998,-122.504579,L,TARAVAL
1198,3601,2,1,12.5,4.4,46th Ave & Ulloa St,37.739829,-122.504407,L,TARAVAL
1198,3602,2,0,12.6,4.4,46th Ave & Vicente St,37.738142,-122.50444,L,TARAVAL
1198,3603,2,1,12.5,4.4,46th Ave & Vicente St,37.737973,-122.504268,L,TARAVAL
1199,3715,2,1,14.3,4.2,Broad St & Capitol Ave,37.713191,-122.458921,M,OCEAN VIEW
1199,3716,2,0,14.6,4.4,Broad St & Capitol Ave,37.713152,-122.459159,M,OCEAN VIEW
1199,3717,2,1,14.3,4.2,Broad St & Orizaba Ave,37.713178,-122.462331,M,OCEAN VIEW
1199,3718,2,1,14.4,4.3,Broad St & Plymouth Ave,37.713222,-122.455927,M,OCEAN VIEW
1199,3719,2,0,14.6,4.5,Broad St & Plymouth Ave,37.713161,-122.45618,M,OCEAN VIEW
1093,3909,2,0,11.6,3.5,Carl St & Cole St,37.765863,-122.449804,N,JUDAH
1093,3911,2,1,11.5,3.5,Carl St & Cole St,37.765745,-122.450131,N,JUDAH
1093,3912,2,0,11.6,3.5,Carl St & Hillway Ave,37.765003,-122.456561,N,JUDAH
1093,3913,2,1,11.5,3.5,Carl St & Hillway Ave,37.764932,-122.456512,N,JUDAH
1093,3914,2,0,11.6,3.5,Carl St & Stanyan St,37.765495,-122.45259,N,JUDAH
1093,3915,2,1,11.5,3.5,Carl St & Stanyan St,37.765371,-122.452928,N,JUDAH
1094,3984,2,0,16.0,4.2,Church St & 16th St,37.764621,-122.428722,J,CHURCH
1094,3985,2,1,15.6,3.4,Church St & 16th St,37.764382,-122.428609,J,CHURCH
7820,3985,2,1,,,Church St & 16th St,37.764382,-122.428609,F,MARKET & WHARVES
7820,3986,2,1,18.6,10.1,Church St & 17th St,37.76281,-122.4285,F,MARKET & WHARVES
1094,3987,2,0,16.0,4.2,Church St & 18th St,37.761467,-122.428416,J,CHURCH
7820,3987,2,0,16.1,7.8,Church St & 18th St,37.761467,-122.428416,F,MARKET & WHARVES
1094,3994,2,1,15.6,3.4,Church St & 22nd St,37.754785,-122.427659,J,CHURCH
7820,3994,2,1,18.5,10.2,Church St & 22nd St,37.754785,-122.427659,F,MARKET & WHARVES
1094,3995,2,0,16.0,4.2,Church St & 24th St,37.7518,-122.427497,J,CHURCH
7820,3995,2,0,16.1,7.8,Church St & 24th St,37.7518,-122.427497,F,MARKET & WHARVES
1094,3996,2,1,15.6,3.4,Church St & 24th St,37.751591,-122.42735,J,CHURCH
7820,3996,2,1,18.5,10.2,Church St & 24th St,37.751591,-122.42735,F,MARKET & WHARVES
1094,3997,2,0,16.0,4.2,Church St & 27th St,37.746985,-122.427073,J,CHURCH
7820,3997,2,0,16.1,7.8,Church St & 27th St,37.746985,-122.427073,F,MARKET & WHARVES
1094,3998,2,1,15.6,3.4,Church St & 27th St,37.746781,-122.426893,J,CHURCH
7820,3998,2,1,18.5,10.2,Church St & 27th St,37.746781,-122.426893,F,MARKET & WHARVES
1094,3999,2,1,15.6,3.4,Church St & 29th St,37.743587,-122.426585,J,CHURCH
7820,3999,2,1,18.5,10.2,Church St & 29th St,37.743587,-122.426585,F,MARKET & WHARVES
1094,4000,2,1,15.6,3.4,Church St & 30th St,37.742222,-122.426459,J,CHURCH
7820,4000,2,1,18.5,10.2,Church St & 30th St,37.742222,-122.426459,F,MARKET & WHARVES
1094,4001,2,0,16.0,4.2,Church St & 30th St,37.742097,-122.426528,J,CHURCH
7820,4001,2,0,16.1,7.8,Church St & 30th St,37.742097,-122.426528,F,MARKET & WHARVES
1094,4002,2,0,16.0,4.2,Church St & Clipper St,37.749388,-122.427289,J,CHURCH
7820,4002,2,0,16.1,7.8,Church St & Clipper St,37.749388,-122.427289,F,MARKET & WHARVES
1094,4003,2,1,15.6,3.4,Church St & Clipper St,37.749182,-122.427122,J,CHURCH
7820,4003,2,1,18.5,10.2,Church St & Clipper St,37.749182,-122.427122,F,MARKET & WHARVES
1094,4004,2,0,16.0,4.2,Church St & Day St,37.742811,-122.426654,J,CHURCH
7820,4004,2,0,16.1,7.8,Church St & Day St,37.742811,-122.426654,F,MARKET & WHARVES
1094,4006,2,1,15.6,3.4,Church St & Duboce Ave,37.769302,-122.429087,J,CHURCH
1093,4447,2,0,11.6,3.5,Duboce Ave & Church St,37.769472,-122.429408,N,JUDAH
1093,4448,2,1,11.5,3.5,Duboce Ave & Church St,37.769409,-122.4294,N,JUDAH
7820,4501,2,1,6.7,3.0,The Embarcadero & Bay St,37.806945,-122.406278,F,MARKET & WHARVES
7820,4502,2,0,6.7,2.9,The Embarcadero & Bay St,37.806629,-122.40603,F,MARKET & WHARVES
7820,4503,2,1,6.7,3.0,THE EMBARCADERO & BROADWAY,37.799552,-122.397869,F,MARKET & WHARVES
7820,4504,2,0,6.7,2.9,THE EMBARCADERO & BROADWAY,37.798901,-122.397434,F,MARKET & WHARVES
1093,4506,2,1,11.3,3.2,The Embarcadero & Brannan St,37.784359,-122.388138,N,JUDAH
1196,4506,2,1,12.9,3.5,The Embarcadero & Brannan St,37.784359,-122.388138,KT,INGLESIDE/THIRD
1093,4509,2,1,11.3,3.2,The Embarcadero & Folsom St,37.790481,-122.389692,N,JUDAH
1196,4509,2,1,12.9,3.5,The Embarcadero & Folsom St,37.790481,-122.389692,KT,INGLESIDE/THIRD
1093,4510,2,0,11.6,3.4,The Embarcadero & Folsom St,37.790749,-122.389841,N,JUDAH
1196,4510,2,0,13.0,3.7,The Embarcadero & Folsom St,37.790749,-122.389841,KT,INGLESIDE/THIRD
7820,4513,2,1,6.7,3.0,THE EMBARCADERO/Ferry Building,37.795105,-122.393861,F,MARKET & WHARVES
7820,4515,2,1,6.7,3.0,The Embarcadero & Greenwich St,37.803263,-122.401113,F,MARKET & WHARVES
7820,4516,2,0,6.7,2.9,The Embarcadero & Greenwich St,37.80296,-122.401029,F,MARKET & WHARVES
7820,4517,2,1,6.7,3.0,The Embarcadero & Green St,37.801264,-122.399369,F,MARKET & WHARVES
7820,4518,2,0,6.7,2.9,The Embarcadero & Green St,37.800605,-122.39892,F,MARKET & WHARVES
7820,4529,2,0,6.7,2.9,The Embarcadero & Sansome St,37.805022,-122.403314,F,MARKET & WHARVES
7820,4530,2,1,6.7,3.0,The Embarcadero & Stockton St,37.808351,-122.410287,F,MARKET & WHARVES
7820,4532,2,1,6.7,3.0,The Embarcadero & Washington St,37.797085,-122.39567,F,MARKET & WHARVES
7820,4534,2,0,6.7,2.9,The Embarcadero & Washington St,37.796355,-122.395181,F,MARKET & WHARVES
7820,4726,2,0,6.7,2.9,Don Chee Way/Steuart St,37.794105,-122.393874,F,MARKET & WHARVES
7820,4727,2,1,6.7,3.0,Don Chee Way/Steuart St,37.7939,-122.39345,F,MARKET & WHARVES
1094,4787,2,1,15.6,3.4,San Jose Ave/Glen Park Station,37.732525,-122.433416,J,CHURCH
7820,4787,2,1,18.5,10.2,San Jose Ave/Glen Park Station,37.732525,-122.433416,F,MARKET & WHARVES
1094,4788,2,0,16.0,4.2,San Jose Ave/Glen Park Station,37.732401,-122.433855,J,CHURCH
7820,4788,2,0,16.0,7.8,San Jose Ave/Glen Park Station,37.732401,-122.433855,F,MARKET & WHARVES
1093,5118,2,0,11.6,3.4,Irving St & 2nd Ave,37.764441,-122.458643,N,JUDAH
1093,5119,2,0,11.6,3.4,Irving St & 4th Ave,37.764299,-122.460824,N,JUDAH
1093,5120,2,1,11.5,3.5,Irving St & 4th Ave,37.764226,-122.461061,N,JUDAH
1093,5121,2,0,11.6,3.4,Irving St & 7th Ave,37.764155,-122.464034,N,JUDAH
1093,5122,2,1,11.5,3.5,Irving St & 7th Ave,37.764092,-122.464282,N,JUDAH
1093,5123,2,0,11.6,3.4,Irving St & 9th Ave,37.764106,-122.466165,N,JUDAH
1093,5124,2,1,11.5,3.5,Irving St & Arguello Blvd,37.764366,-122.458024,N,JUDAH
7820,5174,2,1,6.7,3.0,Jefferson St & Powell St,37.808594,-122.413357,F,MARKET & WHARVES
7820,5175,2,1,6.7,3.0,Jefferson St & Taylor St,37.80832,-122.415514,F,MARKET & WHARVES
7820,5184,2,0,6.7,2.9,Jones St & Beach St,37.807248,-122.417366,F,MARKET & WHARVES
7820,5184,2,1,6.7,3.0,Jones St & Beach St,37.807248,-122.417366,F,MARKET & WHARVES
1093,5193,2,0,11.6,3.4,Judah St & 9th Ave,37.762227,-122.466688,N,JUDAH
1093,5194,2,1,11.5,3.5,Judah St & 9th Ave,37.762139,-122.466312,N,JUDAH
1093,5195,2,0,11.6,3.4,Judah St & 12th Ave,37.762069,-122.469324,N,JUDAH
1093,5196,2,1,11.5,3.5,Judah St & 12th Ave,37.761988,-122.469526,N,JUDAH
1093,5197,2,1,11.5,3.5,Judah St & 15th Ave,37.761848,-122.472777,N,JUDAH
1093,5198,2,0,11.6,3.4,Judah St & 16th Ave,37.761913,-122.473781,N,JUDAH
1093,5199,2,0,11.6,3.5,Judah St & 19th Ave,37.76174,-122.476825,N,JUDAH
1093,5200,2,1,11.5,3.5,Judah St & 19th Ave,37.761655,-122.477194,N,JUDAH
1093,5201,2,1,11.5,3.5,Judah St & 22nd Ave,37.761534,-122.479855,N,JUDAH
1093,5202,2,0,11.6,3.4,Judah St & 23rd Ave,37.761547,-122.481164,N,JUDAH
1093,5203,2,0,11.6,3.4,Judah St & 25th Ave,37.761452,-122.4833,N,JUDAH
1093,5204,2,1,11.5,3.5,Judah St & 25th Ave,37.761373,-122.48356,N,JUDAH
1093,5205,2,0,11.6,3.4,Judah St & 28th Ave,37.76131,-122.48651,N,JUDAH
1093,5206,2,1,11.5,3.5,Judah St & 28th Ave,37.761232,-122.486763,N,JUDAH
1093,5207,2,0,11.6,3.4,Judah St & 31st Ave,37.761172,-122.489719,N,JUDAH
1093,5208,2,1,11.5,3.5,Judah St & 31st Ave,37.761105,-122.4895,N,JUDAH
1093,5209,2,0,11.6,3.4,Judah St & 34th Ave,37.761028,-122.49293,N,JUDAH
1093,5210,2,1,11.5,3.5,Judah St & 34th Ave,37.760955,-122.493199,N,JUDAH
1093,5211,2,0,11.5,3.4,Judah St & 40th Ave,37.760743,-122.499359,N,JUDAH
1093,5212,2,1,11.5,3.5,Judah St & 40th Ave,37.760679,-122.499154,N,JUDAH
1093,5213,2,0,11.5,3.4,Judah St & 43rd Ave,37.760598,-122.502574,N,JUDAH
1093,5214,2,1,11.4,3.4,Judah St & 43rd Ave,37.760518,-122.502839,N,JUDAH
1093,5215,2,0,11.5,3.4,Judah St & 46th Ave,37.760493,-122.505832,N,JUDAH
1093,5216,2,1,11.4,3.4,Judah St & 46th Ave,37.760392,-122.506064,N,JUDAH
1093,5219,2,0,11.6,3.4,Judah St & Funston Ave,37.762075,-122.470329,N,JUDAH
1093,5220,2,1,11.5,3.5,Judah St & Funston Ave,37.76195,-122.470572,N,JUDAH
1093,5221,2,0,11.5,3.4,Judah/La Playa/Ocean Beach,37.760363,-122.509011,N,JUDAH
1093,5223,2,1,11.5,3.4,Judah/La Playa/Ocean Beach,37.76017,-122.508777,N,JUDAH
1093,5224,2,0,11.6,3.4,Judah St & Sunset Blvd,37.760912,-122.495565,N,JUDAH
1093,5225,2,1,11.5,3.5,Judah St & Sunset Blvd,37.760828,-122.495964,N,JUDAH
1093,5234,2,1,11.3,3.2,King St & 2nd St,37.77972,-122.389872,N,JUDAH
1196,5234,2,1,12.9,3.5,King St & 2nd St,37.77972,-122.389872,KT,INGLESIDE/THIRD
1093,5237,2,0,11.5,3.4,King St & 2nd St,37.779621,-122.389824,N,JUDAH
1196,5237,2,0,13.0,3.6,King St & 2nd St,37.779621,-122.389824,KT,INGLESIDE/THIRD
1093,5239,2,1,11.3,3.2,King St & 4th St,37.776207,-122.394231,N,JUDAH
1093,5240,2,0,11.6,3.4,King St & 4th St,37.776058,-122.394364,N,JUDAH
1093,5417,2,1,11.4,3.1,Metro Powell Station/Downtown,37.784199,-122.407695,N,JUDAH
1094,5417,2,1,16.0,2.7,Metro Powell Station/Downtown,37.784199,-122.407695,J,CHURCH
1196,5417,2,1,13.0,3.2,Metro Powell Station/Downtown,37.784199,-122.407695,KT,INGLESIDE/THIRD
1198,5417,2,1,12.4,4.2,Metro Powell Station/Downtown,37.784199,-122.407695,L,TARAVAL
1199,5417,2,1,14.1,3.4,Metro Powell Station/Downtown,37.784199,-122.407695,M,OCEAN VIEW
1196,5418,2,0,13.8,6.2,Balboa Park BART/Mezzanine Level,37.720876,-122.446651,KT,INGLESIDE/THIRD
1196,5418,2,1,13.1,3.8,Balboa Park BART/Mezzanine Level,37.720876,-122.446651,KT,INGLESIDE/THIRD
1093,5419,2,1,11.4,3.1,Metro Van Ness Station,37.775069,-122.419193,N,JUDAH
1094,5419,2,1,16.0,2.7,Metro Van Ness Station,37.775069,-122.419193,J,CHURCH
1196,5419,2,1,13.4,3.9,Metro Van Ness Station,37.775069,-122.419193,KT,INGLESIDE/THIRD
1198,5419,2,1,12.4,4.2,Metro Van Ness Station,37.775069,-122.419193,L,TARAVAL
1199,5419,2,1,14.1,3.4,Metro Van Ness Station,37.775069,-122.419193,M,OCEAN VIEW
1094,5448,2,0,16.0,4.2,Balboa Park BART/Mezzanine level,37.720899,-122.446657,J,CHURCH
1094,5448,2,1,15.6,3.4,Balboa Park BART/Mezzanine level,37.720899,-122.446657,J,CHURCH
7820,5639,2,0,6.7,2.9,Market St & 2nd St,37.789353,-122.401306,F,MARKET & WHARVES
7820,5640,2,1,6.7,3.0,Market St & 3rd St,37.787525,-122.403519,F,MARKET & WHARVES
7820,5643,2,1,6.7,3.0,Market St & 4th St,37.785652,-122.405893,F,MARKET & WHARVES
7820,5645,2,1,6.7,3.0,Market St & 5th St,37.783886,-122.408141,F,MARKET & WHARVES
7820,5647,2,1,6.7,3.0,Market St & 6th St,37.782102,-122.4104,F,MARKET & WHARVES
7820,5650,2,1,6.7,3.0,Market St & 7th St,37.780363,-122.412613,F,MARKET & WHARVES
7820,5651,2,1,6.7,3.0,Market St & 8th St,37.778606,-122.414826,F,MARKET & WHARVES
7820,5652,2,1,6.7,3.0,Market St & 9th St,37.77741,-122.41634,F,MARKET & WHARVES
7820,5655,2,0,6.7,2.9,Market St & 5th  St,37.784082,-122.407992,F,MARKET & WHARVES
7820,5656,2,0,6.7,2.9,Market St & 7th St,37.780568,-122.412441,F,MARKET & WHARVES
7820,5657,2,0,6.7,2.9,Market St & Battery St,37.79111,-122.399069,F,MARKET & WHARVES
7820,5659,2,0,6.7,2.9,Market St & Buchanan St,37.769786,-122.426149,F,MARKET & WHARVES
7820,5661,2,0,6.7,2.9,Market St & Church St,37.767829,-122.428628,F,MARKET & WHARVES
7820,5662,2,1,6.7,3.0,Market St & Church St,37.767259,-122.42915,F,MARKET & WHARVES
7820,5668,2,1,6.7,3.0,Market St & Dolores St,37.76888,-122.427103,F,MARKET & WHARVES
7820,5669,2,0,6.7,2.9,Market St & Drumm St,37.793473,-122.396178,F,MARKET & WHARVES
7820,5672,2,0,6.7,2.9,Market St & Gough St,37.773269,-122.421768,F,MARKET & WHARVES
7820,5673,2,1,6.7,3.0,Market St & Gough St,37.772875,-122.421991,F,MARKET & WHARVES
7820,5675,2,1,6.7,3.0,Market St & Guerrero St,37.77057,-122.424971,F,MARKET & WHARVES
7820,5676,2,0,6.7,2.9,Market St & Hyde St,37.779105,-122.414379,F,MARKET & WHARVES
7820,5678,2,0,6.7,2.9,Market St & Kearny St,37.78773,-122.40337,F,MARKET & WHARVES
7820,5679,2,0,6.7,2.9,Market St & Larkin St,37.777589,-122.416213,F,MARKET & WHARVES
7820,5681,2,0,6.7,2.9,Market St & Laguna St,37.770953,-122.424666,F,MARKET & WHARVES
7820,5682,2,1,6.7,3.0,Market St & Main St,37.792984,-122.396627,F,MARKET & WHARVES
7820,5685,2,1,6.7,3.0,Market St & New Montgomery St,37.788613,-122.402163,F,MARKET & WHARVES
7820,5686,2,0,6.6,2.9,Market St & Noe St,37.764489,-122.432812,F,MARKET & WHARVES
7820,5687,2,1,6.7,3.0,Market St & Noe St,37.763958,-122.433323,F,MARKET & WHARVES
7820,5690,2,0,6.6,2.9,Market St & Sanchez St,37.766185,-122.430707,F,MARKET & WHARVES
7820,5691,2,1,6.7,3.0,Market St & Sanchez St,37.765689,-122.43114,F,MARKET & WHARVES
7820,5692,2,1,6.7,3.0,Market St & South Van Ness Ave,37.775056,-122.419321,F,MARKET & WHARVES
7820,5694,2,0,6.7,2.9,Market St & Stockton St,37.785857,-122.405744,F,MARKET & WHARVES
7820,5695,2,0,6.7,2.9,Market St & Taylor St,37.782316,-122.410228,F,MARKET & WHARVES
7820,5696,2,0,6.7,2.9,Market St & Van Ness Ave,37.775243,-122.419183,F,MARKET & WHARVES
1196,5726,2,1,13.1,3.3,Metro Church Station/Downtown,37.767194,-122.429168,KT,INGLESIDE/THIRD
1198,5726,2,1,12.4,4.2,Metro Church Station/Downtown,37.767194,-122.429168,L,TARAVAL
1199,5726,2,1,14.1,3.4,Metro Church Station/Downtown,37.767194,-122.429168,M,OCEAN VIEW
1093,5727,2,1,11.4,3.1,Metro Civic Center Station/Downtn,37.778542,-122.414813,N,JUDAH
1094,5727,2,1,16.0,2.7,Metro Civic Center Station/Downtn,37.778542,-122.414813,J,CHURCH
1196,5727,2,1,13.0,3.2,Metro Civic Center Station/Downtn,37.778542,-122.414813,KT,INGLESIDE/THIRD
1198,5727,2,1,12.4,4.2,Metro Civic Center Station/Downtn,37.778542,-122.414813,L,TARAVAL
1199,5727,2,1,14.1,3.4,Metro Civic Center Station/Downtn,37.778542,-122.414813,M,OCEAN VIEW
1196,5728,2,1,13.4,3.9,Metro Castro Station/Downtown,37.762576,-122.435231,KT,INGLESIDE/THIRD
1198,5728,2,1,12.4,4.2,Metro Castro Station/Downtown,37.762576,-122.435231,L,TARAVAL
1199,5728,2,1,14.1,3.4,Metro Castro Station/Downtown,37.762576,-122.435231,M,OCEAN VIEW
1196,5730,2,1,13.1,3.2,Metro Forest Hill Station/Downtown,37.748351,-122.458623,KT,INGLESIDE/THIRD
1198,5730,2,1,12.4,4.2,Metro Forest Hill Station/Downtown,37.748351,-122.458623,L,TARAVAL
1199,5730,2,1,14.1,3.4,Metro Forest Hill Station/Downtown,37.748351,-122.458623,M,OCEAN VIEW
1093,5731,2,1,11.4,3.1,Metro Montgomery Station/Downtown,37.788702,-122.401925,N,JUDAH
1094,5731,2,1,16.0,2.7,Metro Montgomery Station/Downtown,37.788702,-122.401925,J,CHURCH
1196,5731,2,1,13.0,3.2,Metro Montgomery Station/Downtown,37.788702,-122.401925,KT,INGLESIDE/THIRD
1198,5731,2,1,12.4,4.2,Metro Montgomery Station/Downtown,37.788702,-122.401925,L,TARAVAL
1199,5731,2,1,14.1,3.4,Metro Montgomery Station/Downtown,37.788702,-122.401925,M,OCEAN VIEW
1196,5779,2,1,13.0,3.9,Ocean Ave & Aptos Ave,37.728285,-122.467561,KT,INGLESIDE/THIRD
1196,5780,2,0,13.8,6.2,Ocean Ave & Aptos Ave,37.728383,-122.467871,KT,INGLESIDE/THIRD
1196,5784,2,1,13.0,3.9,OCEAN AVE/CCSF Pedestrian Bridge,37.72304,-122.451448,KT,INGLESIDE/THIRD
1196,5785,2,0,13.8,6.2,OCEAN AVE/CCSF Pedestrian Bridge,37.722947,-122.450866,KT,INGLESIDE/THIRD
1196,5786,2,0,13.8,6.2,Ocean Ave & Cerritos Ave,37.727252,-122.46676,KT,INGLESIDE/THIRD
1196,5787,2,1,13.0,3.9,Ocean Ave & Dorado Ter,37.724957,-122.461059,KT,INGLESIDE/THIRD
1196,5788,2,1,13.0,3.9,Ocean Ave & Fairfield Way,37.726008,-122.464072,KT,INGLESIDE/THIRD
1196,5793,2,0,13.8,6.2,Ocean Ave & Jules Ave,37.724955,-122.46139,KT,INGLESIDE/THIRD
1196,5794,2,1,13.0,3.9,Ocean Ave & Lee St,37.723459,-122.453999,KT,INGLESIDE/THIRD
1196,5795,2,0,13.8,6.2,Ocean Ave & Lee St,37.723451,-122.454217,KT,INGLESIDE/THIRD
1196,5797,2,1,13.0,3.9,Ocean Ave & Miramar Ave,37.724387,-122.458077,KT,INGLESIDE/THIRD
1196,5798,2,0,13.8,6.2,Ocean Ave & Miramar Ave,37.724262,-122.458306,KT,INGLESIDE/THIRD
1196,5806,2,1,13.0,3.9,Ocean Ave & San Leandro Way,37.729989,-122.469097,KT,INGLESIDE/THIRD
1196,5807,2,0,13.8,6.2,Ocean Ave & San Leandro Way,37.729945,-122.469475,KT,INGLESIDE/THIRD
1196,5808,2,0,13.8,6.2,Ocean Ave & Victoria St,37.726029,-122.464337,KT,INGLESIDE/THIRD
1196,5809,2,1,13.0,3.9,Ocean Ave & Westgate Dr,37.727199,-122.46648,KT,INGLESIDE/THIRD
1199,5825,2,0,14.6,4.4,Orizaba Ave & Broad St,37.713328,-122.462585,M,OCEAN VIEW
1199,6172,2,1,14.3,4.2,Randolph St & Arch St,37.714342,-122.466982,M,OCEAN VIEW
1199,6173,2,0,14.6,4.4,Randolph St & Arch St,37.714201,-122.467218,M,OCEAN VIEW
1199,6174,2,1,14.3,4.2,Randolph St & Bright St,37.714348,-122.463392,M,OCEAN VIEW
1199,6175,2,0,14.6,4.4,Randolph St & Bright St,37.71424,-122.46361,M,OCEAN VIEW
1094,6213,2,1,15.6,3.4,Right Of Way/18th St,37.761192,-122.428184,J,CHURCH
7820,6213,2,1,18.5,10.2,Right Of Way/18th St,37.761192,-122.428184,F,MARKET & WHARVES
1094,6214,2,0,16.0,4.2,Right Of Way/20th St,37.758264,-122.427924,J,CHURCH
7820,6214,2,0,16.1,7.8,Right Of Way/20th St,37.758264,-122.427924,F,MARKET & WHARVES
1094,6215,2,1,15.6,3.4,Right Of Way/20th St,37.758229,-122.427795,J,CHURCH
7820,6215,2,1,18.5,10.2,Right Of Way/20th St,37.758229,-122.427795,F,MARKET & WHARVES
1094,6216,2,0,16.0,4.2,Right Of Way/21st St,37.756643,-122.426922,J,CHURCH
7820,6216,2,0,16.1,7.8,Right Of Way/21st St,37.756643,-122.426922,F,MARKET & WHARVES
1094,6217,2,1,15.6,3.4,Right Of Way/21st St,37.756436,-122.426822,J,CHURCH
7820,6217,2,1,18.5,10.2,Right Of Way/21st St,37.756436,-122.426822,F,MARKET & WHARVES
1094,6218,2,0,16.0,4.2,Right Of Way/22nd St,37.754607,-122.42775,J,CHURCH
7820,6218,2,0,16.1,7.8,Right Of Way/22nd St,37.754607,-122.42775,F,MARKET & WHARVES
1199,6219,2,0,14.6,4.4,Right Of Way/Eucalyptus Dr,37.73119,-122.47435,M,OCEAN VIEW
1199,6220,2,1,14.3,4.2,Right Of Way/Eucalyptus Dr,37.730987,-122.474366,M,OCEAN VIEW
1094,6221,2,0,16.0,4.2,Right Of Way/Liberty St,37.757451,-122.426999,J,CHURCH
7820,6221,2,0,16.1,7.8,Right Of Way/Liberty St,37.757451,-122.426999,F,MARKET & WHARVES
1094,6222,2,1,15.6,3.4,Right Of Way/Liberty St,37.757239,-122.426867,J,CHURCH
7820,6222,2,1,18.5,10.2,Right Of Way/Liberty St,37.757239,-122.426867,F,MARKET & WHARVES
1199,6223,2,0,14.6,4.4,Right Of Way/Ocean Ave,37.732022,-122.473719,M,OCEAN VIEW
1199,6224,2,1,14.3,4.2,Right Of Way/Ocean Ave,37.731808,-122.473815,M,OCEAN VIEW
1199,6257,2,1,14.5,4.0,San Jose Ave & Farallones St,37.714153,-122.452148,M,OCEAN VIEW
1199,6259,2,0,14.6,4.5,San Jose Ave & Farallones St,37.71407,-122.45208,M,OCEAN VIEW
7820,6260,2,1,18.5,10.3,San Jose Ave & Geneva Ave,37.720827,-122.446474,F,MARKET & WHARVES
1199,6262,2,1,14.5,4.0,San Jose Ave & Geneva Ave,37.720631,-122.446818,M,OCEAN VIEW
7820,6263,2,0,16.0,7.8,San Jose Ave & Geneva Ave,37.720676,-122.446783,F,MARKET & WHARVES
1199,6265,2,1,14.5,4.0,San Jose Ave & Lakeview Ave,37.71626,-122.450334,M,OCEAN VIEW
1199,6266,2,0,14.6,4.5,San Jose Ave & Lakeview Ave,37.716083,-122.450435,M,OCEAN VIEW
1199,6268,2,0,14.6,4.5,San Jose Ave & Mt Vernon Ave,37.718284,-122.448593,M,OCEAN VIEW
1199,6269,2,0,14.6,4.5,San Jose Ave & Niagra Ave,37.7194,-122.44762,M,OCEAN VIEW
1094,6274,2,0,16.0,4.2,San Jose Ave & Ocean Ave,37.723085,-122.444699,J,CHURCH
7820,6274,2,0,16.0,7.8,San Jose Ave & Ocean Ave,37.723085,-122.444699,F,MARKET & WHARVES
1094,6275,2,1,15.6,3.4,San Jose Ave & Ocean Ave,37.722862,-122.44479,J,CHURCH
7820,6275,2,1,18.4,10.3,San Jose Ave & Ocean Ave,37.722862,-122.44479,F,MARKET & WHARVES
1094,6277,2,1,15.6,3.4,San Jose Ave & Randall St,37.739741,-122.424157,J,CHURCH
7820,6277,2,1,18.5,10.2,San Jose Ave & Randall St,37.739741,-122.424157,F,MARKET & WHARVES
1094,6280,2,0,16.0,4.2,San Jose Ave & Randall St,37.739385,-122.42432,J,CHURCH
7820,6280,2,0,16.0,7.8,San Jose Ave & Randall St,37.739385,-122.42432,F,MARKET & WHARVES
1094,6284,2,1,15.6,3.4,San Jose Ave & Santa Rosa Ave,37.728991,-122.439922,J,CHURCH
7820,6284,2,1,18.4,10.3,San Jose Ave & Santa Rosa Ave,37.728991,-122.439922,F,MARKET & WHARVES
1094,6285,2,0,16.0,4.2,San Jose Ave & Santa Rosa Ave,37.728996,-122.440016,J,CHURCH
7820,6285,2,0,16.0,7.8,San Jose Ave & Santa Rosa Ave,37.728996,-122.440016,F,MARKET & WHARVES
1094,6287,2,0,16.0,4.2,San Jose Ave & Santa Ynez Ave,37.725877,-122.442359,J,CHURCH
7820,6287,2,0,16.0,7.8,San Jose Ave & Santa Ynez Ave,37.725877,-122.442359,F,MARKET & WHARVES
1094,6288,2,1,15.6,3.4,San Jose Ave & Santa Ynez Ave,37.725681,-122.442442,J,CHURCH
7820,6288,2,1,18.4,10.3,San Jose Ave & Santa Ynez Ave,37.725681,-122.442442,F,MARKET & WHARVES
7820,6347,2,1,18.5,10.3,San Jose Ave & Geneva Ave,37.720524,-122.446657,F,MARKET & WHARVES
1196,6503,2,0,13.8,6.2,West Portal/Sloat/St Francis Circle,37.734807,-122.471618,KT,INGLESIDE/THIRD
1199,6503,2,0,14.6,4.4,West Portal/Sloat/St Francis Circle,37.734807,-122.471618,M,OCEAN VIEW
1198,6614,2,0,12.6,4.4,Taraval St & 17th Ave,37.743204,-122.473429,L,TARAVAL
1198,6615,2,1,12.5,4.5,Taraval St & 17th Ave,37.743068,-122.473705,L,TARAVAL
1198,6616,2,0,12.6,4.4,Taraval St & 19th Ave,37.74311,-122.475444,L,TARAVAL
1198,6617,2,1,12.5,4.5,Taraval St & 19th Ave,37.742971,-122.475821,L,TARAVAL
1198,6618,2,0,12.6,4.4,Taraval St & 22nd Ave,37.742967,-122.478791,L,TARAVAL
1198,6619,2,1,12.5,4.4,Taraval St & 22nd Ave,37.74289,-122.478426,L,TARAVAL
1198,6620,2,0,12.6,4.4,Taraval St & 23rd Ave,37.742872,-122.48045,L,TARAVAL
1198,6621,2,1,12.5,4.4,Taraval St & 24th Ave,37.742735,-122.481199,L,TARAVAL
1198,6622,2,0,12.6,4.4,Taraval St & 26th Ave,37.74278,-122.483068,L,TARAVAL
1198,6623,2,1,12.5,4.4,Taraval St & 26th Ave,37.742653,-122.483324,L,TARAVAL
1198,6624,2,0,12.6,4.4,Taraval St & 28th Ave,37.742684,-122.485212,L,TARAVAL
1198,6625,2,1,12.5,4.4,Taraval St & 28th Ave,37.74254,-122.485467,L,TARAVAL
1198,6626,2,0,12.6,4.4,Taraval St & 30th Ave,37.74259,-122.487338,L,TARAVAL
1198,6627,2,1,12.5,4.4,Taraval St & 30th Ave,37.742461,-122.487615,L,TARAVAL
1198,6628,2,0,12.6,4.4,Taraval St & 32nd Ave,37.74249,-122.489489,L,TARAVAL
1198,6629,2,1,12.5,4.4,Taraval St & 32nd Ave,37.742355,-122.489749,L,TARAVAL
1198,6630,2,0,12.6,4.4,Taraval St & 35th Ave,37.742354,-122.492708,L,TARAVAL
1198,6631,2,1,12.5,4.4,Taraval St & 35th Ave,37.742235,-122.492961,L,TARAVAL
1198,6632,2,0,12.6,4.4,Taraval St & 40th Ave,37.742124,-122.498055,L,TARAVAL
1198,6633,2,1,12.5,4.4,Taraval St & 40th Ave,37.74199,-122.498316,L,TARAVAL
1198,6634,2,0,12.6,4.4,Taraval St & 42nd Ave,37.742021,-122.500202,L,TARAVAL
1198,6635,2,1,12.5,4.4,Taraval St & 42nd Ave,37.7419,-122.500461,L,TARAVAL
1198,6636,2,0,12.6,4.4,Taraval St & 44th Ave,37.741924,-122.502346,L,TARAVAL
1198,6637,2,1,12.5,4.4,Taraval St & 44th Ave,37.741804,-122.502606,L,TARAVAL
1198,6638,2,0,12.6,4.4,Taraval St & 46th Ave,37.741823,-122.50449,L,TARAVAL
1198,6640,2,0,12.6,4.4,Taraval St & Sunset Blvd,37.742267,-122.494218,L,TARAVAL
1198,6641,2,1,12.5,4.4,Taraval St & Sunset Blvd,37.742179,-122.494651,L,TARAVAL
1198,6736,2,0,12.6,4.4,Ulloa St & Forest Side Ave,37.741535,-122.46847,L,TARAVAL
1198,6737,2,1,12.5,4.5,Ulloa St & Forest Side Ave,37.741435,-122.4688,L,TARAVAL
1196,6739,2,0,13.6,3.2,West Portal Station,37.740956,-122.4658,KT,INGLESIDE/THIRD
1198,6739,2,0,12.5,4.1,West Portal Station,37.740956,-122.4658,L,TARAVAL
1199,6739,2,0,14.2,3.4,West Portal Station,37.740956,-122.4658,M,OCEAN VIEW
1196,6740,2,1,13.4,3.9,West Portal Station,37.74092,-122.465777,KT,INGLESIDE/THIRD
1198,6740,2,1,12.4,4.2,West Portal Station,37.74092,-122.465777,L,TARAVAL
1199,6740,2,1,14.1,3.4,West Portal Station,37.74092,-122.465777,M,OCEAN VIEW
1196,6898,2,1,13.1,3.8,West Portal Ave & 14th Ave,37.737859,-122.469042,KT,INGLESIDE/THIRD
1199,6898,2,1,14.3,4.3,West Portal Ave & 14th Ave,37.737859,-122.469042,M,OCEAN VIEW
1198,6932,2,0,12.6,4.4,Wawona/46th Ave /SF Zoo,37.736125,-122.504351,L,TARAVAL
1198,6932,2,1,12.5,4.4,Wawona/46th Ave /SF Zoo,37.736125,-122.504351,L,TARAVAL
1196,6991,2,0,13.6,3.3,Metro Castro Station/Outbound,37.762683,-122.435289,KT,INGLESIDE/THIRD
1198,6991,2,0,12.5,4.1,Metro Castro Station/Outbound,37.762683,-122.435289,L,TARAVAL
1199,6991,2,0,14.2,3.4,Metro Castro Station/Outbound,37.762683,-122.435289,M,OCEAN VIEW
1093,6992,2,1,11.3,3.2,Metro Embarcadero Station,37.793143,-122.396396,N,JUDAH
1094,6992,2,1,16.0,2.6,Metro Embarcadero Station,37.793143,-122.396396,J,CHURCH
1196,6992,2,1,13.2,4.1,Metro Embarcadero Station,37.793143,-122.396396,KT,INGLESIDE/THIRD
1198,6992,2,1,12.4,4.2,Metro Embarcadero Station,37.793143,-122.396396,L,TARAVAL
1199,6992,2,1,14.1,3.4,Metro Embarcadero Station,37.793143,-122.396396,M,OCEAN VIEW
1196,6993,2,0,13.5,3.2,Forest Hill Station Outbound,37.74817,-122.459192,KT,INGLESIDE/THIRD
1198,6993,2,0,12.5,4.1,Forest Hill Station Outbound,37.74817,-122.459192,L,TARAVAL
1199,6993,2,0,14.2,3.4,Forest Hill Station Outbound,37.74817,-122.459192,M,OCEAN VIEW
1093,6994,2,0,11.5,3.4,Metro Montgomery Station/Outbound,37.788791,-122.402127,N,JUDAH
1094,6994,2,0,16.2,2.1,Metro Montgomery Station/Outbound,37.788791,-122.402127,J,CHURCH
1196,6994,2,0,13.5,3.3,Metro Montgomery Station/Outbound,37.788791,-122.402127,KT,INGLESIDE/THIRD
1198,6994,2,0,12.5,4.1,Metro Montgomery Station/Outbound,37.788791,-122.402127,L,TARAVAL
1199,6994,2,0,14.2,3.4,Metro Montgomery Station/Outbound,37.788791,-122.402127,M,OCEAN VIEW
1093,6995,2,0,11.5,3.4,Metro Powell Station/Outbound,37.7843,-122.407822,N,JUDAH
1094,6995,2,0,16.2,2.1,Metro Powell Station/Outbound,37.7843,-122.407822,J,CHURCH
1196,6995,2,0,13.5,3.3,Metro Powell Station/Outbound,37.7843,-122.407822,KT,INGLESIDE/THIRD
1198,6995,2,0,12.5,4.1,Metro Powell Station/Outbound,37.7843,-122.407822,L,TARAVAL
1199,6995,2,0,14.2,3.4,Metro Powell Station/Outbound,37.7843,-122.407822,M,OCEAN VIEW
1093,6996,2,0,11.6,3.4,Van Ness Station Outbound,37.775234,-122.41934,N,JUDAH
1094,6996,2,0,16.2,2.1,Van Ness Station Outbound,37.775234,-122.41934,J,CHURCH
1196,6996,2,0,13.6,3.3,Van Ness Station Outbound,37.775234,-122.41934,KT,INGLESIDE/THIRD
1198,6996,2,0,12.5,4.1,Van Ness Station Outbound,37.775234,-122.41934,L,TARAVAL
1199,6996,2,0,14.2,3.4,Van Ness Station Outbound,37.775234,-122.41934,M,OCEAN VIEW
1093,6997,2,0,11.5,3.4,Metro Civic Center Station/Outbd,37.778675,-122.414995,N,JUDAH
1094,6997,2,0,16.2,2.1,Metro Civic Center Station/Outbd,37.778675,-122.414995,J,CHURCH
1196,6997,2,0,13.5,3.3,Metro Civic Center Station/Outbd,37.778675,-122.414995,KT,INGLESIDE/THIRD
1198,6997,2,0,12.5,4.1,Metro Civic Center Station/Outbd,37.778675,-122.414995,L,TARAVAL
1199,6997,2,0,14.2,3.4,Metro Civic Center Station/Outbd,37.778675,-122.414995,M,OCEAN VIEW
1196,6998,2,0,13.6,3.3,Metro Church Station/Outbound,37.767327,-122.429321,KT,INGLESIDE/THIRD
1198,6998,2,0,12.5,4.1,Metro Church Station/Outbound,37.767327,-122.429321,L,TARAVAL
1199,6998,2,0,14.2,3.4,Metro Church Station/Outbound,37.767327,-122.429321,M,OCEAN VIEW
1196,7058,2,0,13.8,6.2,West Portal Ave & Ulloa St,37.740893,-122.465846,KT,INGLESIDE/THIRD
1196,7058,2,1,13.1,3.8,West Portal Ave & Ulloa St,37.740893,-122.465846,KT,INGLESIDE/THIRD
1198,7058,2,0,12.6,4.4,West Portal Ave & Ulloa St,37.740893,-122.465846,L,TARAVAL
1198,7058,2,1,12.5,4.4,West Portal Ave & Ulloa St,37.740893,-122.465846,L,TARAVAL
1199,7058,2,0,14.6,4.4,West Portal Ave & Ulloa St,37.740893,-122.465846,M,OCEAN VIEW
1199,7058,2,1,14.4,4.3,West Portal Ave & Ulloa St,37.740893,-122.465846,M,OCEAN VIEW
1199,7065,2,1,14.4,4.2,19th Ave & Holloway Ave,37.721244,-122.475096,M,OCEAN VIEW
1094,7073,2,1,15.6,3.4,Church St & Market St,37.767384,-122.428893,J,CHURCH
7820,7073,2,1,,,Church St & Market St,37.767384,-122.428893,F,MARKET & WHARVES
1196,7109,2,1,13.1,3.8,West Portal/Sloat/St Francis Circle,37.734825,-122.471446,KT,INGLESIDE/THIRD
1199,7109,2,1,14.4,4.3,West Portal/Sloat/St Francis Circle,37.734825,-122.471446,M,OCEAN VIEW
1199,7111,2,1,14.5,4.0,San Jose Ave & Mt Vernon Ave,37.71847,-122.44864,M,OCEAN VIEW
1196,7113,2,1,13.0,3.9,Junipero Serra Blvd & Ocean Ave,37.731628,-122.471707,KT,INGLESIDE/THIRD
1196,7114,2,0,13.8,6.2,Junipero Serra Blvd & Ocean Ave,37.731271,-122.471818,KT,INGLESIDE/THIRD
1196,7125,2,0,13.8,6.2,West Portal Ave & 14th Ave,37.738064,-122.468984,KT,INGLESIDE/THIRD
1199,7125,2,0,14.6,4.4,West Portal Ave & 14th Ave,37.738064,-122.468984,M,OCEAN VIEW
1093,7145,2,0,11.5,3.4,The Embarcadero & Brannan St,37.784627,-122.387977,N,JUDAH
1196,7145,2,0,13.0,3.6,The Embarcadero & Brannan St,37.784627,-122.387977,KT,INGLESIDE/THIRD
1093,7162,2,0,11.6,3.5,Duboce Ave & Church St - Ramp,37.769463,-122.429133,N,JUDAH
1093,7162,2,1,11.5,3.5,Duboce Ave & Church St - Ramp,37.769463,-122.429133,N,JUDAH
1094,7162,2,0,16.0,4.2,Duboce Ave & Church St - Ramp,37.769463,-122.429133,J,CHURCH
1094,7162,2,1,15.6,3.4,Duboce Ave & Church St - Ramp,37.769463,-122.429133,J,CHURCH
1199,7164,2,1,14.4,4.3,SAN JOSE AVE & GENEVA AVE,37.720613,-122.446577,M,OCEAN VIEW
1199,7165,2,0,14.6,4.5,SAN JOSE AVE & GENEVA AVE,37.720622,-122.446566,M,OCEAN VIEW
1196,7166,2,0,12.6,4.1,4th St & King St,37.776278,-122.393864,KT,INGLESIDE/THIRD
1093,7217,2,0,11.6,3.4,Metro Embarcadero Station,37.793152,-122.396431,N,JUDAH
1094,7217,2,0,16.2,2.1,Metro Embarcadero Station,37.793152,-122.396431,J,CHURCH
1196,7217,2,0,13.0,3.6,Metro Embarcadero Station,37.793152,-122.396431,KT,INGLESIDE/THIRD
1198,7217,2,0,12.5,4.1,Metro Embarcadero Station,37.793152,-122.396431,L,TARAVAL
1199,7217,2,0,14.2,3.4,Metro Embarcadero Station,37.793152,-122.396431,M,OCEAN VIEW
1093,7219,2,0,11.6,3.4,Judah/La Playa/Ocean Beach,37.760348,-122.509201,N,JUDAH
1093,7252,2,0,11.5,3.5,Duboce St/Noe St/Duboce Park,37.769392,-122.433694,N,JUDAH
7820,7264,2,1,6.7,3.0,Market St & 1st St,37.79094,-122.399195,F,MARKET & WHARVES
7820,7281,2,1,6.7,3.0,Embarcadero & Sansome St,37.805146,-122.403233,F,MARKET & WHARVES
7820,7283,2,0,6.7,2.9,The Embarcadero & Ferry Building,37.794828,-122.39377,F,MARKET & WHARVES
1094,7316,2,0,16.0,4.2,Church St & 14th St,37.767786,-122.428996,J,CHURCH
1093,7318,2,1,11.5,3.5,Sunset Tunnel East Portal,37.769134,-122.433076,N,JUDAH
1196,7342,2,1,13.7,3.2,Third Street/Gilman/Paul,37.722413,-122.395644,KT,INGLESIDE/THIRD
1196,7343,2,0,13.6,3.5,Third Street & Carroll Ave,37.725491,-122.394222,KT,INGLESIDE/THIRD
1196,7344,2,1,13.7,3.2,Third Street & Carroll Ave,37.725464,-122.394256,KT,INGLESIDE/THIRD
1196,7345,2,0,13.6,3.5,Third Street & Williams Ave,37.729291,-122.392604,KT,INGLESIDE/THIRD
1196,7346,2,1,13.7,3.2,Third Street & Williams Ave,37.729264,-122.392638,KT,INGLESIDE/THIRD
1196,7347,2,0,13.6,3.5,Third Street/Gilman/Paul,37.722449,-122.39561,KT,INGLESIDE/THIRD
1196,7352,2,0,13.6,3.5,Third Street & Evans Ave,37.742726,-122.38792,KT,INGLESIDE/THIRD
1196,7353,2,0,13.6,3.5,Third Street & Marin St,37.748999,-122.387445,KT,INGLESIDE/THIRD
1196,7354,2,0,12.6,4.2,Third Street & 23rd St,37.755414,-122.388001,KT,INGLESIDE/THIRD
1196,7355,2,0,12.6,4.1,Third Street & 20th St,37.760518,-122.388558,KT,INGLESIDE/THIRD
1196,7356,2,0,12.6,4.1,Third Street & Mariposa St,37.764391,-122.388853,KT,INGLESIDE/THIRD
1196,7357,2,0,12.5,4.2,UCSF/Mission Bay,37.769049,-122.389308,KT,INGLESIDE/THIRD
1196,7358,2,0,12.5,4.2,Third Street & Mission Rock St,37.772993,-122.389717,KT,INGLESIDE/THIRD
1196,7359,2,1,12.4,3.4,Third Street & Mission Rock St,37.772832,-122.389717,KT,INGLESIDE/THIRD
1196,7360,2,1,12.4,3.4,UCSF/Mission Bay,37.76854,-122.389274,KT,INGLESIDE/THIRD
1196,7361,2,1,12.4,3.4,Third Street & Mariposa St,37.764239,-122.388865,KT,INGLESIDE/THIRD
1196,7362,2,1,12.4,3.3,Third Street & 20th St,37.760376,-122.388558,KT,INGLESIDE/THIRD
1196,7363,2,1,12.4,3.4,Third Street & 23rd St,37.75529,-122.388012,KT,INGLESIDE/THIRD
1196,7364,2,1,13.7,3.2,Third Street & Marin St,37.749079,-122.387479,KT,INGLESIDE/THIRD
1196,7365,2,1,13.7,3.2,Third Street & Evans Ave,37.742727,-122.388034,KT,INGLESIDE/THIRD
1093,7380,2,0,11.6,3.4,The Embarcadero & Harrison St,37.78957,-122.388489,N,JUDAH
1093,7380,2,1,11.3,3.2,The Embarcadero & Harrison St,37.78957,-122.388489,N,JUDAH
1196,7380,2,0,13.0,3.6,The Embarcadero & Harrison St,37.78957,-122.388489,KT,INGLESIDE/THIRD
1196,7380,2,1,12.9,3.4,The Embarcadero & Harrison St,37.78957,-122.388489,KT,INGLESIDE/THIRD
1196,7390,2,1,13.7,3.2,Third Street/Hudson/Innes,37.739916,-122.388907,KT,INGLESIDE/THIRD
1196,7391,2,1,13.7,3.2,Third Street/Kirkwood/La Salle,37.737641,-122.389711,KT,INGLESIDE/THIRD
1196,7392,2,1,13.7,3.2,Third Street/Oakdale/Palou,37.73435,-122.390859,KT,INGLESIDE/THIRD
1196,7393,2,1,13.7,3.2,Third Street/Revere/Shafter,37.73228,-122.391536,KT,INGLESIDE/THIRD
1196,7394,2,1,13.7,3.2,Third Street & Le Conte Ave,37.718827,-122.397491,KT,INGLESIDE/THIRD
1196,7395,2,1,13.7,3.2,Bay Shore Blvd/Arleta/Blanken,37.712253,-122.402316,KT,INGLESIDE/THIRD
1196,7396,2,1,13.7,3.2,Bay Shore Blvd & Sunnydale Ave,37.70897,-122.405055,KT,INGLESIDE/THIRD
1196,7397,2,1,12.4,3.3,4th St & King St,37.776252,-122.394036,KT,INGLESIDE/THIRD
1196,7398,2,0,13.6,3.5,Bay Shore Blvd & Sunnydale Ave,37.708997,-122.405021,KT,INGLESIDE/THIRD
1196,7399,2,0,13.6,3.5,Bay Shore Blvd/Arleta/Blanken,37.712226,-122.402339,KT,INGLESIDE/THIRD
1196,7401,2,0,13.6,3.5,Third Street/Revere/Shafter,37.732262,-122.391502,KT,INGLESIDE/THIRD
1196,7402,2,0,13.6,3.5,Third Street/Oakdale/Palou,37.734358,-122.390836,KT,INGLESIDE/THIRD
1196,7403,2,0,13.6,3.5,Third Street/Kirkwood/La Salle,37.737641,-122.389688,KT,INGLESIDE/THIRD
1196,7404,2,0,13.6,3.5,Third Street/Hudson/Innes,37.739916,-122.388884,KT,INGLESIDE/THIRD
1196,7440,2,0,13.1,13.0,Muni Metro East/Not a public stop,37.752808,-122.386823,KT,INGLESIDE/THIRD
1196,7440,2,1,21.7,17.0,Muni Metro East/Not a public stop,37.752808,-122.386823,KT,INGLESIDE/THIRD
1199,7449,2,1,14.3,4.2,19th Ave & Winston Dr,37.727195,-122.474846,M,OCEAN VIEW
7820,3092,3,0,6.6,3.0,Beach St & Mason St,37.807407,-122.414125,F,MARKET & WHARVES
7820,3095,3,0,6.7,2.9,Beach St & Stockton St,37.807841,-122.41081,F,MARKET & WHARVES
1093,3212,3,1,13.1,3.4,9th Ave & Irving St,37.763913,-122.466241,N,JUDAH
1198,3266,3,0,14.1,4.1,15th Ave & Taraval St,37.743124,-122.471297,L,TARAVAL
1198,3267,3,1,14.1,4.5,15th Ave & Taraval St,37.743069,-122.471405,L,TARAVAL
1198,3268,3,0,14.1,4.1,15th Ave & Ulloa St,37.741525,-122.471192,L,TARAVAL
1198,3269,3,1,14.1,4.5,15th Ave & Ulloa St,37.741484,-122.4713,L,TARAVAL
7820,3308,3,0,16.2,7.8,Church St & 18th St,37.76281,-122.4285,F,MARKET & WHARVES
7820,3311,3,0,7.1,3.5,17th St & Castro St,37.76252,-122.434866,F,MARKET & WHARVES
7820,3311,3,1,6.7,3.0,17th St & Castro St,37.76252,-122.434866,F,MARKET & WHARVES
7820,3318,3,0,16.2,7.8,17th St & Noe St,37.762645,-122.432991,F,MARKET & WHARVES
1199,3358,3,0,16.7,4.1,19th Ave & Holloway Ave,37.721074,-122.475233,M,OCEAN VIEW
1199,3361,3,1,16.4,3.0,19th Ave & Junipero Serra Blvd,37.716889,-122.472275,M,OCEAN VIEW
1199,3376,3,0,16.6,4.1,19th Ave & Randolph St,37.7162,-122.47167,M,OCEAN VIEW
1199,3385,3,1,16.4,3.0,19th Ave & Randolph St,37.714282,-122.469618,M,OCEAN VIEW
1199,3387,3,0,16.6,4.1,19th Ave & Randolph St,37.714443,-122.469998,M,OCEAN VIEW
1199,3403,3,0,16.6,4.1,19th Ave & Winston Dr,37.727017,-122.474937,M,OCEAN VIEW
1094,3537,3,1,15.8,4.7,30th St & Dolores St,37.742304,-122.424026,J,CHURCH
7820,3537,3,1,18.4,10.2,30th St & Dolores St,37.742304,-122.424026,F,MARKET & WHARVES
1094,3538,3,0,16.6,4.5,30th St & Dolores St,37.74217,-122.424457,J,CHURCH
7820,3538,3,0,16.1,7.8,30th St & Dolores St,37.74217,-122.424457,F,MARKET & WHARVES
1198,3599,3,1,14.1,4.4,46th Ave & Taraval St,37.741685,-122.504534,L,TARAVAL
1198,3600,3,0,14.2,4.1,46th Ave & Ulloa St,37.739998,-122.504579,L,TARAVAL
1198,3601,3,1,14.1,4.4,46th Ave & Ulloa St,37.739829,-122.504407,L,TARAVAL
1198,3602,3,0,14.2,4.1,46th Ave & Vicente St,37.738142,-122.50444,L,TARAVAL
1198,3603,3,1,14.1,4.4,46th Ave & Vicente St,37.737973,-122.504268,L,TARAVAL
1199,3715,3,1,16.4,3.0,Broad St & Capitol Ave,37.713191,-122.458921,M,OCEAN VIEW
1199,3716,3,0,16.6,4.0,Broad St & Capitol Ave,37.713152,-122.459159,M,OCEAN VIEW
1199,3717,3,1,16.4,3.0,Broad St & Orizaba Ave,37.713178,-122.462331,M,OCEAN VIEW
1199,3718,3,1,16.5,3.0,Broad St & Plymouth Ave,37.713222,-122.455927,M,OCEAN VIEW
1199,3719,3,0,16.6,4.1,Broad St & Plymouth Ave,37.713161,-122.45618,M,OCEAN VIEW
1093,3909,3,0,13.3,3.0,Carl St & Cole St,37.765863,-122.449804,N,JUDAH
1093,3911,3,1,13.1,3.4,Carl St & Cole St,37.765745,-122.450131,N,JUDAH
1093,3912,3,0,13.3,3.0,Carl St & Hillway Ave,37.765003,-122.456561,N,JUDAH
1093,3913,3,1,13.1,3.4,Carl St & Hillway Ave,37.764932,-122.456512,N,JUDAH
1093,3914,3,0,13.3,3.0,Carl St & Stanyan St,37.765495,-122.45259,N,JUDAH
1093,3915,3,1,13.1,3.4,Carl St & Stanyan St,37.765371,-122.452928,N,JUDAH
1094,3984,3,0,16.6,4.4,Church St & 16th St,37.764621,-122.428722,J,CHURCH
1094,3985,3,1,15.8,4.6,Church St & 16th St,37.764382,-122.428609,J,CHURCH
7820,3985,3,1,,,Church St & 16th St,37.764382,-122.428609,F,MARKET & WHARVES
7820,3986,3,1,18.6,10.1,Church St & 17th St,37.76281,-122.4285,F,MARKET & WHARVES
1094,3987,3,0,16.6,4.4,Church St & 18th St,37.761467,-122.428416,J,CHURCH
7820,3987,3,0,16.1,7.8,Church St & 18th St,37.761467,-122.428416,F,MARKET & WHARVES
1094,3994,3,1,15.8,4.6,Church St & 22nd St,37.754785,-122.427659,J,CHURCH
7820,3994,3,1,18.5,10.2,Church St & 22nd St,37.754785,-122.427659,F,MARKET & WHARVES
1094,3995,3,0,16.6,4.4,Church St & 24th St,37.7518,-122.427497,J,CHURCH
7820,3995,3,0,16.1,7.8,Church St & 24th St,37.7518,-122.427497,F,MARKET & WHARVES
1094,3996,3,1,15.8,4.6,Church St & 24th St,37.751591,-122.42735,J,CHURCH
7820,3996,3,1,18.5,10.2,Church St & 24th St,37.751591,-122.42735,F,MARKET & WHARVES
1094,3997,3,0,16.6,4.4,Church St & 27th St,37.746985,-122.427073,J,CHURCH
7820,3997,3,0,16.1,7.8,Church St & 27th St,37.746985,-122.427073,F,MARKET & WHARVES
1094,3998,3,1,15.8,4.6,Church St & 27th St,37.746781,-122.426893,J,CHURCH
7820,3998,3,1,18.5,10.2,Church St & 27th St,37.746781,-122.426893,F,MARKET & WHARVES
1094,3999,3,1,15.8,4.6,Church St & 29th St,37.743587,-122.426585,J,CHURCH
7820,3999,3,1,18.5,10.2,Church St & 29th St,37.743587,-122.426585,F,MARKET & WHARVES
1094,4000,3,1,15.8,4.6,Church St & 30th St,37.742222,-122.426459,J,CHURCH
7820,4000,3,1,18.5,10.2,Church St & 30th St,37.742222,-122.426459,F,MARKET & WHARVES
1094,4001,3,0,16.6,4.4,Church St & 30th St,37.742097,-122.426528,J,CHURCH
7820,4001,3,0,16.1,7.8,Church St & 30th St,37.742097,-122.426528,F,MARKET & WHARVES
1094,4002,3,0,16.6,4.4,Church St & Clipper St,37.749388,-122.427289,J,CHURCH
7820,4002,3,0,16.1,7.8,Church St & Clipper St,37.749388,-122.427289,F,MARKET & WHARVES
1094,4003,3,1,15.8,4.6,Church St & Clipper St,37.749182,-122.427122,J,CHURCH
7820,4003,3,1,18.5,10.2,Church St & Clipper St,37.749182,-122.427122,F,MARKET & WHARVES
1094,4004,3,0,16.6,4.4,Church St & Day St,37.742811,-122.426654,J,CHURCH
7820,4004,3,0,16.1,7.8,Church St & Day St,37.742811,-122.426654,F,MARKET & WHARVES
1094,4006,3,1,15.8,4.5,Church St & Duboce Ave,37.769302,-122.429087,J,CHURCH
1093,4447,3,0,13.3,3.0,Duboce Ave & Church St,37.769472,-122.429408,N,JUDAH
1093,4448,3,1,13.1,3.4,Duboce Ave & Church St,37.769409,-122.4294,N,JUDAH
7820,4501,3,1,6.7,3.0,The Embarcadero & Bay St,37.806945,-122.406278,F,MARKET & WHARVES
7820,4502,3,0,6.7,2.9,The Embarcadero & Bay St,37.806629,-122.40603,F,MARKET & WHARVES
7820,4503,3,1,6.7,3.0,THE EMBARCADERO & BROADWAY,37.799552,-122.397869,F,MARKET & WHARVES
7820,4504,3,0,6.7,2.9,THE EMBARCADERO & BROADWAY,37.798901,-122.397434,F,MARKET & WHARVES
1093,4506,3,1,13.1,3.2,The Embarcadero & Brannan St,37.784359,-122.388138,N,JUDAH
1196,4506,3,1,15.4,3.0,The Embarcadero & Brannan St,37.784359,-122.388138,KT,INGLESIDE/THIRD
1093,4509,3,1,13.1,3.2,The Embarcadero & Folsom St,37.790481,-122.389692,N,JUDAH
1196,4509,3,1,15.4,3.0,The Embarcadero & Folsom St,37.790481,-122.389692,KT,INGLESIDE/THIRD
1093,4510,3,0,13.5,2.9,The Embarcadero & Folsom St,37.790749,-122.389841,N,JUDAH
1196,4510,3,0,15.4,3.5,The Embarcadero & Folsom St,37.790749,-122.389841,KT,INGLESIDE/THIRD
7820,4513,3,1,6.7,3.0,THE EMBARCADERO/Ferry Building,37.795105,-122.393861,F,MARKET & WHARVES
7820,4515,3,1,6.7,3.0,The Embarcadero & Greenwich St,37.803263,-122.401113,F,MARKET & WHARVES
7820,4516,3,0,6.7,2.9,The Embarcadero & Greenwich St,37.80296,-122.401029,F,MARKET & WHARVES
7820,4517,3,1,6.7,3.0,The Embarcadero & Green St,37.801264,-122.399369,F,MARKET & WHARVES
7820,4518,3,0,6.7,2.9,The Embarcadero & Green St,37.800605,-122.39892,F,MARKET & WHARVES
7820,4529,3,0,6.7,2.9,The Embarcadero & Sansome St,37.805022,-122.403314,F,MARKET & WHARVES
7820,4530,3,1,6.7,3.0,The Embarcadero & Stockton St,37.808351,-122.410287,F,MARKET & WHARVES
7820,4532,3,1,6.7,3.0,The Embarcadero & Washington St,37.797085,-122.39567,F,MARKET & WHARVES
7820,4534,3,0,6.7,2.9,The Embarcadero & Washington St,37.796355,-122.395181,F,MARKET & WHARVES
7820,4726,3,0,6.7,2.9,Don Chee Way/Steuart St,37.794105,-122.393874,F,MARKET & WHARVES
7820,4727,3,1,6.7,3.0,Don Chee Way/Steuart St,37.7939,-122.39345,F,MARKET & WHARVES
1094,4787,3,1,15.8,4.7,San Jose Ave/Glen Park Station,37.732525,-122.433416,J,CHURCH
7820,4787,3,1,18.4,10.2,San Jose Ave/Glen Park Station,37.732525,-122.433416,F,MARKET & WHARVES
1094,4788,3,0,16.6,4.5,San Jose Ave/Glen Park Station,37.732401,-122.433855,J,CHURCH
7820,4788,3,0,16.1,7.8,San Jose Ave/Glen Park Station,37.732401,-122.433855,F,MARKET & WHARVES
1093,5118,3,0,13.2,3.0,Irving St & 2nd Ave,37.764441,-122.458643,N,JUDAH
1093,5119,3,0,13.2,3.0,Irving St & 4th Ave,37.764299,-122.460824,N,JUDAH
1093,5120,3,1,13.1,3.4,Irving St & 4th Ave,37.764226,-122.461061,N,JUDAH
1093,5121,3,0,13.2,3.0,Irving St & 7th Ave,37.764155,-122.464034,N,JUDAH
1093,5122,3,1,13.1,3.4,Irving St & 7th Ave,37.764092,-122.464282,N,JUDAH
1093,5123,3,0,13.2,3.0,Irving St & 9th Ave,37.764106,-122.466165,N,JUDAH
1093,5124,3,1,13.1,3.4,Irving St & Arguello Blvd,37.764366,-122.458024,N,JUDAH
7820,5174,3,1,6.7,3.0,Jefferson St & Powell St,37.808594,-122.413357,F,MARKET & WHARVES
7820,5175,3,1,6.7,3.0,Jefferson St & Taylor St,37.80832,-122.415514,F,MARKET & WHARVES
7820,5184,3,0,6.7,2.9,Jones St & Beach St,37.807248,-122.417366,F,MARKET & WHARVES
7820,5184,3,1,6.7,3.0,Jones St & Beach St,37.807248,-122.417366,F,MARKET & WHARVES
1093,5193,3,0,13.2,3.0,Judah St & 9th Ave,37.762227,-122.466688,N,JUDAH
1093,5194,3,1,13.1,3.4,Judah St & 9th Ave,37.762139,-122.466312,N,JUDAH
1093,5195,3,0,13.2,3.0,Judah St & 12th Ave,37.762069,-122.469324,N,JUDAH
1093,5196,3,1,13.1,3.4,Judah St & 12th Ave,37.761988,-122.469526,N,JUDAH
1093,5197,3,1,13.1,3.4,Judah St & 15th Ave,37.761848,-122.472777,N,JUDAH
1093,5198,3,0,13.2,3.0,Judah St & 16th Ave,37.761913,-122.473781,N,JUDAH
1093,5199,3,0,13.2,3.0,Judah St & 19th Ave,37.76174,-122.476825,N,JUDAH
1093,5200,3,1,13.1,3.4,Judah St & 19th Ave,37.761655,-122.477194,N,JUDAH
1093,5201,3,1,13.1,3.4,Judah St & 22nd Ave,37.761534,-122.479855,N,JUDAH
1093,5202,3,0,13.2,3.0,Judah St & 23rd Ave,37.761547,-122.481164,N,JUDAH
1093,5203,3,0,13.2,3.0,Judah St & 25th Ave,37.761452,-122.4833,N,JUDAH
1093,5204,3,1,13.1,3.4,Judah St & 25th Ave,37.761373,-122.48356,N,JUDAH
1093,5205,3,0,13.2,3.0,Judah St & 28th Ave,37.76131,-122.48651,N,JUDAH
1093,5206,3,1,13.1,3.4,Judah St & 28th Ave,37.761232,-122.486763,N,JUDAH
1093,5207,3,0,13.2,3.0,Judah St & 31st Ave,37.761172,-122.489719,N,JUDAH
1093,5208,3,1,13.1,3.4,Judah St & 31st Ave,37.761105,-122.4895,N,JUDAH
1093,5209,3,0,13.2,3.0,Judah St & 34th Ave,37.761028,-122.49293,N,JUDAH
1093,5210,3,1,13.1,3.4,Judah St & 34th Ave,37.760955,-122.493199,N,JUDAH
1093,5211,3,0,13.2,3.0,Judah St & 40th Ave,37.760743,-122.499359,N,JUDAH
1093,5212,3,1,13.2,3.4,Judah St & 40th Ave,37.760679,-122.499154,N,JUDAH
1093,5213,3,0,13.2,3.0,Judah St & 43rd Ave,37.760598,-122.502574,N,JUDAH
1093,5214,3,1,13.1,3.4,Judah St & 43rd Ave,37.760518,-122.502839,N,JUDAH
1093,5215,3,0,13.2,3.0,Judah St & 46th Ave,37.760493,-122.505832,N,JUDAH
1093,5216,3,1,13.1,3.4,Judah St & 46th Ave,37.760392,-122.506064,N,JUDAH
1093,5219,3,0,13.2,3.0,Judah St & Funston Ave,37.762075,-122.470329,N,JUDAH
1093,5220,3,1,13.1,3.4,Judah St & Funston Ave,37.76195,-122.470572,N,JUDAH
1093,5221,3,0,13.2,3.0,Judah/La Playa/Ocean Beach,37.760363,-122.509011,N,JUDAH
1093,5223,3,1,13.2,3.4,Judah/La Playa/Ocean Beach,37.76017,-122.508777,N,JUDAH
1093,5224,3,0,13.2,3.0,Judah St & Sunset Blvd,37.760912,-122.495565,N,JUDAH
1093,5225,3,1,13.2,3.4,Judah St & Sunset Blvd,37.760828,-122.495964,N,JUDAH
1093,5234,3,1,13.1,3.2,King St & 2nd St,37.77972,-122.389872,N,JUDAH
1196,5234,3,1,15.4,3.0,King St & 2nd St,37.77972,-122.389872,KT,INGLESIDE/THIRD
1093,5237,3,0,13.5,2.9,King St & 2nd St,37.779621,-122.389824,N,JUDAH
1196,5237,3,0,15.4,3.5,King St & 2nd St,37.779621,-122.389824,KT,INGLESIDE/THIRD
1093,5239,3,1,13.1,3.2,King St & 4th St,37.776207,-122.394231,N,JUDAH
1093,5240,3,0,13.5,2.9,King St & 4th St,37.776058,-122.394364,N,JUDAH
1093,5417,3,1,13.4,3.0,Metro Powell Station/Downtown,37.784199,-122.407695,N,JUDAH
1094,5417,3,1,15.9,3.0,Metro Powell Station/Downtown,37.784199,-122.407695,J,CHURCH
1196,5417,3,1,15.5,3.1,Metro Powell Station/Downtown,37.784199,-122.407695,KT,INGLESIDE/THIRD
1198,5417,3,1,14.1,3.3,Metro Powell Station/Downtown,37.784199,-122.407695,L,TARAVAL
1199,5417,3,1,16.3,2.1,Metro Powell Station/Downtown,37.784199,-122.407695,M,OCEAN VIEW
1196,5418,3,0,16.7,4.5,Balboa Park BART/Mezzanine Level,37.720876,-122.446651,KT,INGLESIDE/THIRD
1196,5418,3,1,16.3,5.7,Balboa Park BART/Mezzanine Level,37.720876,-122.446651,KT,INGLESIDE/THIRD
1093,5419,3,1,13.4,3.0,Metro Van Ness Station,37.775069,-122.419193,N,JUDAH
1094,5419,3,1,15.9,3.0,Metro Van Ness Station,37.775069,-122.419193,J,CHURCH
1196,5419,3,1,15.5,3.1,Metro Van Ness Station,37.775069,-122.419193,KT,INGLESIDE/THIRD
1198,5419,3,1,14.1,3.3,Metro Van Ness Station,37.775069,-122.419193,L,TARAVAL
1199,5419,3,1,16.3,2.1,Metro Van Ness Station,37.775069,-122.419193,M,OCEAN VIEW
1094,5448,3,0,16.6,4.5,Balboa Park BART/Mezzanine level,37.720899,-122.446657,J,CHURCH
1094,5448,3,1,15.8,4.7,Balboa Park BART/Mezzanine level,37.720899,-122.446657,J,CHURCH
7820,5639,3,0,6.7,2.9,Market St & 2nd St,37.789353,-122.401306,F,MARKET & WHARVES
7820,5640,3,1,6.7,3.0,Market St & 3rd St,37.787525,-122.403519,F,MARKET & WHARVES
7820,5643,3,1,6.7,3.0,Market St & 4th St,37.785652,-122.405893,F,MARKET & WHARVES
7820,5645,3,1,6.7,3.0,Market St & 5th St,37.783886,-122.408141,F,MARKET & WHARVES
7820,5647,3,1,6.7,3.0,Market St & 6th St,37.782102,-122.4104,F,MARKET & WHARVES
7820,5650,3,1,6.7,3.0,Market St & 7th St,37.780363,-122.412613,F,MARKET & WHARVES
7820,5651,3,1,6.7,3.0,Market St & 8th St,37.778606,-122.414826,F,MARKET & WHARVES
7820,5652,3,1,6.7,3.0,Market St & 9th St,37.77741,-122.41634,F,MARKET & WHARVES
7820,5655,3,0,6.7,2.9,Market St & 5th  St,37.784082,-122.407992,F,MARKET & WHARVES
7820,5656,3,0,6.7,2.9,Market St & 7th St,37.780568,-122.412441,F,MARKET & WHARVES
7820,5657,3,0,6.7,2.9,Market St & Battery St,37.79111,-122.399069,F,MARKET & WHARVES
7820,5659,3,0,6.7,2.9,Market St & Buchanan St,37.769786,-122.426149,F,MARKET & WHARVES
7820,5661,3,0,6.7,2.9,Market St & Church St,37.767829,-122.428628,F,MARKET & WHARVES
7820,5662,3,1,6.7,3.0,Market St & Church St,37.767259,-122.42915,F,MARKET & WHARVES
7820,5668,3,1,6.7,3.0,Market St & Dolores St,37.76888,-122.427103,F,MARKET & WHARVES
7820,5669,3,0,6.7,2.9,Market St & Drumm St,37.793473,-122.396178,F,MARKET & WHARVES
7820,5672,3,0,6.7,2.9,Market St & Gough St,37.773269,-122.421768,F,MARKET & WHARVES
7820,5673,3,1,6.7,3.0,Market St & Gough St,37.772875,-122.421991,F,MARKET & WHARVES
7820,5675,3,1,6.7,3.0,Market St & Guerrero St,37.77057,-122.424971,F,MARKET & WHARVES
7820,5676,3,0,6.7,2.9,Market St & Hyde St,37.779105,-122.414379,F,MARKET & WHARVES
7820,5678,3,0,6.7,2.9,Market St & Kearny St,37.78773,-122.40337,F,MARKET & WHARVES
7820,5679,3,0,6.7,2.9,Market St & Larkin St,37.777589,-122.416213,F,MARKET & WHARVES
7820,5681,3,0,6.7,2.9,Market St & Laguna St,37.770953,-122.424666,F,MARKET & WHARVES
7820,5682,3,1,6.7,3.0,Market St & Main St,37.792984,-122.396627,F,MARKET & WHARVES
7820,5685,3,1,6.7,3.0,Market St & New Montgomery St,37.788613,-122.402163,F,MARKET & WHARVES
7820,5686,3,0,6.6,2.9,Market St & Noe St,37.764489,-122.432812,F,MARKET & WHARVES
7820,5687,3,1,6.7,3.0,Market St & Noe St,37.763958,-122.433323,F,MARKET & WHARVES
7820,5690,3,0,6.6,2.9,Market St & Sanchez St,37.766185,-122.430707,F,MARKET & WHARVES
7820,5691,3,1,6.7,3.0,Market St & Sanchez St,37.765689,-122.43114,F,MARKET & WHARVES
7820,5692,3,1,6.7,3.0,Market St & South Van Ness Ave,37.775056,-122.419321,F,MARKET & WHARVES
7820,5694,3,0,6.7,2.9,Market St & Stockton St,37.785857,-122.405744,F,MARKET & WHARVES
7820,5695,3,0,6.7,2.9,Market St & Taylor St,37.782316,-122.410228,F,MARKET & WHARVES
7820,5696,3,0,6.7,2.9,Market St & Van Ness Ave,37.775243,-122.419183,F,MARKET & WHARVES
1196,5726,3,1,15.5,3.1,Metro Church Station/Downtown,37.767194,-122.429168,KT,INGLESIDE/THIRD
1198,5726,3,1,14.1,3.3,Metro Church Station/Downtown,37.767194,-122.429168,L,TARAVAL
1199,5726,3,1,16.3,2.2,Metro Church Station/Downtown,37.767194,-122.429168,M,OCEAN VIEW
1093,5727,3,1,13.4,3.0,Metro Civic Center Station/Downtn,37.778542,-122.414813,N,JUDAH
1094,5727,3,1,15.9,3.0,Metro Civic Center Station/Downtn,37.778542,-122.414813,J,CHURCH
1196,5727,3,1,15.5,3.1,Metro Civic Center Station/Downtn,37.778542,-122.414813,KT,INGLESIDE/THIRD
1198,5727,3,1,14.1,3.3,Metro Civic Center Station/Downtn,37.778542,-122.414813,L,TARAVAL
1199,5727,3,1,16.3,2.1,Metro Civic Center Station/Downtn,37.778542,-122.414813,M,OCEAN VIEW
1196,5728,3,1,15.5,3.1,Metro Castro Station/Downtown,37.762576,-122.435231,KT,INGLESIDE/THIRD
1198,5728,3,1,14.1,3.3,Metro Castro Station/Downtown,37.762576,-122.435231,L,TARAVAL
1199,5728,3,1,16.3,2.2,Metro Castro Station/Downtown,37.762576,-122.435231,M,OCEAN VIEW
1196,5730,3,1,15.5,3.1,Metro Forest Hill Station/Downtown,37.748351,-122.458623,KT,INGLESIDE/THIRD
1198,5730,3,1,14.1,3.3,Metro Forest Hill Station/Downtown,37.748351,-122.458623,L,TARAVAL
1199,5730,3,1,16.3,2.2,Metro Forest Hill Station/Downtown,37.748351,-122.458623,M,OCEAN VIEW
1093,5731,3,1,13.4,3.0,Metro Montgomery Station/Downtown,37.788702,-122.401925,N,JUDAH
1094,5731,3,1,15.9,3.0,Metro Montgomery Station/Downtown,37.788702,-122.401925,J,CHURCH
1196,5731,3,1,15.5,3.1,Metro Montgomery Station/Downtown,37.788702,-122.401925,KT,INGLESIDE/THIRD
1198,5731,3,1,14.1,3.3,Metro Montgomery Station/Downtown,37.788702,-122.401925,L,TARAVAL
1199,5731,3,1,16.3,2.1,Metro Montgomery Station/Downtown,37.788702,-122.401925,M,OCEAN VIEW
1196,5779,3,1,16.2,5.7,Ocean Ave & Aptos Ave,37.728285,-122.467561,KT,INGLESIDE/THIRD
1196,5780,3,0,16.7,4.4,Ocean Ave & Aptos Ave,37.728383,-122.467871,KT,INGLESIDE/THIRD
1196,5784,3,1,16.2,5.7,OCEAN AVE/CCSF Pedestrian Bridge,37.72304,-122.451448,KT,INGLESIDE/THIRD
1196,5785,3,0,16.7,4.4,OCEAN AVE/CCSF Pedestrian Bridge,37.722947,-122.450866,KT,INGLESIDE/THIRD
1196,5786,3,0,16.7,4.4,Ocean Ave & Cerritos Ave,37.727252,-122.46676,KT,INGLESIDE/THIRD
1196,5787,3,1,16.2,5.7,Ocean Ave & Dorado Ter,37.724957,-122.461059,KT,INGLESIDE/THIRD
1196,5788,3,1,16.2,5.7,Ocean Ave & Fairfield Way,37.726008,-122.464072,KT,INGLESIDE/THIRD
1196,5793,3,0,16.7,4.4,Ocean Ave & Jules Ave,37.724955,-122.46139,KT,INGLESIDE/THIRD
1196,5794,3,1,16.2,5.7,Ocean Ave & Lee St,37.723459,-122.453999,KT,INGLESIDE/THIRD
1196,5795,3,0,16.7,4.4,Ocean Ave & Lee St,37.723451,-122.454217,KT,INGLESIDE/THIRD
1196,5797,3,1,16.2,5.7,Ocean Ave & Miramar Ave,37.724387,-122.458077,KT,INGLESIDE/THIRD
1196,5798,3,0,16.7,4.4,Ocean Ave & Miramar Ave,37.724262,-122.458306,KT,INGLESIDE/THIRD
1196,5806,3,1,16.2,5.7,Ocean Ave & San Leandro Way,37.729989,-122.469097,KT,INGLESIDE/THIRD
1196,5807,3,0,16.7,4.4,Ocean Ave & San Leandro Way,37.729945,-122.469475,KT,INGLESIDE/THIRD
1196,5808,3,0,16.7,4.4,Ocean Ave & Victoria St,37.726029,-122.464337,KT,INGLESIDE/THIRD
1196,5809,3,1,16.2,5.7,Ocean Ave & Westgate Dr,37.727199,-122.46648,KT,INGLESIDE/THIRD
1199,5825,3,0,16.6,4.0,Orizaba Ave & Broad St,37.713328,-122.462585,M,OCEAN VIEW
1199,6172,3,1,16.4,3.0,Randolph St & Arch St,37.714342,-122.466982,M,OCEAN VIEW
1199,6173,3,0,16.6,4.1,Randolph St & Arch St,37.714201,-122.467218,M,OCEAN VIEW
1199,6174,3,1,16.4,3.0,Randolph St & Bright St,37.714348,-122.463392,M,OCEAN VIEW
1199,6175,3,0,16.6,4.1,Randolph St & Bright St,37.71424,-122.46361,M,OCEAN VIEW
1094,6213,3,1,15.8,4.6,Right Of Way/18th St,37.761192,-122.428184,J,CHURCH
7820,6213,3,1,18.5,10.2,Right Of Way/18th St,37.761192,-122.428184,F,MARKET & WHARVES
1094,6214,3,0,16.6,4.4,Right Of Way/20th St,37.758264,-122.427924,J,CHURCH
7820,6214,3,0,16.1,7.8,Right Of Way/20th St,37.758264,-122.427924,F,MARKET & WHARVES
1094,6215,3,1,15.8,4.6,Right Of Way/20th St,37.758229,-122.427795,J,CHURCH
7820,6215,3,1,18.5,10.2,Right Of Way/20th St,37.758229,-122.427795,F,MARKET & WHARVES
1094,6216,3,0,16.6,4.4,Right Of Way/21st St,37.756643,-122.426922,J,CHURCH
7820,6216,3,0,16.1,7.8,Right Of Way/21st St,37.756643,-122.426922,F,MARKET & WHARVES
1094,6217,3,1,15.8,4.6,Right Of Way/21st St,37.756436,-122.426822,J,CHURCH
7820,6217,3,1,18.5,10.2,Right Of Way/21st St,37.756436,-122.426822,F,MARKET & WHARVES
1094,6218,3,0,16.6,4.4,Right Of Way/22nd St,37.754607,-122.42775,J,CHURCH
7820,6218,3,0,16.1,7.8,Right Of Way/22nd St,37.754607,-122.42775,F,MARKET & WHARVES
1199,6219,3,0,16.6,4.1,Right Of Way/Eucalyptus Dr,37.73119,-122.47435,M,OCEAN VIEW
1199,6220,3,1,16.4,3.0,Right Of Way/Eucalyptus Dr,37.730987,-122.474366,M,OCEAN VIEW
1094,6221,3,0,16.6,4.4,Right Of Way/Liberty St,37.757451,-122.426999,J,CHURCH
7820,6221,3,0,16.1,7.8,Right Of Way/Liberty St,37.757451,-122.426999,F,MARKET & WHARVES
1094,6222,3,1,15.8,4.6,Right Of Way/Liberty St,37.757239,-122.426867,J,CHURCH
7820,6222,3,1,18.5,10.2,Right Of Way/Liberty St,37.757239,-122.426867,F,MARKET & WHARVES
1199,6223,3,0,16.6,4.1,Right Of Way/Ocean Ave,37.732022,-122.473719,M,OCEAN VIEW
1199,6224,3,1,16.4,3.0,Right Of Way/Ocean Ave,37.731808,-122.473815,M,OCEAN VIEW
1199,6257,3,1,16.4,3.0,San Jose Ave & Farallones St,37.714153,-122.452148,M,OCEAN VIEW
1199,6259,3,0,16.6,4.1,San Jose Ave & Farallones St,37.71407,-122.45208,M,OCEAN VIEW
7820,6260,3,1,18.4,10.2,San Jose Ave & Geneva Ave,37.720827,-122.446474,F,MARKET & WHARVES
1199,6262,3,1,16.4,3.0,San Jose Ave & Geneva Ave,37.720631,-122.446818,M,OCEAN VIEW
7820,6263,3,0,16.1,7.8,San Jose Ave & Geneva Ave,37.720676,-122.446783,F,MARKET & WHARVES
1199,6265,3,1,16.4,3.0,San Jose Ave & Lakeview Ave,37.71626,-122.450334,M,OCEAN VIEW
1199,6266,3,0,16.6,4.1,San Jose Ave & Lakeview Ave,37.716083,-122.450435,M,OCEAN VIEW
1199,6268,3,0,16.6,4.1,San Jose Ave & Mt Vernon Ave,37.718284,-122.448593,M,OCEAN VIEW
1199,6269,3,0,16.6,4.1,San Jose Ave & Niagra Ave,37.7194,-122.44762,M,OCEAN VIEW
1094,6274,3,0,16.6,4.5,San Jose Ave & Ocean Ave,37.723085,-122.444699,J,CHURCH
7820,6274,3,0,16.1,7.8,San Jose Ave & Ocean Ave,37.723085,-122.444699,F,MARKET & WHARVES
1094,6275,3,1,15.8,4.7,San Jose Ave & Ocean Ave,37.722862,-122.44479,J,CHURCH
7820,6275,3,1,18.4,10.2,San Jose Ave & Ocean Ave,37.722862,-122.44479,F,MARKET & WHARVES
1094,6277,3,1,15.8,4.7,San Jose Ave & Randall St,37.739741,-122.424157,J,CHURCH
7820,6277,3,1,18.4,10.2,San Jose Ave & Randall St,37.739741,-122.424157,F,MARKET & WHARVES
1094,6280,3,0,16.6,4.5,San Jose Ave & Randall St,37.739385,-122.42432,J,CHURCH
7820,6280,3,0,16.1,7.8,San Jose Ave & Randall St,37.739385,-122.42432,F,MARKET & WHARVES
1094,6284,3,1,15.8,4.7,San Jose Ave & Santa Rosa Ave,37.728991,-122.439922,J,CHURCH
7820,6284,3,1,18.4,10.2,San Jose Ave & Santa Rosa Ave,37.728991,-122.439922,F,MARKET & WHARVES
1094,6285,3,0,16.6,4.5,San Jose Ave & Santa Rosa Ave,37.728996,-122.440016,J,CHURCH
7820,6285,3,0,16.1,7.8,San Jose Ave & Santa Rosa Ave,37.728996,-122.440016,F,MARKET & WHARVES
1094,6287,3,0,16.6,4.5,San Jose Ave & Santa Ynez Ave,37.725877,-122.442359,J,CHURCH
7820,6287,3,0,16.1,7.8,San Jose Ave & Santa Ynez Ave,37.725877,-122.442359,F,MARKET & WHARVES
1094,6288,3,1,15.8,4.7,San Jose Ave & Santa Ynez Ave,37.725681,-122.442442,J,CHURCH
7820,6288,3,1,18.4,10.2,San Jose Ave & Santa Ynez Ave,37.725681,-122.442442,F,MARKET & WHARVES
7820,6347,3,1,18.4,10.2,San Jose Ave & Geneva Ave,37.720524,-122.446657,F,MARKET & WHARVES
1196,6503,3,0,16.7,4.4,West Portal/Sloat/St Francis Circle,37.734807,-122.471618,KT,INGLESIDE/THIRD
1199,6503,3,0,16.7,4.1,West Portal/Sloat/St Francis Circle,37.734807,-122.471618,M,OCEAN VIEW
1198,6614,3,0,14.1,4.1,Taraval St & 17th Ave,37.743204,-122.473429,L,TARAVAL
1198,6615,3,1,14.1,4.5,Taraval St & 17th Ave,37.743068,-122.473705,L,TARAVAL
1198,6616,3,0,14.1,4.1,Taraval St & 19th Ave,37.74311,-122.475444,L,TARAVAL
1198,6617,3,1,14.1,4.5,Taraval St & 19th Ave,37.742971,-122.475821,L,TARAVAL
1198,6618,3,0,14.2,4.1,Taraval St & 22nd Ave,37.742967,-122.478791,L,TARAVAL
1198,6619,3,1,14.2,4.5,Taraval St & 22nd Ave,37.74289,-122.478426,L,TARAVAL
1198,6620,3,0,14.2,4.1,Taraval St & 23rd Ave,37.742872,-122.48045,L,TARAVAL
1198,6621,3,1,14.1,4.4,Taraval St & 24th Ave,37.742735,-122.481199,L,TARAVAL
1198,6622,3,0,14.2,4.1,Taraval St & 26th Ave,37.74278,-122.483068,L,TARAVAL
1198,6623,3,1,14.1,4.4,Taraval St & 26th Ave,37.742653,-122.483324,L,TARAVAL
1198,6624,3,0,14.2,4.1,Taraval St & 28th Ave,37.742684,-122.485212,L,TARAVAL
1198,6625,3,1,14.1,4.4,Taraval St & 28th Ave,37.74254,-122.485467,L,TARAVAL
1198,6626,3,0,14.2,4.1,Taraval St & 30th Ave,37.74259,-122.487338,L,TARAVAL
1198,6627,3,1,14.1,4.4,Taraval St & 30th Ave,37.742461,-122.487615,L,TARAVAL
1198,6628,3,0,14.2,4.1,Taraval St & 32nd Ave,37.74249,-122.489489,L,TARAVAL
1198,6629,3,1,14.1,4.4,Taraval St & 32nd Ave,37.742355,-122.489749,L,TARAVAL
1198,6630,3,0,14.2,4.1,Taraval St & 35th Ave,37.742354,-122.492708,L,TARAVAL
1198,6631,3,1,14.1,4.4,Taraval St & 35th Ave,37.742235,-122.492961,L,TARAVAL
1198,6632,3,0,14.2,4.1,Taraval St & 40th Ave,37.742124,-122.498055,L,TARAVAL
1198,6633,3,1,14.1,4.4,Taraval St & 40th Ave,37.74199,-122.498316,L,TARAVAL
1198,6634,3,0,14.2,4.1,Taraval St & 42nd Ave,37.742021,-122.500202,L,TARAVAL
1198,6635,3,1,14.1,4.4,Taraval St & 42nd Ave,37.7419,-122.500461,L,TARAVAL
1198,6636,3,0,14.2,4.1,Taraval St & 44th Ave,37.741924,-122.502346,L,TARAVAL
1198,6637,3,1,14.1,4.4,Taraval St & 44th Ave,37.741804,-122.502606,L,TARAVAL
1198,6638,3,0,14.2,4.1,Taraval St & 46th Ave,37.741823,-122.50449,L,TARAVAL
1198,6640,3,0,14.2,4.1,Taraval St & Sunset Blvd,37.742267,-122.494218,L,TARAVAL
1198,6641,3,1,14.2,4.4,Taraval St & Sunset Blvd,37.742179,-122.494651,L,TARAVAL
1198,6736,3,0,14.1,4.1,Ulloa St & Forest Side Ave,37.741535,-122.46847,L,TARAVAL
1198,6737,3,1,14.1,4.5,Ulloa St & Forest Side Ave,37.741435,-122.4688,L,TARAVAL
1196,6739,3,0,16.3,2.1,West Portal Station,37.740956,-122.4658,KT,INGLESIDE/THIRD
1198,6739,3,0,13.7,3.4,West Portal Station,37.740956,-122.4658,L,TARAVAL
1199,6739,3,0,16.3,2.1,West Portal Station,37.740956,-122.4658,M,OCEAN VIEW
1196,6740,3,1,15.5,3.1,West Portal Station,37.74092,-122.465777,KT,INGLESIDE/THIRD
1198,6740,3,1,14.1,3.3,West Portal Station,37.74092,-122.465777,L,TARAVAL
1199,6740,3,1,16.3,2.2,West Portal Station,37.74092,-122.465777,M,OCEAN VIEW
1196,6898,3,1,16.3,5.7,West Portal Ave & 14th Ave,37.737859,-122.469042,KT,INGLESIDE/THIRD
1199,6898,3,1,16.5,3.1,West Portal Ave & 14th Ave,37.737859,-122.469042,M,OCEAN VIEW
1198,6932,3,0,14.2,4.1,Wawona/46th Ave /SF Zoo,37.736125,-122.504351,L,TARAVAL
1198,6932,3,1,14.2,4.4,Wawona/46th Ave /SF Zoo,37.736125,-122.504351,L,TARAVAL
1196,6991,3,0,16.3,2.1,Metro Castro Station/Outbound,37.762683,-122.435289,KT,INGLESIDE/THIRD
1198,6991,3,0,13.7,3.4,Metro Castro Station/Outbound,37.762683,-122.435289,L,TARAVAL
1199,6991,3,0,16.3,2.1,Metro Castro Station/Outbound,37.762683,-122.435289,M,OCEAN VIEW
1093,6992,3,1,13.1,3.2,Metro Embarcadero Station,37.793143,-122.396396,N,JUDAH
1094,6992,3,1,15.9,3.0,Metro Embarcadero Station,37.793143,-122.396396,J,CHURCH
1196,6992,3,1,15.5,3.0,Metro Embarcadero Station,37.793143,-122.396396,KT,INGLESIDE/THIRD
1198,6992,3,1,14.1,3.3,Metro Embarcadero Station,37.793143,-122.396396,L,TARAVAL
1199,6992,3,1,16.3,2.1,Metro Embarcadero Station,37.793143,-122.396396,M,OCEAN VIEW
1196,6993,3,0,16.3,2.1,Forest Hill Station Outbound,37.74817,-122.459192,KT,INGLESIDE/THIRD
1198,6993,3,0,13.7,3.4,Forest Hill Station Outbound,37.74817,-122.459192,L,TARAVAL
1199,6993,3,0,16.3,2.1,Forest Hill Station Outbound,37.74817,-122.459192,M,OCEAN VIEW
1093,6994,3,0,13.5,2.9,Metro Montgomery Station/Outbound,37.788791,-122.402127,N,JUDAH
1094,6994,3,0,16.3,2.1,Metro Montgomery Station/Outbound,37.788791,-122.402127,J,CHURCH
1196,6994,3,0,16.3,2.1,Metro Montgomery Station/Outbound,37.788791,-122.402127,KT,INGLESIDE/THIRD
1198,6994,3,0,13.7,3.4,Metro Montgomery Station/Outbound,37.788791,-122.402127,L,TARAVAL
1199,6994,3,0,16.3,2.1,Metro Montgomery Station/Outbound,37.788791,-122.402127,M,OCEAN VIEW
1093,6995,3,0,13.5,2.9,Metro Powell Station/Outbound,37.7843,-122.407822,N,JUDAH
1094,6995,3,0,16.3,2.1,Metro Powell Station/Outbound,37.7843,-122.407822,J,CHURCH
1196,6995,3,0,16.3,2.1,Metro Powell Station/Outbound,37.7843,-122.407822,KT,INGLESIDE/THIRD
1198,6995,3,0,13.7,3.4,Metro Powell Station/Outbound,37.7843,-122.407822,L,TARAVAL
1199,6995,3,0,16.3,2.1,Metro Powell Station/Outbound,37.7843,-122.407822,M,OCEAN VIEW
1093,6996,3,0,13.4,2.9,Van Ness Station Outbound,37.775234,-122.41934,N,JUDAH
1094,6996,3,0,16.3,2.1,Van Ness Station Outbound,37.775234,-122.41934,J,CHURCH
1196,6996,3,0,16.3,2.1,Van Ness Station Outbound,37.775234,-122.41934,KT,INGLESIDE/THIRD
1198,6996,3,0,13.7,3.4,Van Ness Station Outbound,37.775234,-122.41934,L,TARAVAL
1199,6996,3,0,16.3,2.1,Van Ness Station Outbound,37.775234,-122.41934,M,OCEAN VIEW
1093,6997,3,0,13.5,2.9,Metro Civic Center Station/Outbd,37.778675,-122.414995,N,JUDAH
1094,6997,3,0,16.3,2.1,Metro Civic Center Station/Outbd,37.778675,-122.414995,J,CHURCH
1196,6997,3,0,16.3,2.1,Metro Civic Center Station/Outbd,37.778675,-122.414995,KT,INGLESIDE/THIRD
1198,6997,3,0,13.7,3.4,Metro Civic Center Station/Outbd,37.778675,-122.414995,L,TARAVAL
1199,6997,3,0,16.3,2.1,Metro Civic Center Station/Outbd,37.778675,-122.414995,M,OCEAN VIEW
1196,6998,3,0,16.3,2.1,Metro Church Station/Outbound,37.767327,-122.429321,KT,INGLESIDE/THIRD
1198,6998,3,0,13.7,3.4,Metro Church Station/Outbound,37.767327,-122.429321,L,TARAVAL
1199,6998,3,0,16.3,2.1,Metro Church Station/Outbound,37.767327,-122.429321,M,OCEAN VIEW
1196,7058,3,0,16.7,4.4,West Portal Ave & Ulloa St,37.740893,-122.465846,KT,INGLESIDE/THIRD
1196,7058,3,1,16.0,5.9,West Portal Ave & Ulloa St,37.740893,-122.465846,KT,INGLESIDE/THIRD
1198,7058,3,0,14.2,4.1,West Portal Ave & Ulloa St,37.740893,-122.465846,L,TARAVAL
1198,7058,3,1,14.1,4.5,West Portal Ave & Ulloa St,37.740893,-122.465846,L,TARAVAL
1199,7058,3,0,16.7,4.1,West Portal Ave & Ulloa St,37.740893,-122.465846,M,OCEAN VIEW
1199,7058,3,1,16.5,3.1,West Portal Ave & Ulloa St,37.740893,-122.465846,M,OCEAN VIEW
1199,7065,3,1,16.5,3.0,19th Ave & Holloway Ave,37.721244,-122.475096,M,OCEAN VIEW
1094,7073,3,1,15.8,4.6,Church St & Market St,37.767384,-122.428893,J,CHURCH
7820,7073,3,1,,,Church St & Market St,37.767384,-122.428893,F,MARKET & WHARVES
1196,7109,3,1,16.3,5.7,West Portal/Sloat/St Francis Circle,37.734825,-122.471446,KT,INGLESIDE/THIRD
1199,7109,3,1,16.5,3.1,West Portal/Sloat/St Francis Circle,37.734825,-122.471446,M,OCEAN VIEW
1199,7111,3,1,16.4,3.0,San Jose Ave & Mt Vernon Ave,37.71847,-122.44864,M,OCEAN VIEW
1196,7113,3,1,16.2,5.7,Junipero Serra Blvd & Ocean Ave,37.731628,-122.471707,KT,INGLESIDE/THIRD
1196,7114,3,0,16.7,4.4,Junipero Serra Blvd & Ocean Ave,37.731271,-122.471818,KT,INGLESIDE/THIRD
1196,7125,3,0,16.7,4.4,West Portal Ave & 14th Ave,37.738064,-122.468984,KT,INGLESIDE/THIRD
1199,7125,3,0,16.7,4.1,West Portal Ave & 14th Ave,37.738064,-122.468984,M,OCEAN VIEW
1093,7145,3,0,13.5,2.9,The Embarcadero & Brannan St,37.784627,-122.387977,N,JUDAH
1196,7145,3,0,15.4,3.5,The Embarcadero & Brannan St,37.784627,-122.387977,KT,INGLESIDE/THIRD
1093,7162,3,0,13.3,3.0,Duboce Ave & Church St - Ramp,37.769463,-122.429133,N,JUDAH
1093,7162,3,1,13.1,3.4,Duboce Ave & Church St - Ramp,37.769463,-122.429133,N,JUDAH
1094,7162,3,0,16.6,4.4,Duboce Ave & Church St - Ramp,37.769463,-122.429133,J,CHURCH
1094,7162,3,1,15.8,4.6,Duboce Ave & Church St - Ramp,37.769463,-122.429133,J,CHURCH
1199,7164,3,1,16.5,3.0,SAN JOSE AVE & GENEVA AVE,37.720613,-122.446577,M,OCEAN VIEW
1199,7165,3,0,16.6,4.1,SAN JOSE AVE & GENEVA AVE,37.720622,-122.446566,M,OCEAN VIEW
1196,7166,3,0,15.0,4.1,4th St & King St,37.776278,-122.393864,KT,INGLESIDE/THIRD
1093,7217,3,0,13.5,2.9,Metro Embarcadero Station,37.793152,-122.396431,N,JUDAH
1094,7217,3,0,16.4,2.2,Metro Embarcadero Station,37.793152,-122.396431,J,CHURCH
1196,7217,3,0,15.4,3.5,Metro Embarcadero Station,37.793152,-122.396431,KT,INGLESIDE/THIRD
1198,7217,3,0,13.7,3.4,Metro Embarcadero Station,37.793152,-122.396431,L,TARAVAL
1199,7217,3,0,16.3,2.1,Metro Embarcadero Station,37.793152,-122.396431,M,OCEAN VIEW
1093,7219,3,0,13.2,3.0,Judah/La Playa/Ocean Beach,37.760348,-122.509201,N,JUDAH
1093,7252,3,0,13.2,3.0,Duboce St/Noe St/Duboce Park,37.769392,-122.433694,N,JUDAH
7820,7264,3,1,6.7,3.0,Market St & 1st St,37.79094,-122.399195,F,MARKET & WHARVES
7820,7281,3,1,6.7,3.0,Embarcadero & Sansome St,37.805146,-122.403233,F,MARKET & WHARVES
7820,7283,3,0,6.7,2.9,The Embarcadero & Ferry Building,37.794828,-122.39377,F,MARKET & WHARVES
1094,7316,3,0,16.6,4.4,Church St & 14th St,37.767786,-122.428996,J,CHURCH
1093,7318,3,1,13.1,3.4,Sunset Tunnel East Portal,37.769134,-122.433076,N,JUDAH
1196,7342,3,1,15.9,2.3,Third Street/Gilman/Paul,37.722413,-122.395644,KT,INGLESIDE/THIRD
1196,7343,3,0,16.0,2.8,Third Street & Carroll Ave,37.725491,-122.394222,KT,INGLESIDE/THIRD
1196,7344,3,1,15.9,2.3,Third Street & Carroll Ave,37.725464,-122.394256,KT,INGLESIDE/THIRD
1196,7345,3,0,16.0,2.8,Third Street & Williams Ave,37.729291,-122.392604,KT,INGLESIDE/THIRD
1196,7346,3,1,15.9,2.3,Third Street & Williams Ave,37.729264,-122.392638,KT,INGLESIDE/THIRD
1196,7347,3,0,16.0,2.8,Third Street/Gilman/Paul,37.722449,-122.39561,KT,INGLESIDE/THIRD
1196,7352,3,0,16.0,2.8,Third Street & Evans Ave,37.742726,-122.38792,KT,INGLESIDE/THIRD
1196,7353,3,0,16.0,2.8,Third Street & Marin St,37.748999,-122.387445,KT,INGLESIDE/THIRD
1196,7354,3,0,15.0,4.1,Third Street & 23rd St,37.755414,-122.388001,KT,INGLESIDE/THIRD
1196,7355,3,0,15.0,4.1,Third Street & 20th St,37.760518,-122.388558,KT,INGLESIDE/THIRD
1196,7356,3,0,15.0,4.1,Third Street & Mariposa St,37.764391,-122.388853,KT,INGLESIDE/THIRD
1196,7357,3,0,15.0,4.1,UCSF/Mission Bay,37.769049,-122.389308,KT,INGLESIDE/THIRD
1196,7358,3,0,15.0,4.1,Third Street & Mission Rock St,37.772993,-122.389717,KT,INGLESIDE/THIRD
1196,7359,3,1,14.9,3.6,Third Street & Mission Rock St,37.772832,-122.389717,KT,INGLESIDE/THIRD
1196,7360,3,1,14.9,3.6,UCSF/Mission Bay,37.76854,-122.389274,KT,INGLESIDE/THIRD
1196,7361,3,1,14.9,3.6,Third Street & Mariposa St,37.764239,-122.388865,KT,INGLESIDE/THIRD
1196,7362,3,1,15.0,3.6,Third Street & 20th St,37.760376,-122.388558,KT,INGLESIDE/THIRD
1196,7363,3,1,14.9,3.6,Third Street & 23rd St,37.75529,-122.388012,KT,INGLESIDE/THIRD
1196,7364,3,1,16.0,2.3,Third Street & Marin St,37.749079,-122.387479,KT,INGLESIDE/THIRD
1196,7365,3,1,16.0,2.3,Third Street & Evans Ave,37.742727,-122.388034,KT,INGLESIDE/THIRD
1093,7380,3,0,13.5,2.9,The Embarcadero & Harrison St,37.78957,-122.388489,N,JUDAH
1093,7380,3,1,13.1,3.2,The Embarcadero & Harrison St,37.78957,-122.388489,N,JUDAH
1196,7380,3,0,15.4,3.5,The Embarcadero & Harrison St,37.78957,-122.388489,KT,INGLESIDE/THIRD
1196,7380,3,1,15.5,3.0,The Embarcadero & Harrison St,37.78957,-122.388489,KT,INGLESIDE/THIRD
1196,7390,3,1,16.0,2.3,Third Street/Hudson/Innes,37.739916,-122.388907,KT,INGLESIDE/THIRD
1196,7391,3,1,16.0,2.3,Third Street/Kirkwood/La Salle,37.737641,-122.389711,KT,INGLESIDE/THIRD
1196,7392,3,1,16.0,2.3,Third Street/Oakdale/Palou,37.73435,-122.390859,KT,INGLESIDE/THIRD
1196,7393,3,1,15.9,2.3,Third Street/Revere/Shafter,37.73228,-122.391536,KT,INGLESIDE/THIRD
1196,7394,3,1,15.9,2.3,Third Street & Le Conte Ave,37.718827,-122.397491,KT,INGLESIDE/THIRD
1196,7395,3,1,15.9,2.3,Bay Shore Blvd/Arleta/Blanken,37.712253,-122.402316,KT,INGLESIDE/THIRD
1196,7396,3,1,15.9,2.3,Bay Shore Blvd & Sunnydale Ave,37.70897,-122.405055,KT,INGLESIDE/THIRD
1196,7397,3,1,15.0,3.6,4th St & King St,37.776252,-122.394036,KT,INGLESIDE/THIRD
1196,7398,3,0,16.0,2.8,Bay Shore Blvd & Sunnydale Ave,37.708997,-122.405021,KT,INGLESIDE/THIRD
1196,7399,3,0,16.0,2.8,Bay Shore Blvd/Arleta/Blanken,37.712226,-122.402339,KT,INGLESIDE/THIRD
1196,7401,3,0,16.0,2.8,Third Street/Revere/Shafter,37.732262,-122.391502,KT,INGLESIDE/THIRD
1196,7402,3,0,16.0,2.8,Third Street/Oakdale/Palou,37.734358,-122.390836,KT,INGLESIDE/THIRD
1196,7403,3,0,16.0,2.8,Third Street/Kirkwood/La Salle,37.737641,-122.389688,KT,INGLESIDE/THIRD
1196,7404,3,0,16.0,2.8,Third Street/Hudson/Innes,37.739916,-122.388884,KT,INGLESIDE/THIRD
1196,7440,3,0,17.9,19.1,Muni Metro East/Not a public stop,37.752808,-122.386823,KT,INGLESIDE/THIRD
1196,7440,3,1,15.4,11.3,Muni Metro East/Not a public stop,37.752808,-122.386823,KT,INGLESIDE/THIRD
1199,7449,3,1,16.4,3.0,19th Ave & Winston Dr,37.727195,-122.474846,M,OCEAN VIEW
