stop_id,service_id,direction_id,numroutes,TripsServingStop,stop_name,stop_lat,stop_lon
10005,SATURDAY,1,1,32,40TH AVE NE & NE 51ST ST,47.665886,-122.284897
10020,SATURDAY,0,1,31,NE 55TH ST & 37TH AVE NE,47.668583,-122.2883
10020,SATURDAY,1,1,37,NE 55TH ST & 37TH AVE NE,47.668583,-122.2883
10040,SATURDAY,1,2,39,NE 55TH ST & 33RD AVE NE,47.66859,-122.293007
10070,SATURDAY,1,1,37,NE 55TH ST & 25TH AVE NE,47.668594,-122.300987
10083,SATURDAY,1,1,37,RAVENNA AVE NE & RAVENNA PL NE,47.668476,-122.303787
10100,SATURDAY,1,1,37,NE RAVENNA BLVD & PARK RD NE,47.669567,-122.305412
10130,SATURDAY,1,1,37,NE 50TH ST & 19TH AVE NE,47.664932,-122.307106
1020,SATURDAY,0,1,34,HOWELL ST & YALE AVE,47.61763,-122.329414
10220,SATURDAY,1,5,87,FAIRVIEW AVE N & HARRISON ST,47.621777,-122.334427
1030,SATURDAY,0,4,37,OLIVE WAY & 4TH AVE,47.612091,-122.33857
10305,SATURDAY,0,5,83,FAIRVIEW AVE N & HARRISON ST,47.62228,-122.334236
10325,SATURDAY,0,5,83,FAIRVIEW AVE N & VALLEY ST,47.626553,-122.333542
10340,SATURDAY,0,5,83,FAIRVIEW AVE N & YALE AVE N,47.62888,-122.330589
10350,SATURDAY,0,5,83,FAIRVIEW AVE E & YALE AVE N,47.63047,-122.328545
10380,SATURDAY,0,1,36,NE 50TH ST & 16TH AVE NE,47.664818,-122.310425
1040,SATURDAY,0,5,39,OLIVE WAY & 6TH AVE,47.61303,-122.336327
10400,SATURDAY,0,1,36,20TH AVE NE & NE 50TH ST,47.66502,-122.306412
10420,SATURDAY,0,1,36,20TH AVE NE & NE 54TH ST,47.668171,-122.306381
10490,SATURDAY,0,1,36,NE 55TH ST & 33RD AVE NE,47.668446,-122.292328
1050,SATURDAY,0,3,35,OLIVE WAY & 8TH AVE,47.613934,-122.334167
1050,SATURDAY,1,1,1,OLIVE WAY & 8TH AVE,47.613934,-122.334167
10500,SATURDAY,0,1,36,NE 55TH ST & 35TH AVE NE,47.668442,-122.290398
10515,SATURDAY,0,1,31,40TH AVE NE & NE 50TH ST,47.665089,-122.284691
10560,SATURDAY,0,1,36,NE 55TH ST & PRINCETON AVE NE,47.669182,-122.275909
10562,SATURDAY,0,1,34,SAND PT WAY NE & 40TH AVE NE,47.663448,-122.284119
10564,SATURDAY,0,1,34,SAND PT WAY NE & NE 50TH ST,47.664658,-122.28286
10566,SATURDAY,0,1,34,SAND PT WAY NE & NE 52ND ST,47.666653,-122.2808
10568,SATURDAY,0,1,34,SAND PT WAY NE & PRINCETON AVE NE,47.668201,-122.275978
10580,SATURDAY,0,2,70,SAND PT WAY NE & NE WINDERMERE RD,47.670029,-122.270813
10620,SATURDAY,0,1,34,SAND PT WAY NE & NE 65TH ST,47.675972,-122.263451
10630,SATURDAY,0,1,34,SAND PT WAY NE & NE 70TH ST,47.679432,-122.263519
10650,SATURDAY,0,1,34,SAND PT WAY NE & NE 77TH ST,47.685001,-122.264458
10680,SATURDAY,0,1,34,SAND PT WAY NE & INVERNESS DR NE,47.69276,-122.270775
1070,SATURDAY,0,4,36,OLIVE WAY & TERRY AVE,47.61491,-122.331848
10730,SATURDAY,0,1,34,SAND PT WAY NE & NE 97TH ST,47.699097,-122.277626
10750,SATURDAY,0,1,34,SAND PT WAY NE & NE 103RD ST,47.703087,-122.277557
10780,SATURDAY,0,1,34,SAND PT WAY NE & NE 110TH ST,47.709228,-122.280228
10800,SATURDAY,0,1,34,SAND PT WAY NE & NE 115TH ST,47.712616,-122.281837
10820,SATURDAY,0,1,34,SAND PT WAY NE & NE 120TH ST,47.716015,-122.282997
10830,SATURDAY,0,1,34,SAND PT WAY NE & NE 123RD ST,47.717598,-122.283943
1084,SATURDAY,0,1,57,CONVENTION PLACE,47.614281,-122.331863
10840,SATURDAY,0,1,34,SAND PT WAY NE & NE 125TH ST,47.719234,-122.285782
1085,SATURDAY,0,2,21,PINE ST & 9TH AVE,47.613377,-122.332596
1085,SATURDAY,1,6,255,PINE ST & 9TH AVE,47.613377,-122.332596
10912,SATURDAY,0,2,90,15TH AVE NE & NE 43RD ST,47.659367,-122.312096
10912,SATURDAY,1,4,228,15TH AVE NE & NE 43RD ST,47.659367,-122.312096
10914,SATURDAY,0,2,90,15TH AVE NE & NE CAMPUS PKWY,47.656426,-122.312164
10914,SATURDAY,1,4,228,15TH AVE NE & NE CAMPUS PKWY,47.656426,-122.312164
10915,SATURDAY,0,1,69,HARVARD AVE E & EASTLAKE AVE E,47.650246,-122.321999
10970,SATURDAY,1,1,69,10TH AVE E & E NEWTON ST,47.637028,-122.320183
10990,SATURDAY,1,1,69,10TH AVE E & E GALER ST,47.632126,-122.320305
11010,SATURDAY,1,1,69,10TH AVE E & E PROSPECT ST,47.628735,-122.32032
11050,SATURDAY,0,1,27,BROADWAY  E & E THOMAS ST,47.620812,-122.320984
11050,SATURDAY,1,1,69,BROADWAY  E & E THOMAS ST,47.620812,-122.320984
11060,SATURDAY,0,1,27,BROADWAY & E DENNY WAY,47.618534,-122.320961
11060,SATURDAY,1,2,82,BROADWAY & E DENNY WAY,47.618534,-122.320961
11070,SATURDAY,0,1,27,BROADWAY & E PINE ST,47.616196,-122.320915
11070,SATURDAY,1,2,82,BROADWAY & E PINE ST,47.616196,-122.320915
1108,SATURDAY,0,3,125,WESTLAKE STATION,47.611397,-122.337502
1108,SATURDAY,1,4,153,WESTLAKE STATION,47.611397,-122.337502
11080,SATURDAY,1,4,163,E PINE ST & BROADWAY,47.615303,-122.321495
1109,SATURDAY,0,1,57,WESTLAKE STATION,47.611725,-122.336708
1109,SATURDAY,1,1,31,WESTLAKE STATION,47.611725,-122.336708
11090,SATURDAY,1,4,163,E PINE ST & BELMONT AVE,47.615295,-122.324768
1110,SATURDAY,0,1,20,PINE ST & 5TH AVE,47.611771,-122.336449
1110,SATURDAY,1,6,235,PINE ST & 5TH AVE,47.611771,-122.336449
11100,SATURDAY,1,6,255,E PINE ST & BELLEVUE AVE,47.615299,-122.327271
1111,SATURDAY,0,1,20,PINE ST & 3RD AVE,47.610848,-122.338554
1111,SATURDAY,1,4,74,PINE ST & 3RD AVE,47.610848,-122.338554
11130,SATURDAY,0,6,254,PIKE ST & CONVENTION PL,47.612381,-122.331329
11132,SATURDAY,0,6,254,PIKE ST & BOREN AVE,47.613583,-122.328445
11140,SATURDAY,0,4,161,E PINE ST & SUMMIT AVE,47.615158,-122.325249
11150,SATURDAY,0,4,161,E PINE ST & BROADWAY,47.615158,-122.321617
11170,SATURDAY,0,2,81,BROADWAY & E HOWELL ST,47.617889,-122.32074
11170,SATURDAY,1,1,27,BROADWAY & E HOWELL ST,47.617889,-122.32074
11190,SATURDAY,0,1,69,BROADWAY  E & E HARRISON ST,47.622196,-122.320808
11190,SATURDAY,1,1,27,BROADWAY  E & E HARRISON ST,47.622196,-122.320808
1120,SATURDAY,0,1,2,PINE ST & 4TH AVE,47.611107,-122.33802
1120,SATURDAY,1,5,161,PINE ST & 4TH AVE,47.611107,-122.33802
1121,SATURDAY,0,4,150,WESTLAKE STATION,47.611801,-122.335823
1121,SATURDAY,1,3,124,WESTLAKE STATION,47.611801,-122.335823
1122,SATURDAY,0,1,32,WESTLAKE STATION,47.611286,-122.337067
1122,SATURDAY,1,1,57,WESTLAKE STATION,47.611286,-122.337067
11230,SATURDAY,0,1,69,10TH AVE E & E PROSPECT ST,47.628864,-122.320114
11250,SATURDAY,0,1,69,10TH AVE E & E GALER ST,47.632217,-122.320114
11270,SATURDAY,0,1,69,10TH AVE E & E HOWE ST,47.636162,-122.319992
11290,SATURDAY,0,1,69,10TH AVE E & E MILLER ST,47.641571,-122.319962
11330,SATURDAY,0,1,69,HARVARD AVE E & E SHELBY ST,47.64711,-122.321999
11352,SATURDAY,0,4,229,15TH AVE NE & NE 42ND ST,47.658668,-122.311905
11352,SATURDAY,1,2,87,15TH AVE NE & NE 42ND ST,47.658668,-122.311905
11354,SATURDAY,0,3,216,NE 45TH ST & BROOKLYN AVE NE,47.661343,-122.313881
11400,SATURDAY,1,1,61,15TH AVE E & E ALOHA ST,47.626686,-122.312668
11410,SATURDAY,1,1,61,15TH AVE E & E ROY ST,47.625034,-122.312698
11420,SATURDAY,1,1,61,15TH AVE E & E MERCER ST,47.62397,-122.312706
11450,SATURDAY,1,1,60,15TH AVE E & E JOHN ST,47.619804,-122.31282
11460,SATURDAY,1,1,60,15TH AVE & E DENNY WAY,47.618301,-122.312843
11470,SATURDAY,1,1,60,15TH AVE & E OLIVE ST,47.616234,-122.312859
11490,SATURDAY,1,3,97,E PINE ST & 13TH AVE,47.615337,-122.315903
11510,SATURDAY,0,3,96,E PINE ST & 10TH AVE,47.615185,-122.319092
11520,SATURDAY,0,3,96,E PINE ST & 12TH AVE,47.6152,-122.31649
11535,SATURDAY,0,1,35,E PINE ST & 15TH AVE,47.615219,-122.312286
11540,SATURDAY,0,1,59,15TH AVE & E PINE ST,47.615601,-122.312668
11550,SATURDAY,0,1,59,15TH AVE & E HOWELL ST,47.617836,-122.312653
11570,SATURDAY,0,1,61,15TH AVE E & E HARRISON ST,47.62257,-122.312531
11590,SATURDAY,0,1,61,15TH AVE E & E ROY ST,47.625427,-122.312492
11630,SATURDAY,0,1,61,GRANDVIEW PL E & E GALER ST,47.632523,-122.311821
11690,SATURDAY,0,1,31,MOUNT RAINIER DR S & S RIDGEWAY PL,47.576645,-122.286415
11690,SATURDAY,1,1,34,MOUNT RAINIER DR S & S RIDGEWAY PL,47.576645,-122.286415
11730,SATURDAY,1,1,34,31ST AVE S & S LANDER ST,47.579861,-122.2929
11770,SATURDAY,1,1,34,31ST AVE S & S PLUM ST,47.585102,-122.2929
11790,SATURDAY,1,1,34,31ST AVE S & S MASSACHUSETTS ST,47.588162,-122.292435
11820,SATURDAY,1,1,34,31ST AVE S & S NORMAN ST,47.593514,-122.292671
11840,SATURDAY,1,1,34,31ST AVE S & S DEARBORN ST,47.595924,-122.292603
11880,SATURDAY,1,1,34,S JACKSON ST & 28TH AVE S,47.599285,-122.296112
1190,SATURDAY,0,7,287,PIKE ST & 6TH AVE,47.611038,-122.334526
11910,SATURDAY,1,1,34,S JACKSON ST & 23RD AVE S,47.59935,-122.302025
1192,SATURDAY,0,4,150,CONVENTION PLACE,47.613941,-122.33152
1192,SATURDAY,1,3,24,CONVENTION PLACE,47.613941,-122.33152
11920,SATURDAY,1,1,34,S JACKSON ST & 22ND AVE S,47.599331,-122.304634
1193,SATURDAY,0,1,32,CONVENTION PLACE,47.613792,-122.331886
11960,SATURDAY,0,1,35,S JACKSON ST & RAINIER AVE S,47.599148,-122.313583
12030,SATURDAY,0,1,35,S JACKSON ST & 28TH AVE S,47.599155,-122.295944
12050,SATURDAY,0,1,35,31ST AVE S & S KING ST,47.597744,-122.29274
12080,SATURDAY,0,1,35,31ST AVE S & S NORMAN ST,47.593067,-122.292885
12130,SATURDAY,0,1,35,31ST AVE S & S PLUM ST,47.584961,-122.293106
12140,SATURDAY,0,1,35,31ST AVE S & S WALKER ST,47.583424,-122.293106
1215,SATURDAY,1,1,33,UNION ST & 6TH AVE,47.610077,-122.333923
12160,SATURDAY,0,1,35,31ST AVE S & S LANDER ST,47.579426,-122.293106
12200,SATURDAY,0,1,31,MOUNT RAINIER DR S & 37TH PL S,47.576542,-122.286552
12220,SATURDAY,1,2,37,42ND AVE E & E LYNN ST,47.638863,-122.278534
12240,SATURDAY,1,2,37,42ND AVE E & E MADISON ST,47.635609,-122.278572
12250,SATURDAY,1,2,37,E MADISON ST & 41ST AVE E,47.63464,-122.279854
12270,SATURDAY,1,2,37,E MADISON ST & 38TH AVE E,47.63179,-122.284065
12290,SATURDAY,1,2,37,E MADISON ST & 34TH AVE E,47.628899,-122.288338
1230,SATURDAY,0,3,6,UNION ST & 4TH AVE,47.609131,-122.336174
1230,SATURDAY,1,4,38,UNION ST & 4TH AVE,47.609131,-122.336174
12340,SATURDAY,0,1,59,E MADISON ST & 25TH AVE E,47.620869,-122.300179
12340,SATURDAY,1,2,36,E MADISON ST & 25TH AVE E,47.620869,-122.300179
12350,SATURDAY,1,2,36,E MADISON ST & 23RD AVE E,47.619278,-122.302528
12351,SATURDAY,1,2,36,E MADISON ST & 22ND AVE E,47.618298,-122.303978
12353,SATURDAY,1,3,74,E MADISON ST & 19TH AVE,47.616615,-122.307877
12354,SATURDAY,1,3,74,E MADISON ST & 17TH AVE,47.615517,-122.310509
12355,SATURDAY,1,1,59,E MADISON ST & 15TH AVE,47.614357,-122.313309
12390,SATURDAY,0,2,37,E MADISON ST & 29TH AVE E,47.624069,-122.295181
12400,SATURDAY,0,2,37,E MADISON ST & LK WASHINGTON BLVD,47.626152,-122.292099
12410,SATURDAY,0,2,37,E MADISON ST & 33RD AVE E,47.628189,-122.289093
12450,SATURDAY,0,2,37,E MADISON ST & 41ST AVE E,47.634399,-122.279907
12460,SATURDAY,0,2,37,43RD AVE E & E BLAINE ST,47.634884,-122.277039
12470,SATURDAY,0,2,37,43RD AVE E & E MADISON ST,47.636635,-122.277016
12480,SATURDAY,0,2,37,43RD AVE E & E LYNN ST,47.639088,-122.276985
12484,SATURDAY,0,1,36,MARTIN L KING JR WAY S & S WALKER ST,47.584255,-122.298241
12484,SATURDAY,1,1,60,MARTIN L KING JR WAY S & S WALKER ST,47.584255,-122.298241
12485,SATURDAY,0,1,36,S WALKER ST & 25TH AVE S,47.583717,-122.299622
12485,SATURDAY,1,1,39,S WALKER ST & 25TH AVE S,47.583717,-122.299622
12487,SATURDAY,0,1,36,MARTIN L KING JR WAY S & S MASSACHUSETTS ST,47.587902,-122.298157
12487,SATURDAY,1,1,60,MARTIN L KING JR WAY S & S MASSACHUSETTS ST,47.587902,-122.298157
12500,SATURDAY,1,1,39,26TH AVE S & S NORMAN ST,47.593162,-122.29895
12550,SATURDAY,0,1,59,23RD AVE S & S JACKSON ST,47.59964,-122.302139
12550,SATURDAY,1,2,101,23RD AVE S & S JACKSON ST,47.59964,-122.302139
1260,SATURDAY,1,1,62,SENECA ST & 6TH AVE,47.608742,-122.331474
12630,SATURDAY,0,2,100,23RD AVE S & E YESLER WAY,47.601257,-122.302353
12630,SATURDAY,1,1,60,23RD AVE S & E YESLER WAY,47.601257,-122.302353
12640,SATURDAY,0,2,100,23RD AVE S & S JACKSON ST,47.59906,-122.302338
12660,SATURDAY,0,1,36,S DEARBORN ST & 24TH AVE S,47.595505,-122.301628
12670,SATURDAY,0,1,36,24TH AVE S & S NORMAN ST,47.592743,-122.301292
1270,SATURDAY,0,1,61,SPRING ST & 4TH AVE,47.606873,-122.333199
12712,SATURDAY,1,2,39,34TH AVE & E CHERRY ST,47.608051,-122.289528
12720,SATURDAY,1,2,39,E CHERRY ST & 32ND AVE,47.608036,-122.292
12740,SATURDAY,1,2,39,E CHERRY ST & MARTIN L KING JR WAY,47.608063,-122.29615
12790,SATURDAY,1,3,78,E JEFFERSON ST & 21ST AVE,47.606236,-122.305359
1280,SATURDAY,0,1,61,SPRING ST & 6TH AVE,47.607815,-122.330948
12805,SATURDAY,1,3,78,E JEFFERSON ST & 18TH AVE,47.606247,-122.309662
12880,SATURDAY,1,2,77,JEFFERSON ST & 9TH AVE,47.604931,-122.324089
12900,SATURDAY,0,2,73,JAMES ST & 8TH AVE,47.605167,-122.325493
12920,SATURDAY,0,2,73,JEFFERSON ST & BROADWAY,47.606121,-122.320786
12960,SATURDAY,0,3,74,E JEFFERSON ST & 14TH AVE,47.606125,-122.313789
12980,SATURDAY,0,3,74,E JEFFERSON ST & 17TH AVE,47.606106,-122.309921
12991,SATURDAY,0,3,74,E JEFFERSON ST & 20TH AVE,47.606098,-122.305977
13001,SATURDAY,0,2,38,21ST AVE & E JAMES ST,47.607128,-122.304924
13070,SATURDAY,0,2,38,E CHERRY ST & 33RD AVE,47.60788,-122.290253
13080,SATURDAY,0,2,38,34TH AVE & E COLUMBIA ST,47.609474,-122.289291
13090,SATURDAY,0,1,37,E SPRING ST & 34TH AVE,47.611694,-122.289566
1310,SATURDAY,1,1,35,YESLER WAY & POST AVE,47.601654,-122.334908
1315,SATURDAY,0,2,84,YESLER WAY & 1ST AVE S,47.601654,-122.333649
1315,SATURDAY,1,1,35,YESLER WAY & 1ST AVE S,47.601654,-122.333649
13190,SATURDAY,0,1,38,INTERLAKEN TURNBA LOOP & 19TH AVE E,47.632511,-122.30735
13220,SATURDAY,1,1,38,19TH AVE E & E PROSPECT ST,47.628494,-122.307381
13230,SATURDAY,1,1,38,19TH AVE E & E ALOHA ST,47.626648,-122.307411
13240,SATURDAY,1,1,38,19TH AVE E & E MERCER ST,47.624199,-122.307396
13270,SATURDAY,1,1,38,19TH AVE & E DENNY WAY,47.618259,-122.307487
13281,SATURDAY,1,1,59,E MADISON ST & 11TH AVE,47.612454,-122.317886
13282,SATURDAY,0,1,27,MADISON ST & BROADWAY,47.61108,-122.321167
13282,SATURDAY,1,1,57,MADISON ST & BROADWAY,47.61108,-122.321167
13293,SATURDAY,0,1,58,E MADISON ST & BROADWAY,47.611271,-122.320328
13294,SATURDAY,0,1,38,E MADISON ST & 14TH AVE,47.613781,-122.314308
13300,SATURDAY,0,1,38,19TH AVE & E MADISON ST,47.617149,-122.307297
13320,SATURDAY,0,1,38,19TH AVE E & E JOHN ST,47.619873,-122.307259
13330,SATURDAY,0,1,38,19TH AVE E & E THOMAS ST,47.620674,-122.307243
13370,SATURDAY,0,1,38,19TH AVE E & E ALOHA ST,47.627041,-122.30719
13400,SATURDAY,1,1,35,BELLEVUE AVE E & E ROY ST,47.62495,-122.326714
13441,SATURDAY,1,2,92,BELLEVUE AVE & E OLIVE WAY,47.616734,-122.326889
13450,SATURDAY,0,2,93,BELLEVUE AVE & E PINE ST,47.615383,-122.326698
13460,SATURDAY,0,2,93,BELLEVUE AVE & E OLIVE ST,47.616508,-122.326683
13480,SATURDAY,0,1,35,SUMMIT AVE E & E OLIVE WAY,47.619366,-122.325195
1350,SATURDAY,0,1,31,YESLER WAY & 6TH AVE S,47.601639,-122.325958
13500,SATURDAY,0,1,35,SUMMIT AVE E & E HARRISON ST,47.622177,-122.325211
13510,SATURDAY,0,1,35,SUMMIT AVE E & E MERCER ST,47.624561,-122.325218
13540,SATURDAY,0,1,44,NW 105TH ST & 14TH AVE NW,47.70512,-122.373604
13540,SATURDAY,1,1,38,NW 105TH ST & 14TH AVE NW,47.70512,-122.373604
13542,SATURDAY,0,1,10,14TH AVE NW & NW 100TH ST,47.701637,-122.374191
13542,SATURDAY,1,1,38,14TH AVE NW & NW 100TH ST,47.701637,-122.374191
13550,SATURDAY,0,1,10,15TH AVE NW & NW 100TH ST,47.701248,-122.376869
13550,SATURDAY,1,1,38,15TH AVE NW & NW 100TH ST,47.701248,-122.376869
1360,SATURDAY,1,1,30,YESLER WAY & 6TH AVE,47.601788,-122.327393
13600,SATURDAY,0,1,10,15TH AVE NW & NW 85TH ST,47.690159,-122.376915
13600,SATURDAY,1,1,49,15TH AVE NW & NW 85TH ST,47.690159,-122.376915
13610,SATURDAY,1,1,49,15TH AVE NW & NW 83RD ST,47.688385,-122.3769
13620,SATURDAY,1,1,49,15TH AVE NW & NW 80TH ST,47.686634,-122.3769
13660,SATURDAY,1,1,49,15TH AVE NW & NW 70TH ST,47.679394,-122.376869
13670,SATURDAY,1,1,49,15TH AVE NW & NW 65TH ST,47.676022,-122.37664
1370,SATURDAY,1,1,30,YESLER WAY & 3RD AVE,47.601788,-122.329796
13700,SATURDAY,1,1,49,15TH AVE NW & NW 60TH ST,47.672432,-122.376312
13721,SATURDAY,1,2,51,15TH AVE NW & NW MARKET ST,47.668232,-122.376312
13760,SATURDAY,1,4,130,15TH AVE NW & NW LEARY WAY,47.663147,-122.376472
13800,SATURDAY,1,3,99,15TH AVE W & W DRAVUS ST,47.648174,-122.376869
13830,SATURDAY,1,3,99,15TH AVE W & W WHEELER ST,47.640324,-122.376312
13860,SATURDAY,1,3,99,15TH AVE W & W GARFIELD ST,47.633656,-122.376266
13900,SATURDAY,1,3,99,W MERCER ST & 5TH AVE W,47.624542,-122.363319
13922,SATURDAY,0,1,36,MERCER ST & WARREN AVE N,47.624504,-122.353729
1400,SATURDAY,1,1,57,MADISON ST & 5TH AVE,47.606644,-122.331779
14038,SATURDAY,0,3,100,W MERCER ST & 3RD AVE W,47.624672,-122.36116
14090,SATURDAY,0,3,100,ELLIOTT AVE W & W GALER ST,47.632252,-122.375481
14100,SATURDAY,0,3,100,15TH AVE W & W GARFIELD ST,47.633728,-122.376068
14110,SATURDAY,0,3,100,15TH AVE W & W NEWTON ST,47.636967,-122.376091
14130,SATURDAY,0,3,100,15TH AVE W & W WHEELER ST,47.640922,-122.376106
14140,SATURDAY,0,3,100,15TH AVE W & W RAYE ST,47.64312,-122.376122
1415,SATURDAY,1,1,57,MADISON ST & 4TH AVE,47.605988,-122.333366
14150,SATURDAY,0,3,100,15TH AVE W & W ARMOUR ST,47.644936,-122.376122
14170,SATURDAY,0,2,98,15TH AVE W & W DRAVUS ST,47.649097,-122.376038
14180,SATURDAY,0,2,98,15TH AVE W & W RUFFNER ST,47.652069,-122.376205
14190,SATURDAY,0,3,100,15TH AVE W & W EMERSON ST,47.653938,-122.376122
1420,SATURDAY,1,3,142,MADISON ST & 2ND AVE,47.605328,-122.334923
14200,SATURDAY,0,4,131,15TH AVE NW & NW LEARY WAY,47.663437,-122.375969
14210,SATURDAY,0,1,49,15TH AVE NW & NW 50TH ST,47.665321,-122.376007
14240,SATURDAY,0,1,49,15TH AVE NW & NW 57TH ST,47.670387,-122.376106
1425,SATURDAY,1,3,142,MADISON ST & 1ST AVE,47.604786,-122.33622
14260,SATURDAY,0,1,49,15TH AVE NW & NW 61ST ST,47.673554,-122.376106
14370,SATURDAY,0,1,49,15TH AVE NW & NW 90TH ST,47.693733,-122.376694
14380,SATURDAY,0,1,44,15TH AVE NW & NW 92ND ST,47.696293,-122.376694
14380,SATURDAY,1,1,8,15TH AVE NW & NW 92ND ST,47.696293,-122.376694
14410,SATURDAY,0,1,44,14TH AVE NW & NW 100TH ST,47.701782,-122.373985
14410,SATURDAY,1,1,8,14TH AVE NW & NW 100TH ST,47.701782,-122.373985
14420,SATURDAY,0,1,44,14TH AVE NW & NW 103RD ST,47.703304,-122.373985
14420,SATURDAY,1,1,8,14TH AVE NW & NW 103RD ST,47.703304,-122.373985
1490,SATURDAY,0,3,228,S JACKSON ST & 8TH AVE S,47.599117,-122.322037
14960,SATURDAY,0,1,33,ALKI AVE SW & 61ST AVE SW,47.57904,-122.410667
14960,SATURDAY,1,2,59,ALKI AVE SW & 61ST AVE SW,47.57904,-122.410667
14961,SATURDAY,1,1,34,61ST AVE SW & SW STEVENS ST,47.577522,-122.410789
14962,SATURDAY,1,1,34,61ST AVE SW & SW ADMIRAL WAY,47.576031,-122.410828
14970,SATURDAY,1,1,34,SW ADMIRAL WAY & 59TH AVE SW,47.576073,-122.407784
15000,SATURDAY,1,1,34,SW ADMIRAL WAY & SW STEVENS ST,47.578583,-122.400917
15002,SATURDAY,1,1,34,SW ADMIRAL WAY & 51ST AVE SW,47.579197,-122.396996
15040,SATURDAY,0,1,16,SW ADMIRAL WAY & 47TH AVE SW,47.581158,-122.391571
15040,SATURDAY,1,1,34,SW ADMIRAL WAY & 47TH AVE SW,47.581158,-122.391571
15140,SATURDAY,1,4,96,SW SPOKANE ST & 26TH AVE SW,47.571293,-122.365234
15152,SATURDAY,0,1,33,CHELAN AVE SW & SW SPOKANE ST,47.571606,-122.361603
15205,SATURDAY,1,5,116,1ST AVE S & S HANFORD ST,47.57592,-122.334099
1535,SATURDAY,0,1,35,S JACKSON ST & OCCIDENTAL AVE S,47.59927,-122.332436
1540,SATURDAY,1,2,77,JAMES ST & 5TH AVE,47.603813,-122.329102
15445,SATURDAY,1,2,35,CHELAN AVE SW & SW SPOKANE ST,47.57167,-122.361282
15451,SATURDAY,0,4,94,SW SPOKANE ST & CHELAN AVE SW,47.571716,-122.363304
15480,SATURDAY,0,2,34,SW ADMIRAL WAY & SW CITY VIEW ST,47.573513,-122.373009
1550,SATURDAY,1,2,77,JAMES ST & 4TH AVE,47.603172,-122.330627
15500,SATURDAY,0,2,34,SW ADMIRAL WAY & SW OLGA ST,47.580254,-122.376572
15521,SATURDAY,0,2,34,SW ADMIRAL WAY & 38TH AVE SW,47.581257,-122.380569
15560,SATURDAY,0,2,58,SW ADMIRAL WAY & 46TH AVE SW,47.581303,-122.390984
15570,SATURDAY,0,2,58,SW ADMIRAL WAY & SW WAITE ST,47.581036,-122.392281
15590,SATURDAY,0,2,58,SW ADMIRAL WAY & 51ST AVE SW,47.579338,-122.397331
15640,SATURDAY,0,2,58,SW ADMIRAL WAY & 59TH AVE SW,47.576115,-122.408043
1570,SATURDAY,0,2,73,JAMES ST & 5TH AVE,47.603783,-122.328789
1580,SATURDAY,0,1,57,MARION ST & 2ND AVE,47.604534,-122.334084
1600,SATURDAY,0,1,57,6TH AVE & MARION ST,47.606575,-122.33017
16100,SATURDAY,1,1,66,AURORA VILLAGE TC,47.774246,-122.342407
16102,SATURDAY,0,1,29,AURORA VILLAGE TC,47.774483,-122.341393
16102,SATURDAY,1,1,28,AURORA VILLAGE TC,47.774483,-122.341393
16104,SATURDAY,0,1,24,AURORA VILLAGE TC,47.774372,-122.34198
16130,SATURDAY,0,2,89,N 200TH ST & AURORA AVE N,47.774094,-122.34478
16160,SATURDAY,1,1,28,MERIDIAN AVE N & N 198TH ST,47.772114,-122.33532
16170,SATURDAY,1,1,28,MERIDIAN AVE N & N 194TH ST,47.769836,-122.335274
16180,SATURDAY,1,1,28,MERIDIAN AVE N & N 190TH ST,47.766697,-122.33519
16190,SATURDAY,1,1,28,MERIDIAN AVE N & N 188TH ST,47.765366,-122.335167
16220,SATURDAY,1,1,28,MERIDIAN AVE N & N 180TH ST,47.759384,-122.33503
16240,SATURDAY,1,1,28,MERIDIAN AVE N & N 175TH ST,47.755638,-122.33493
16260,SATURDAY,1,1,28,MERIDIAN AVE N & N 167TH ST,47.750271,-122.334839
16270,SATURDAY,1,1,28,MERIDIAN AVE N & N 165TH ST,47.74844,-122.334801
16280,SATURDAY,1,1,28,MERIDIAN AVE N & N 163RD ST,47.746639,-122.33474
16290,SATURDAY,1,1,28,MERIDIAN AVE N & N 160TH ST,47.744835,-122.334686
16300,SATURDAY,1,1,28,MERIDIAN AVE N & N 158TH ST,47.743404,-122.334648
16310,SATURDAY,1,1,28,MERIDIAN AVE N & N 155TH ST,47.741138,-122.334579
16340,SATURDAY,1,1,28,MERIDIAN AVE N & N 148TH ST,47.736149,-122.334442
16390,SATURDAY,1,1,62,NE RAVENNA BLVD & WOODLAWN AVE NE,47.678467,-122.324837
16430,SATURDAY,1,1,62,NE 65TH ST & ROOSEVELT WAY NE,47.675762,-122.317528
16470,SATURDAY,1,1,34,ROOSEVELT WAY NE & NE 58TH ST,47.67054,-122.317459
16580,SATURDAY,0,1,29,MERIDIAN AVE N & N 148TH ST,47.736668,-122.334251
16590,SATURDAY,0,1,29,MERIDIAN AVE N & N 150TH ST,47.738098,-122.33429
16610,SATURDAY,0,1,29,MERIDIAN AVE N & N 155TH ST,47.741638,-122.334389
16620,SATURDAY,0,1,29,MERIDIAN AVE N & N 156TH PL,47.743179,-122.334442
16650,SATURDAY,0,1,29,MERIDIAN AVE N & N 165TH ST,47.748962,-122.33461
16670,SATURDAY,0,1,29,MERIDIAN AVE N & N 170TH ST,47.752293,-122.334671
16680,SATURDAY,0,1,29,MERIDIAN AVE N & N 175TH ST,47.756298,-122.334755
16720,SATURDAY,0,1,29,MERIDIAN AVE N & N 185TH ST,47.763523,-122.334923
16750,SATURDAY,0,1,29,MERIDIAN AVE N & N 193RD ST,47.769432,-122.33506
16870,SATURDAY,1,2,52,N 128TH ST & MERIDIAN AVE N,47.722088,-122.334564
16880,SATURDAY,1,2,52,DENSMORE AVE N & N 128TH ST,47.7216,-122.337669
16890,SATURDAY,1,2,52,DENSMORE AVE N & N 125TH ST,47.719292,-122.338585
1690,SATURDAY,0,9,326,3RD AVE & VINE ST,47.616859,-122.348297
16952,SATURDAY,0,1,50,NE NORTHGATE WAY & 3RD AVE NE,47.70855,-122.325935
16953,SATURDAY,1,1,51,NE NORTHGATE WAY & 3RD AVE NE,47.708679,-122.325508
16958,SATURDAY,0,1,50,N NORTHGATE WAY & MERIDIAN AVE N,47.708584,-122.333305
16960,SATURDAY,0,1,25,MERIDIAN AVE N & N NORTHGATE WAY,47.70821,-122.334084
16960,SATURDAY,1,4,132,MERIDIAN AVE N & N NORTHGATE WAY,47.70821,-122.334084
16980,SATURDAY,0,1,25,MERIDIAN AVE N & N 105TH ST,47.70512,-122.33403
16980,SATURDAY,1,4,132,MERIDIAN AVE N & N 105TH ST,47.70512,-122.33403
16990,SATURDAY,0,1,25,COLLEGE WAY N & N 103RD ST,47.703056,-122.334099
16990,SATURDAY,1,4,132,COLLEGE WAY N & N 103RD ST,47.703056,-122.334099
170,SATURDAY,0,1,35,1ST AVE & MARION ST,47.60432,-122.335777
17022,SATURDAY,0,1,25,N 92ND ST & CORLISS AVE N,47.695858,-122.330673
17022,SATURDAY,1,3,81,N 92ND ST & CORLISS AVE N,47.695858,-122.330673
17080,SATURDAY,1,2,113,WALLINGFORD AVE N & N 80TH ST,47.687054,-122.336464
1710,SATURDAY,1,4,70,TERRACE ST & 5TH AVE,47.602116,-122.328064
17100,SATURDAY,1,1,51,N 80TH ST & CORLISS AVE N,47.68681,-122.330688
17110,SATURDAY,1,1,51,1ST AVE NE & N 80TH ST,47.686604,-122.32843
17120,SATURDAY,1,1,51,1ST AVE NE & N 77TH ST,47.68486,-122.328407
17140,SATURDAY,1,1,51,WOODLAWN AVE NE & LATONA AVE NE,47.68203,-122.32653
17170,SATURDAY,1,2,88,WOODLAWN AVE NE & 5TH AVE NE,47.678181,-122.325783
17180,SATURDAY,1,1,51,WOODLAWN AVE NE & 1ST AVE NE,47.677593,-122.32869
17250,SATURDAY,1,1,51,N 56TH ST & KEYSTONE PL N,47.668747,-122.332832
17260,SATURDAY,1,1,51,MERIDIAN AVE N & N 54TH ST,47.667713,-122.333801
17300,SATURDAY,1,1,51,MERIDIAN AVE N & N 46TH ST,47.661942,-122.333839
17350,SATURDAY,0,1,26,N 40TH ST & ASHWORTH AVE N,47.655739,-122.340248
17350,SATURDAY,1,1,36,N 40TH ST & ASHWORTH AVE N,47.655739,-122.340248
17420,SATURDAY,0,1,50,MERIDIAN AVE N & N 45TH ST,47.661667,-122.333626
17440,SATURDAY,0,2,52,MERIDIAN AVE N & N 49TH ST,47.664352,-122.333626
17470,SATURDAY,0,2,52,N 56TH ST & KEYSTONE PL N,47.668671,-122.332596
17510,SATURDAY,0,2,52,WOODLAWN AVE N & N 63RD ST,47.674358,-122.33316
17590,SATURDAY,0,2,52,1ST AVE NE & NE 77TH ST,47.685265,-122.328217
17600,SATURDAY,0,2,52,1ST AVE NE & NE 80TH ST,47.68663,-122.328224
17600,SATURDAY,1,1,2,1ST AVE NE & NE 80TH ST,47.68663,-122.328224
17698,SATURDAY,0,3,85,N 92ND ST & CORLISS AVE N,47.695999,-122.330505
17698,SATURDAY,1,1,28,N 92ND ST & CORLISS AVE N,47.695999,-122.330505
17755,SATURDAY,0,1,32,N NORTHGATE WAY & MERIDIAN AVE N,47.70853,-122.334618
17755,SATURDAY,1,1,28,N NORTHGATE WAY & MERIDIAN AVE N,47.70853,-122.334618
17760,SATURDAY,0,2,53,MERIDIAN AVE N & N NORTHGATE WAY,47.709003,-122.333893
17780,SATURDAY,0,2,53,MERIDIAN AVE N & N 115TH ST,47.71246,-122.333961
17800,SATURDAY,0,2,53,MERIDIAN AVE N & N 120TH ST,47.716148,-122.334023
17820,SATURDAY,0,2,53,N 122ND ST & BURKE AVE N,47.71719,-122.336449
17850,SATURDAY,0,2,53,N 128TH ST & MERIDIAN AVE N,47.721943,-122.334526
17870,SATURDAY,0,1,29,MERIDIAN AVE N & N 133RD ST,47.725273,-122.334084
17890,SATURDAY,0,1,29,MERIDIAN AVE N & ROOSEVELT WAY N,47.72892,-122.334114
1790,SATURDAY,1,1,35,ALASKAN WAY & UNIVERSITY ST,47.605885,-122.340508
17900,SATURDAY,0,1,29,MERIDIAN AVE N & N 140TH ST,47.730446,-122.334129
17952,SATURDAY,1,1,30,GOLDEN GDNS DR NW & NW 87TH ST,47.692364,-122.398811
17960,SATURDAY,1,1,30,32ND AVE NW & NW 85TH ST,47.690136,-122.398399
17980,SATURDAY,1,1,30,32ND AVE NW & NW 80TH ST,47.686363,-122.398399
17990,SATURDAY,1,1,30,32ND AVE NW & NW 77TH ST,47.684978,-122.398415
18000,SATURDAY,1,1,30,32ND AVE NW & NW 75TH ST,47.68314,-122.398399
18010,SATURDAY,1,1,30,32ND AVE NW & NW 73RD ST,47.681683,-122.398499
18020,SATURDAY,1,1,30,32ND AVE NW & NW 72ND ST,47.680714,-122.398499
18040,SATURDAY,1,1,30,32ND AVE NW & NW 67TH ST,47.677052,-122.398468
18041,SATURDAY,1,1,30,32ND AVE NW & NW 64TH ST,47.674484,-122.398483
18090,SATURDAY,1,1,77,NW 54TH ST & 30TH AVE NW,47.667969,-122.395706
1811,SATURDAY,1,1,35,ALASKAN WAY & WALL ST,47.612667,-122.351051
18110,SATURDAY,1,2,107,NW MARKET ST & 26TH AVE NW,47.668606,-122.389778
18120,SATURDAY,0,1,32,NW MARKET ST & BALLARD AVE NW,47.668613,-122.385971
18120,SATURDAY,1,3,156,NW MARKET ST & BALLARD AVE NW,47.668613,-122.385971
18150,SATURDAY,1,2,79,LEARY AVE NW & NW IONE PL,47.66536,-122.380722
18171,SATURDAY,1,2,55,W NICKERSON ST & 13TH AVE W,47.65538,-122.373741
18190,SATURDAY,1,2,55,W NICKERSON ST & JESSE AVE W,47.653778,-122.370094
18200,SATURDAY,1,2,55,W NICKERSON ST & 8TH AVE W,47.652256,-122.36747
18210,SATURDAY,1,2,55,W NICKERSON ST & 6TH AVE W,47.651512,-122.364235
18220,SATURDAY,0,1,36,W NICKERSON ST & 3RD AVE W,47.65068,-122.36055
18220,SATURDAY,1,2,55,W NICKERSON ST & 3RD AVE W,47.65068,-122.36055
18230,SATURDAY,1,2,55,W NICKERSON ST & QUEEN ANNE AVE N,47.649799,-122.35791
18250,SATURDAY,1,2,55,NICKERSON ST & FLORENTIA ST,47.64711,-122.352066
18260,SATURDAY,1,2,73,DEXTER AVE N & WESTLAKE AVE N,47.645668,-122.349548
18290,SATURDAY,1,2,73,DEXTER AVE N & 6TH AVE N,47.640591,-122.344589
18310,SATURDAY,1,2,73,DEXTER AVE N & DEXTER WAY N,47.637958,-122.343666
18320,SATURDAY,1,2,73,DEXTER AVE N & HOWE ST,47.635723,-122.342392
18359,SATURDAY,1,2,73,DEXTER AVE N & ALOHA ST,47.627239,-122.34243
18370,SATURDAY,1,2,73,DEXTER AVE N & MERCER ST,47.625164,-122.342445
18406,SATURDAY,0,3,6,BELL ST & 7TH AVE,47.617168,-122.341736
18406,SATURDAY,1,3,103,BELL ST & 7TH AVE,47.617168,-122.341736
18480,SATURDAY,0,2,72,DEXTER AVE N & ALOHA ST,47.627411,-122.342232
18505,SATURDAY,0,2,72,DEXTER AVE N & GALER ST,47.632473,-122.342171
18580,SATURDAY,0,2,72,DEXTER AVE N & 4TH AVE N,47.643902,-122.34597
18640,SATURDAY,0,2,57,W NICKERSON ST & 6TH AVE W,47.651676,-122.364304
18680,SATURDAY,0,1,31,W NICKERSON ST & W EMERSON ST,47.654415,-122.37574
18725,SATURDAY,0,1,32,LEARY AVE NW & NW VERNON PL,47.667438,-122.382912
18725,SATURDAY,1,1,29,LEARY AVE NW & NW VERNON PL,47.667438,-122.382912
18750,SATURDAY,0,2,108,NW MARKET ST & 26TH AVE NW,47.668739,-122.390068
18770,SATURDAY,0,1,31,NW 54TH ST & NW MARKET ST,47.668594,-122.394943
18780,SATURDAY,0,1,31,NW 54TH ST & 32ND AVE NW,47.667736,-122.396927
18790,SATURDAY,0,1,31,32ND AVE NW & NW MARKET ST,47.668556,-122.398224
1880,SATURDAY,0,1,34,ALASKAN WAY & MADISON ST,47.603394,-122.338196
1880,SATURDAY,1,1,34,ALASKAN WAY & MADISON ST,47.603394,-122.338196
18800,SATURDAY,0,1,31,32ND AVE NW & NW 56TH ST,47.669781,-122.398224
1881,SATURDAY,0,1,50,ALASKAN WAY & MARION ST,47.602844,-122.337708
1881,SATURDAY,1,1,51,ALASKAN WAY & MARION ST,47.602844,-122.337708
18810,SATURDAY,0,1,31,32ND AVE NW & NW 58TH ST,47.671169,-122.398239
18820,SATURDAY,0,1,31,32ND AVE NW & NW 60TH ST,47.672405,-122.398247
18830,SATURDAY,0,1,31,32ND AVE NW & NW 62ND ST,47.673882,-122.398277
18870,SATURDAY,0,1,31,32ND AVE NW & NW 71ST ST,47.680439,-122.398293
18900,SATURDAY,0,1,31,32ND AVE NW & NW 77TH ST,47.685089,-122.398209
18910,SATURDAY,0,1,31,32ND AVE NW & NW 80TH ST,47.686989,-122.398193
18930,SATURDAY,0,1,31,32ND AVE NW & LOYAL WAY NW,47.690022,-122.398209
190,SATURDAY,0,2,36,1ST AVE & UNIVERSITY ST,47.607189,-122.338402
190,SATURDAY,1,2,91,1ST AVE & UNIVERSITY ST,47.607189,-122.338402
19080,SATURDAY,0,1,35,24TH AVE NW & NW 87TH ST,47.692383,-122.387474
19080,SATURDAY,1,1,17,24TH AVE NW & NW 87TH ST,47.692383,-122.387474
19120,SATURDAY,0,1,35,24TH AVE NW & NW 96TH ST,47.699036,-122.387459
19120,SATURDAY,1,1,17,24TH AVE NW & NW 96TH ST,47.699036,-122.387459
19150,SATURDAY,0,1,35,TRITON DR NW & 27TH AVE NW,47.700054,-122.392525
19150,SATURDAY,1,1,17,TRITON DR NW & 27TH AVE NW,47.700054,-122.392525
19160,SATURDAY,0,1,35,TRITON DR NW & NW GOLDEN DR,47.69833,-122.393677
19160,SATURDAY,1,1,17,TRITON DR NW & NW GOLDEN DR,47.69833,-122.393677
19190,SATURDAY,0,1,35,28TH AVE NW & NW 87TH ST,47.692085,-122.393044
19190,SATURDAY,1,1,17,28TH AVE NW & NW 87TH ST,47.692085,-122.393044
19210,SATURDAY,0,1,35,NW 85TH ST & EARL AVE NW,47.690506,-122.391624
19210,SATURDAY,1,2,79,NW 85TH ST & EARL AVE NW,47.690506,-122.391624
19240,SATURDAY,1,1,49,24TH AVE NW & NW 85TH ST,47.690334,-122.387703
19250,SATURDAY,0,1,32,24TH AVE NW & NW 83RD ST,47.688831,-122.387703
19250,SATURDAY,1,1,49,24TH AVE NW & NW 83RD ST,47.688831,-122.387703
19260,SATURDAY,0,1,32,24TH AVE NW & NW 80TH ST,47.686611,-122.387688
19260,SATURDAY,1,1,49,24TH AVE NW & NW 80TH ST,47.686611,-122.387688
19270,SATURDAY,0,1,32,24TH AVE NW & NW 77TH ST,47.68473,-122.38768
19270,SATURDAY,1,1,49,24TH AVE NW & NW 77TH ST,47.68473,-122.38768
19280,SATURDAY,0,1,32,24TH AVE NW & NW 75TH ST,47.682991,-122.387665
19280,SATURDAY,1,1,49,24TH AVE NW & NW 75TH ST,47.682991,-122.387665
19320,SATURDAY,0,1,32,24TH AVE NW & NW 65TH ST,47.675556,-122.387688
19320,SATURDAY,1,1,49,24TH AVE NW & NW 65TH ST,47.675556,-122.387688
19340,SATURDAY,0,1,32,24TH AVE NW & NW 61ST ST,47.672901,-122.387688
19340,SATURDAY,1,1,49,24TH AVE NW & NW 61ST ST,47.672901,-122.387688
19410,SATURDAY,1,2,50,ELLIOTT AVE W & W HARRISON ST,47.622318,-122.363037
19440,SATURDAY,0,2,49,DENNY WAY & 1ST AVE N,47.618679,-122.355919
19460,SATURDAY,0,2,49,WESTERN AVE W & ELLIOTT AVE W,47.620892,-122.361038
19470,SATURDAY,0,2,49,ELLIOTT AVE W & 4TH AVE W,47.621532,-122.361847
19480,SATURDAY,0,2,49,ELLIOTT AVE W & 6TH AVE W,47.623352,-122.364006
19490,SATURDAY,0,2,49,ELLIOTT AVE W & W MERCER ST,47.625439,-122.366615
19530,SATURDAY,0,2,51,24TH AVE NW & NW 61ST ST,47.673366,-122.387482
19530,SATURDAY,1,1,29,24TH AVE NW & NW 61ST ST,47.673366,-122.387482
19590,SATURDAY,0,2,51,24TH AVE NW & NW 75TH ST,47.683372,-122.387459
19590,SATURDAY,1,1,29,24TH AVE NW & NW 75TH ST,47.683372,-122.387459
19600,SATURDAY,0,2,51,24TH AVE NW & NW 77TH ST,47.685154,-122.387482
19600,SATURDAY,1,1,29,24TH AVE NW & NW 77TH ST,47.685154,-122.387482
19610,SATURDAY,0,2,51,24TH AVE NW & NW 80TH ST,47.687008,-122.387497
19610,SATURDAY,1,1,29,24TH AVE NW & NW 80TH ST,47.687008,-122.387497
19670,SATURDAY,1,1,66,FAUNTLEROY WAY SW & SW BARTON ST,47.523174,-122.392906
19680,SATURDAY,1,1,66,FAUNTLEROY WAY SW & SW TRENTON ST,47.524811,-122.392693
19710,SATURDAY,1,1,66,FAUNTLEROY WAY SW & SW MONROE ST,47.531788,-122.392593
19750,SATURDAY,1,1,66,FAUNTLEROY WAY SW & SW MYRTLE ST,47.539867,-122.390503
19790,SATURDAY,0,1,27,CALIFORNIA AVE SW & FAUNTLEROY WAY SW,47.545315,-122.3871
19790,SATURDAY,1,3,91,CALIFORNIA AVE SW & FAUNTLEROY WAY SW,47.545315,-122.3871
19800,SATURDAY,0,1,27,CALIFORNIA AVE SW & SW GRAHAM ST,47.546989,-122.387093
19800,SATURDAY,1,3,91,CALIFORNIA AVE SW & SW GRAHAM ST,47.546989,-122.387093
19810,SATURDAY,0,1,27,CALIFORNIA AVE SW & SW RAYMOND ST,47.548752,-122.387032
19810,SATURDAY,1,3,91,CALIFORNIA AVE SW & SW RAYMOND ST,47.548752,-122.387032
19820,SATURDAY,0,1,27,CALIFORNIA AVE SW & SW JUNEAU ST,47.550587,-122.386978
19820,SATURDAY,1,3,91,CALIFORNIA AVE SW & SW JUNEAU ST,47.550587,-122.386978
19830,SATURDAY,0,1,27,CALIFORNIA AVE SW & SW FINDLAY ST,47.552372,-122.386925
19830,SATURDAY,1,3,91,CALIFORNIA AVE SW & SW FINDLAY ST,47.552372,-122.386925
19840,SATURDAY,0,1,27,CALIFORNIA AVE SW & SW BRANDON ST,47.554138,-122.386887
19840,SATURDAY,1,3,91,CALIFORNIA AVE SW & SW BRANDON ST,47.554138,-122.386887
19850,SATURDAY,0,1,27,CALIFORNIA AVE SW & SW DAWSON ST,47.55595,-122.386833
19850,SATURDAY,1,3,91,CALIFORNIA AVE SW & SW DAWSON ST,47.55595,-122.386833
19860,SATURDAY,0,1,27,CALIFORNIA AVE SW & SW HUDSON ST,47.557751,-122.386772
19860,SATURDAY,1,3,91,CALIFORNIA AVE SW & SW HUDSON ST,47.557751,-122.386772
19898,SATURDAY,0,3,84,SW AVALON WAY & SW BRADFORD ST,47.568867,-122.37085
20030,SATURDAY,0,4,139,SW ALASKA ST & 40TH AVE SW,47.561138,-122.383179
20030,SATURDAY,1,1,16,SW ALASKA ST & 40TH AVE SW,47.561138,-122.383179
20050,SATURDAY,0,3,91,CALIFORNIA AVE SW & ERSKINE WAY SW,47.558899,-122.38694
20050,SATURDAY,1,1,28,CALIFORNIA AVE SW & ERSKINE WAY SW,47.558899,-122.38694
20060,SATURDAY,0,3,91,CALIFORNIA AVE SW & SW HUDSON ST,47.557262,-122.386993
20060,SATURDAY,1,1,28,CALIFORNIA AVE SW & SW HUDSON ST,47.557262,-122.386993
20070,SATURDAY,0,3,91,CALIFORNIA AVE SW & SW DAWSON ST,47.555508,-122.387047
20070,SATURDAY,1,1,28,CALIFORNIA AVE SW & SW DAWSON ST,47.555508,-122.387047
20080,SATURDAY,0,3,91,CALIFORNIA AVE SW & SW BRANDON ST,47.554089,-122.387093
20080,SATURDAY,1,1,28,CALIFORNIA AVE SW & SW BRANDON ST,47.554089,-122.387093
2010,SATURDAY,0,1,36,10TH AVE W & W FULTON ST,47.645351,-122.37027
2010,SATURDAY,1,1,36,10TH AVE W & W FULTON ST,47.645351,-122.37027
20110,SATURDAY,0,3,91,CALIFORNIA AVE SW & SW RAYMOND ST,47.548264,-122.387253
20110,SATURDAY,1,1,28,CALIFORNIA AVE SW & SW RAYMOND ST,47.548264,-122.387253
20130,SATURDAY,0,1,65,FAUNTLEROY WAY SW & CALIFORNIA AVE SW,47.544872,-122.38768
20150,SATURDAY,0,1,65,FAUNTLEROY WAY SW & SW WILLOW ST,47.542057,-122.390137
20170,SATURDAY,0,1,65,FAUNTLEROY WAY SW & SW MYRTLE ST,47.539299,-122.390984
20190,SATURDAY,0,1,65,FAUNTLEROY WAY SW & SW WEBSTER ST,47.535618,-122.392715
2020,SATURDAY,1,1,36,10TH AVE W & W BOTHWELL ST,47.64349,-122.3703
20210,SATURDAY,0,1,65,FAUNTLEROY WAY SW & SW KENYON PL,47.532044,-122.392799
20220,SATURDAY,0,1,65,FAUNTLEROY WAY SW & SW ROSE ST,47.529556,-122.39283
20250,SATURDAY,0,1,65,FAUNTLEROY WAY SW & SW BARTON ST,47.523006,-122.393074
20270,SATURDAY,0,1,65,SW WILDWOOD PL & 46TH AVE SW,47.520939,-122.3909
2050,SATURDAY,1,1,36,10TH AVE W & W MCGRAW ST,47.639458,-122.370407
20530,SATURDAY,0,1,28,W EMERSON ST & MAGNOLIA BLVD W,47.654163,-122.411743
20530,SATURDAY,1,1,28,W EMERSON ST & MAGNOLIA BLVD W,47.654163,-122.411743
20540,SATURDAY,1,1,28,WEST VIEWMONT WAY W & W RUFFNER ST,47.651913,-122.41053
20560,SATURDAY,1,1,28,WEST VIEWMONT WAY W & W DRAVUS ST,47.64843,-122.409668
20590,SATURDAY,1,1,28,WEST VIEWMONT WAY W & W RAYE ST,47.643284,-122.409752
2060,SATURDAY,1,1,36,10TH AVE W & W CROCKETT ST,47.637588,-122.370438
20610,SATURDAY,1,1,28,WEST VIEWMONT WAY W & W PARKMONT PL,47.640293,-122.409546
20650,SATURDAY,0,1,5,35TH AVE W & W MCGRAW ST,47.639469,-122.402283
20650,SATURDAY,1,1,34,35TH AVE W & W MCGRAW ST,47.639469,-122.402283
20670,SATURDAY,1,1,25,W MCGRAW ST & 32ND AVE W,47.639488,-122.397896
20681,SATURDAY,1,1,25,CONDON WAY W & W NEWTON ST,47.636696,-122.39505
20690,SATURDAY,1,1,25,CONDON WAY W & W HOWE ST,47.635773,-122.394386
20700,SATURDAY,1,3,75,28TH AVE W & W BLAINE ST,47.63488,-122.393158
20720,SATURDAY,1,2,50,W GALER ST & THORNDYKE AVE W,47.632252,-122.391434
20730,SATURDAY,1,2,50,MAGNOLIA BRDG & PIER 91,47.633419,-122.382812
20760,SATURDAY,1,1,34,2ND AVE & WALL ST,47.615158,-122.347694
20810,SATURDAY,0,3,51,4TH AVE & WALL ST,47.616909,-122.346382
20820,SATURDAY,0,2,49,4TH AVE & CEDAR ST,47.617981,-122.348213
20830,SATURDAY,0,3,108,DENNY WAY & BROAD ST,47.618648,-122.350723
20830,SATURDAY,1,1,36,DENNY WAY & BROAD ST,47.618648,-122.350723
20860,SATURDAY,0,2,49,MAGNOLIA BRDG & PIER 91,47.633549,-122.382896
20880,SATURDAY,0,2,49,THORNDYKE AVE W & W HAYES ST,47.63401,-122.391762
2090,SATURDAY,1,1,36,10TH AVE W & W GALER ST,47.63237,-122.370506
2100,SATURDAY,1,1,36,OLYMPIC WAY W & W LEE ST,47.630848,-122.369942
21020,SATURDAY,0,1,28,WEST VIEWMONT WAY W & W BARRETT LN,47.647087,-122.409462
21030,SATURDAY,0,1,28,WEST VIEWMONT WAY W & W DRAVUS ST,47.648773,-122.409462
21050,SATURDAY,0,1,28,WEST VIEWMONT WAY W & W RUFFNER ST,47.652233,-122.410561
21104,SATURDAY,1,1,28,8TH AVE SW & SW 99TH ST,47.515682,-122.345383
2120,SATURDAY,1,1,36,OLYMPIC WAY W & 7TH AVE W,47.627613,-122.366104
21240,SATURDAY,0,2,40,SW ROXBURY ST & 28TH AVE SW,47.517326,-122.368248
21250,SATURDAY,0,3,32,SW ROXBURY ST & 26TH AVE SW,47.517292,-122.365448
21250,SATURDAY,1,1,28,SW ROXBURY ST & 26TH AVE SW,47.517292,-122.365448
21292,SATURDAY,0,1,27,16TH AVE SW & SW ROXBURY ST,47.517849,-122.355057
21292,SATURDAY,1,4,161,16TH AVE SW & SW ROXBURY ST,47.517849,-122.355057
21360,SATURDAY,0,1,27,16TH AVE SW & SW TRENTON ST,47.524963,-122.354988
21360,SATURDAY,1,1,34,16TH AVE SW & SW TRENTON ST,47.524963,-122.354988
21380,SATURDAY,0,1,27,16TH AVE SW & SW THISTLE ST,47.528519,-122.354958
21380,SATURDAY,1,1,34,16TH AVE SW & SW THISTLE ST,47.528519,-122.354958
21400,SATURDAY,0,1,27,16TH AVE SW & SW KENYON ST,47.532116,-122.35495
21400,SATURDAY,1,1,34,16TH AVE SW & SW KENYON ST,47.532116,-122.35495
21420,SATURDAY,0,1,27,SW AUSTIN ST & DUMAR WAY SW,47.53463,-122.356148
21420,SATURDAY,1,1,1,SW AUSTIN ST & DUMAR WAY SW,47.53463,-122.356148
21430,SATURDAY,0,1,27,DUMAR WAY SW & SW ORCHARD ST,47.537792,-122.35865
21430,SATURDAY,1,1,1,DUMAR WAY SW & SW ORCHARD ST,47.537792,-122.35865
21450,SATURDAY,1,2,56,DELRIDGE WAY SW & SW MYRTLE ST,47.539253,-122.360817
21460,SATURDAY,1,2,56,DELRIDGE WAY SW & CROFT PL SW,47.540798,-122.360725
21480,SATURDAY,1,2,56,DELRIDGE WAY SW & SW HOLLY ST,47.543003,-122.361107
2150,SATURDAY,1,1,36,W ROY ST & 2ND AVE W,47.625652,-122.358772
21520,SATURDAY,1,2,56,DELRIDGE WAY SW & SW JUNEAU ST,47.549969,-122.362907
21540,SATURDAY,1,2,56,DELRIDGE WAY SW & SW BRANDON ST,47.553638,-122.362869
21560,SATURDAY,1,2,56,DELRIDGE WAY SW & SW HUDSON ST,47.557411,-122.362816
21570,SATURDAY,1,2,56,DELRIDGE WAY SW & SW EDMUNDS ST,47.559494,-122.362785
21590,SATURDAY,1,3,90,DELRIDGE WAY SW & SW OREGON ST,47.563183,-122.363251
21670,SATURDAY,1,1,18,AIRPT WAY S & DIAGONAL AVE S,47.573235,-122.321846
21730,SATURDAY,1,1,18,AIRPT WAY S & S HILL ST,47.584736,-122.321289
21740,SATURDAY,1,1,18,S HOLGATE ST & AIRPT WAY S,47.586277,-122.321793
21765,SATURDAY,0,3,118,6TH AVE S & S ATLANTIC ST,47.590763,-122.325867
21765,SATURDAY,1,1,18,6TH AVE S & S ATLANTIC ST,47.590763,-122.325867
21833,SATURDAY,0,1,18,6TH AVE S & S ROYAL BROUGHAM WAY,47.592091,-122.326065
21833,SATURDAY,1,1,33,6TH AVE S & S ROYAL BROUGHAM WAY,47.592091,-122.326065
21870,SATURDAY,0,1,18,AIRPT WAY S & S WALKER ST,47.583763,-122.321495
21880,SATURDAY,0,1,18,AIRPT WAY S & S STACY ST,47.581676,-122.321495
21910,SATURDAY,0,1,18,AIRPT WAY S & S STEVENS ST,47.575378,-122.321503
21920,SATURDAY,0,1,18,AIRPT WAY S & DIAGONAL AVE S,47.574108,-122.321518
21940,SATURDAY,0,1,18,AIRPT WAY S & S SPOKANE ST,47.571808,-122.322861
21990,SATURDAY,0,3,89,DELRIDGE WAY SW & SW ANDOVER ST,47.568024,-122.363388
220,SATURDAY,0,1,35,1ST AVE & LENORA ST,47.612095,-122.344193
2200,SATURDAY,1,7,271,QUEEN ANNE AVE N & W JOHN ST,47.619213,-122.356857
22010,SATURDAY,0,3,89,DELRIDGE WAY SW & SW GENESEE ST,47.564488,-122.363419
22020,SATURDAY,0,2,56,DELRIDGE WAY SW & SW OREGON ST,47.56271,-122.363457
22040,SATURDAY,0,2,56,DELRIDGE WAY SW & SW EDMUNDS ST,47.559029,-122.363007
22050,SATURDAY,0,2,56,DELRIDGE WAY SW & SW HUDSON ST,47.557552,-122.363022
22070,SATURDAY,0,2,56,DELRIDGE WAY SW & SW BRANDON ST,47.553474,-122.363075
2210,SATURDAY,1,3,112,1ST AVE & BAY ST,47.617962,-122.354469
22120,SATURDAY,0,2,56,DELRIDGE WAY SW & SW HOLLY ST,47.54287,-122.361313
2215,SATURDAY,1,1,36,BROAD ST & 5TH AVE N,47.620972,-122.347404
22157,SATURDAY,0,1,55,DELRIDGE WAY SW & SW KENYON ST,47.531654,-122.36055
22160,SATURDAY,0,1,1,SW ORCHARD ST & DELRIDGE WAY SW,47.537838,-122.36055
22160,SATURDAY,1,1,28,SW ORCHARD ST & DELRIDGE WAY SW,47.537838,-122.36055
22165,SATURDAY,0,1,55,DELRIDGE WAY SW & SW THISTLE ST,47.52805,-122.360558
22170,SATURDAY,0,1,1,DUMAR WAY SW & SW ORCHARD ST,47.537689,-122.35881
22170,SATURDAY,1,1,28,DUMAR WAY SW & SW ORCHARD ST,47.537689,-122.35881
22175,SATURDAY,0,1,55,DELRIDGE WAY SW & SW TRENTON ST,47.524368,-122.360573
22185,SATURDAY,1,1,55,DELRIDGE WAY SW & SW TRENTON ST,47.524406,-122.360382
22190,SATURDAY,0,1,33,16TH AVE SW & SW HOLDEN ST,47.533432,-122.355141
22190,SATURDAY,1,1,28,16TH AVE SW & SW HOLDEN ST,47.533432,-122.355141
22193,SATURDAY,1,1,55,DELRIDGE WAY SW & SW KENYON ST,47.532093,-122.360344
2220,SATURDAY,1,11,344,3RD AVE & CEDAR ST,47.616875,-122.348625
22200,SATURDAY,0,1,33,16TH AVE SW & SW KENYON ST,47.531639,-122.355148
22200,SATURDAY,1,1,28,16TH AVE SW & SW KENYON ST,47.531639,-122.355148
22210,SATURDAY,0,1,33,16TH AVE SW & SW ELMGROVE ST,47.529839,-122.355148
22210,SATURDAY,1,1,28,16TH AVE SW & SW ELMGROVE ST,47.529839,-122.355148
22220,SATURDAY,0,1,33,16TH AVE SW & SW THISTLE ST,47.52805,-122.355164
22220,SATURDAY,1,1,28,16TH AVE SW & SW THISTLE ST,47.52805,-122.355164
22246,SATURDAY,0,3,68,16TH AVE SW & SW CAMBRIDGE ST,47.51928,-122.355247
22246,SATURDAY,1,1,28,16TH AVE SW & SW CAMBRIDGE ST,47.51928,-122.355247
22253,SATURDAY,0,2,94,DELRIDGE WAY SW & SW BARTON ST,47.520782,-122.358345
22256,SATURDAY,0,1,33,SW ROXBURY ST & 20TH AVE SW,47.517429,-122.359535
22256,SATURDAY,1,2,25,SW ROXBURY ST & 20TH AVE SW,47.517429,-122.359535
22257,SATURDAY,0,1,33,SW ROXBURY ST & 22ND AVE SW,47.517433,-122.36171
22257,SATURDAY,1,2,25,SW ROXBURY ST & 22ND AVE SW,47.517433,-122.36171
22261,SATURDAY,1,2,67,SW ROXBURY ST & 30TH AVE SW,47.51749,-122.371178
22263,SATURDAY,1,2,67,SW ROXBURY ST & 35TH AVE SW,47.517555,-122.376396
22264,SATURDAY,0,1,23,35TH AVE SW & SW ROXBURY ST,47.516933,-122.376915
22264,SATURDAY,1,1,14,35TH AVE SW & SW ROXBURY ST,47.516933,-122.376915
22280,SATURDAY,0,1,23,SW 100TH ST & 35TH AVE SW,47.513794,-122.376938
22280,SATURDAY,1,1,14,SW 100TH ST & 35TH AVE SW,47.513794,-122.376938
22330,SATURDAY,0,1,23,SW 100TH ST & 42ND AVE SW,47.51384,-122.386093
22330,SATURDAY,1,1,14,SW 100TH ST & 42ND AVE SW,47.51384,-122.386093
22370,SATURDAY,0,1,23,MARINE VIEW DR SW & SW 104TH ST,47.50996,-122.388206
22370,SATURDAY,1,1,14,MARINE VIEW DR SW & SW 104TH ST,47.50996,-122.388206
22390,SATURDAY,0,1,23,SW 106TH ST & 41ST AVE SW,47.508194,-122.384331
22390,SATURDAY,1,1,14,SW 106TH ST & 41ST AVE SW,47.508194,-122.384331
2240,SATURDAY,1,1,60,DENNY WAY & BROAD ST,47.618519,-122.35112
22410,SATURDAY,0,1,23,39TH AVE SW & MARINE VIEW DR SW,47.506519,-122.381599
22410,SATURDAY,1,1,14,39TH AVE SW & MARINE VIEW DR SW,47.506519,-122.381599
22420,SATURDAY,0,1,23,MARINE VIEW DR SW & SW 110TH ST,47.504658,-122.380615
22420,SATURDAY,1,1,14,MARINE VIEW DR SW & SW 110TH ST,47.504658,-122.380615
22440,SATURDAY,0,1,23,MARINE VIEW DR SW & SW OCEAN VIEW DR,47.500568,-122.37941
22440,SATURDAY,1,1,14,MARINE VIEW DR SW & SW OCEAN VIEW DR,47.500568,-122.37941
2245,SATURDAY,1,1,60,DENNY WAY & 5TH AVE N,47.618507,-122.34787
22450,SATURDAY,0,1,23,MARINE VIEW DR SW & SW OCEAN VIEW DR,47.499241,-122.377472
22450,SATURDAY,1,1,14,MARINE VIEW DR SW & SW OCEAN VIEW DR,47.499241,-122.377472
2247,SATURDAY,1,1,60,DENNY WAY & 6TH AVE,47.618496,-122.345139
22480,SATURDAY,0,1,23,35TH AVE SW & SW 112TH ST,47.502644,-122.376038
22480,SATURDAY,1,1,14,35TH AVE SW & SW 112TH ST,47.502644,-122.376038
22500,SATURDAY,0,1,23,35TH AVE SW & SW 108TH ST,47.50634,-122.3759
22500,SATURDAY,1,1,14,35TH AVE SW & SW 108TH ST,47.50634,-122.3759
22510,SATURDAY,0,1,23,35TH AVE SW & SW 106TH ST,47.508427,-122.375816
22510,SATURDAY,1,1,14,35TH AVE SW & SW 106TH ST,47.508427,-122.375816
22520,SATURDAY,0,1,23,35TH AVE SW & SW 104TH ST,47.510208,-122.375793
22520,SATURDAY,1,1,14,35TH AVE SW & SW 104TH ST,47.510208,-122.375793
22530,SATURDAY,0,1,23,35TH AVE SW & SW 102ND ST,47.512127,-122.376053
22530,SATURDAY,1,1,14,35TH AVE SW & SW 102ND ST,47.512127,-122.376053
22550,SATURDAY,0,1,23,35TH AVE SW & SW 98TH ST,47.515644,-122.376534
22550,SATURDAY,1,1,14,35TH AVE SW & SW 98TH ST,47.515644,-122.376534
22560,SATURDAY,0,1,23,35TH AVE SW & SW ROXBURY ST,47.517731,-122.376778
22560,SATURDAY,1,1,37,35TH AVE SW & SW ROXBURY ST,47.517731,-122.376778
22570,SATURDAY,0,1,23,35TH AVE SW & SW CAMBRIDGE ST,47.519497,-122.376678
22570,SATURDAY,1,3,104,35TH AVE SW & SW CAMBRIDGE ST,47.519497,-122.376678
22580,SATURDAY,1,2,38,35TH AVE SW & SW BARTON ST,47.521301,-122.376656
22590,SATURDAY,1,2,38,35TH AVE SW & SW HENDERSON ST,47.523086,-122.376595
22610,SATURDAY,1,2,38,35TH AVE SW & SW CLOVERDALE ST,47.526775,-122.376534
2262,SATURDAY,1,1,60,DENNY WAY & STEWART ST,47.618427,-122.330917
22620,SATURDAY,1,2,38,35TH AVE SW & SW THISTLE ST,47.528507,-122.376541
22630,SATURDAY,1,2,38,35TH AVE SW & SW ELMGROVE ST,47.530361,-122.376541
22640,SATURDAY,1,2,38,35TH AVE SW & SW KENYON ST,47.532162,-122.376534
22680,SATURDAY,1,2,38,35TH AVE SW & SW MYRTLE ST,47.539463,-122.376465
22710,SATURDAY,1,1,37,35TH AVE SW & SW MORGAN ST,47.544766,-122.376335
22730,SATURDAY,1,1,37,35TH AVE SW & SW RAYMOND ST,47.548157,-122.376266
22740,SATURDAY,1,1,37,35TH AVE SW & SW JUNEAU ST,47.550388,-122.376228
2275,SATURDAY,0,1,59,E DENNY WAY & BELLEVUE AVE E,47.618565,-122.326645
22760,SATURDAY,1,1,37,35TH AVE SW & SW BRANDON ST,47.554008,-122.376175
22770,SATURDAY,1,1,37,35TH AVE SW & SW DAWSON ST,47.555748,-122.37616
22790,SATURDAY,1,1,37,35TH AVE SW & SW EDMUNDS ST,47.559154,-122.376137
2280,SATURDAY,0,1,59,DENNY WAY & STEWART ST,47.61858,-122.331673
22850,SATURDAY,0,4,139,SW ALASKA ST & 35TH AVE SW,47.561142,-122.3769
22850,SATURDAY,1,1,16,SW ALASKA ST & 35TH AVE SW,47.561142,-122.3769
22880,SATURDAY,0,1,35,35TH AVE SW & SW DAWSON ST,47.55537,-122.376366
22900,SATURDAY,0,1,35,35TH AVE SW & SW FINDLAY ST,47.55172,-122.376404
22910,SATURDAY,0,1,35,35TH AVE SW & SW JUNEAU ST,47.549938,-122.37645
22940,SATURDAY,0,2,36,35TH AVE SW & SW MORGAN ST,47.544518,-122.376556
22950,SATURDAY,0,2,36,35TH AVE SW & SW HOLLY ST,47.542618,-122.376595
22970,SATURDAY,0,2,36,35TH AVE SW & SW MYRTLE ST,47.538979,-122.376678
22980,SATURDAY,0,2,36,35TH AVE SW & SW OTHELLO ST,47.537132,-122.376694
22990,SATURDAY,0,2,36,35TH AVE SW & SW WEBSTER ST,47.535229,-122.376709
230,SATURDAY,0,1,35,1ST AVE & BELL ST,47.613663,-122.346848
2300,SATURDAY,0,1,59,DENNY WAY & 5TH AVE N,47.618648,-122.347839
23000,SATURDAY,0,2,36,35TH AVE SW & SW IDA ST,47.533905,-122.376724
23010,SATURDAY,0,2,36,35TH AVE SW & SW KENYON ST,47.531612,-122.376732
23040,SATURDAY,0,2,36,35TH AVE SW & SW CLOVERDALE ST,47.525868,-122.376732
23170,SATURDAY,1,1,54,5TH AVE NE & NE 123RD ST,47.717728,-122.323639
23200,SATURDAY,1,1,54,5TH AVE NE & NE 115TH ST,47.71228,-122.323486
23220,SATURDAY,1,1,54,5TH AVE NE & NE 112TH ST,47.709789,-122.323418
23273,SATURDAY,0,2,75,NE 100TH ST & 4TH AVE NE,47.701401,-122.324196
23273,SATURDAY,1,2,52,NE 100TH ST & 4TH AVE NE,47.701401,-122.324196
23280,SATURDAY,1,1,34,5TH AVE NE & NE 97TH ST,47.699524,-122.323212
2330,SATURDAY,0,7,271,1ST AVE N & DENNY WAY,47.6189,-122.355354
2330,SATURDAY,1,1,36,1ST AVE N & DENNY WAY,47.6189,-122.355354
23320,SATURDAY,1,1,34,5TH AVE NE & NE 88TH ST,47.692272,-122.32312
23330,SATURDAY,1,1,34,5TH AVE NE & NE 85TH ST,47.690178,-122.323105
23340,SATURDAY,1,1,34,5TH AVE NE & NE ELK PL,47.688709,-122.323074
23350,SATURDAY,1,1,34,NE 80TH ST & 5TH AVE NE,47.686718,-122.322296
23360,SATURDAY,1,1,34,NE 80TH ST & 8TH AVE NE,47.686688,-122.319946
23370,SATURDAY,1,2,53,ROOSEVELT WAY NE & NE 80TH ST,47.686489,-122.317657
23390,SATURDAY,1,1,34,ROOSEVELT WAY NE & NE 75TH ST,47.682865,-122.317589
23450,SATURDAY,1,1,34,EASTLAKE AVE E & NE 40TH ST,47.655823,-122.318146
23530,SATURDAY,0,1,34,11TH AVE NE & NE RAVENNA BLVD,47.67133,-122.316109
23560,SATURDAY,0,1,34,12TH AVE NE & NE 65TH ST,47.676044,-122.315567
23580,SATURDAY,0,1,34,12TH AVE NE & NE 70TH ST,47.67976,-122.315552
2360,SATURDAY,0,8,307,1ST AVE N & REPUBLICAN ST,47.623192,-122.355316
2360,SATURDAY,1,1,36,1ST AVE N & REPUBLICAN ST,47.623192,-122.355316
23600,SATURDAY,0,2,52,NE 75TH ST & 12TH AVE NE,47.683128,-122.315643
23610,SATURDAY,0,2,52,ROOSEVELT WAY NE & NE 75TH ST,47.683544,-122.31739
23630,SATURDAY,0,1,34,NE 80TH ST & ROOSEVELT WAY NE,47.68681,-122.317955
23650,SATURDAY,0,1,34,5TH AVE NE & NE 80TH ST,47.687096,-122.322861
23670,SATURDAY,0,1,34,5TH AVE NE & NE 85TH ST,47.690693,-122.322899
23680,SATURDAY,0,1,34,5TH AVE NE & NE 88TH ST,47.692444,-122.322929
2370,SATURDAY,0,5,195,MERCER ST & QUEEN ANNE AVE N,47.624653,-122.356544
23785,SATURDAY,0,1,53,5TH AVE NE & NE 112TH ST,47.709808,-122.323212
23800,SATURDAY,0,1,53,5TH AVE NE & NE 115TH ST,47.712479,-122.32328
23840,SATURDAY,0,1,53,5TH AVE NE & NE 125TH ST,47.718926,-122.323471
23900,SATURDAY,1,1,19,25TH AVE NE & NE 70TH ST,47.679157,-122.300758
23910,SATURDAY,1,1,19,25TH AVE NE & NE 60TH ST,47.671875,-122.300743
23915,SATURDAY,1,1,19,25TH AVE NE & NE 55TH ST,47.668297,-122.300713
23920,SATURDAY,1,1,19,25TH AVE NE & NE BLAKELEY ST,47.665997,-122.300705
23925,SATURDAY,1,1,19,25TH AVE NE & NE 47TH ST,47.662914,-122.301018
24260,SATURDAY,1,1,34,34TH AVE W & W MCGRAW ST,47.639805,-122.400902
24270,SATURDAY,1,1,34,34TH AVE W & W RAYE ST,47.643066,-122.400871
2430,SATURDAY,0,1,36,OLYMPIC WAY W & W PROSPECT ST,47.629059,-122.367981
24310,SATURDAY,1,1,34,34TH AVE W & W BERTONA ST,47.650646,-122.400818
24320,SATURDAY,1,1,34,34TH AVE W & W RUFFNER ST,47.652454,-122.400803
24350,SATURDAY,1,1,34,34TH AVE W & W ELMORE ST,47.657932,-122.400787
24360,SATURDAY,1,2,50,W GOVERNMENT WAY & 34TH AVE W,47.659573,-122.400505
24450,SATURDAY,1,1,34,28TH AVE W & W DRAVUS ST,47.648315,-122.393005
24490,SATURDAY,1,1,34,28TH AVE W & W SMITH ST,47.641216,-122.393089
2450,SATURDAY,0,1,36,10TH AVE W & W GALER ST,47.632504,-122.3703
24500,SATURDAY,1,1,34,28TH AVE W & W LYNN ST,47.638916,-122.393112
24570,SATURDAY,0,1,33,28TH AVE W & W RAYE ST,47.643593,-122.392853
24580,SATURDAY,0,1,33,28TH AVE W & W FULTON ST,47.645698,-122.39283
24630,SATURDAY,0,1,33,W TILDEN ST & 29TH AVE W,47.653236,-122.394531
24660,SATURDAY,0,1,33,31ST AVE W & W MANSELL ST,47.658649,-122.396721
24680,SATURDAY,0,2,49,W GOVERNMENT WAY & 33RD AVE W,47.660004,-122.39975
24690,SATURDAY,0,1,33,34TH AVE W & W GOVERNMENT WAY,47.658733,-122.400993
2470,SATURDAY,0,1,36,10TH AVE W & W HOWE ST,47.636154,-122.370247
24700,SATURDAY,0,1,33,34TH AVE W & W ELMORE ST,47.657539,-122.400993
24720,SATURDAY,0,1,33,34TH AVE W & W EMERSON ST,47.653778,-122.401009
24760,SATURDAY,0,1,33,34TH AVE W & W BARRETT ST,47.646622,-122.401039
24780,SATURDAY,0,1,33,34TH AVE W & W RAYE ST,47.642986,-122.401062
2480,SATURDAY,0,1,36,10TH AVE W & W CROCKETT ST,47.637981,-122.370216
2490,SATURDAY,0,1,36,10TH AVE W & W MCGRAW ST,47.63977,-122.370125
24900,SATURDAY,1,1,32,35TH AVE NE & NE 125TH ST,47.718983,-122.290977
24910,SATURDAY,1,1,32,35TH AVE NE & NE 123RD ST,47.717121,-122.291481
24920,SATURDAY,1,1,32,35TH AVE NE & NE 120TH ST,47.715298,-122.291618
24930,SATURDAY,1,1,32,35TH AVE NE & 34TH AVE NE,47.713379,-122.291
250,SATURDAY,1,2,89,2ND AVE & BELL ST,47.613705,-122.345245
2500,SATURDAY,0,1,36,10TH AVE W & W HALLADAY ST,47.642193,-122.369957
25000,SATURDAY,1,1,32,35TH AVE NE & NE 94TH ST,47.696632,-122.290688
25020,SATURDAY,1,1,32,35TH AVE NE & NE 90TH ST,47.693596,-122.290726
25030,SATURDAY,1,1,32,35TH AVE NE & NE 88TH ST,47.691963,-122.290771
25040,SATURDAY,1,1,32,35TH AVE NE & NE 85TH ST,47.689915,-122.29081
25050,SATURDAY,1,1,32,35TH AVE NE & NE 81ST ST,47.687199,-122.290718
25080,SATURDAY,1,1,32,35TH AVE NE & NE 73RD ST,47.681023,-122.290527
2510,SATURDAY,0,1,36,10TH AVE W & W NEWELL ST,47.644459,-122.370094
25100,SATURDAY,1,1,32,35TH AVE NE & NE 68TH ST,47.677303,-122.290413
25110,SATURDAY,1,2,34,35TH AVE NE & NE 65TH ST,47.67551,-122.290375
25140,SATURDAY,1,2,34,35TH AVE NE & NE 57TH ST,47.668789,-122.290291
2520,SATURDAY,0,1,36,9TH AVE W & W ARMOUR ST,47.645317,-122.369278
25200,SATURDAY,1,2,65,NE 45TH ST & UNION BAY PL NE,47.661289,-122.293724
25210,SATURDAY,1,2,65,MONTLAKE BLVD NE & NE 45TH ST,47.661045,-122.298897
25243,SATURDAY,0,2,90,MONTLAKE BLVD E & E LK WASHINGTON BLVD,47.644016,-122.304268
25243,SATURDAY,1,1,70,MONTLAKE BLVD E & E LK WASHINGTON BLVD,47.644016,-122.304268
2550,SATURDAY,1,1,40,7TH AVE W & W PLEASANT PL,47.642765,-122.366341
25752,SATURDAY,1,1,25,MONTLAKE BLVD E & E SHELBY ST,47.646286,-122.304428
25793,SATURDAY,0,1,18,25TH AVE NE & NE 55TH ST,47.668739,-122.300522
25793,SATURDAY,1,1,2,25TH AVE NE & NE 55TH ST,47.668739,-122.300522
25795,SATURDAY,0,1,18,25TH AVE NE & NE 65TH ST,47.676002,-122.300552
25796,SATURDAY,0,1,18,25TH AVE NE & NE 70TH ST,47.679684,-122.300568
25870,SATURDAY,0,1,31,35TH AVE NE & NE 62ND ST,47.673916,-122.290154
25890,SATURDAY,0,1,31,35TH AVE NE & NE 68TH ST,47.677792,-122.290222
259,SATURDAY,0,3,103,BLANCHARD ST & 4TH AVE,47.614529,-122.342598
259,SATURDAY,1,1,26,BLANCHARD ST & 4TH AVE,47.614529,-122.342598
2590,SATURDAY,1,1,40,6TH AVE W & W HOWE ST,47.636024,-122.365097
25900,SATURDAY,0,1,31,35TH AVE NE & NE 70TH ST,47.679623,-122.290276
25910,SATURDAY,0,1,31,35TH AVE NE & NE 73RD ST,47.681534,-122.290337
25920,SATURDAY,0,1,31,35TH AVE NE & NE 75TH ST,47.682941,-122.290375
25930,SATURDAY,0,1,31,35TH AVE NE & NE 77TH ST,47.685082,-122.290443
25940,SATURDAY,0,1,31,35TH AVE NE & NE 80TH ST,47.686932,-122.290512
25970,SATURDAY,0,1,31,35TH AVE NE & NE 87TH ST,47.691929,-122.290565
25980,SATURDAY,0,1,31,35TH AVE NE & NE 89TH ST,47.693344,-122.290535
25990,SATURDAY,0,1,31,35TH AVE NE & NE 91ST ST,47.694794,-122.290497
260,SATURDAY,1,1,34,2ND AVE & LENORA ST,47.612164,-122.342628
2600,SATURDAY,1,1,40,6TH AVE W & W BLAINE ST,47.634529,-122.36512
26000,SATURDAY,0,1,31,35TH AVE NE & NE 93RD ST,47.696209,-122.290466
26010,SATURDAY,0,1,31,35TH AVE NE & NE 95TH ST,47.697704,-122.290466
26030,SATURDAY,0,1,31,35TH AVE NE & NE 100TH ST,47.701534,-122.290619
26050,SATURDAY,0,1,31,35TH AVE NE & NE 105TH ST,47.705078,-122.290771
26110,SATURDAY,0,1,31,35TH AVE NE & NE 123RD ST,47.717522,-122.291245
26210,SATURDAY,0,1,37,NE RAVENNA BLVD & WOODLAWN AVE NE,47.67878,-122.325211
26210,SATURDAY,1,1,37,NE RAVENNA BLVD & WOODLAWN AVE NE,47.67878,-122.325211
26220,SATURDAY,1,1,37,4TH AVE NE & NE 65TH ST,47.675957,-122.324577
26260,SATURDAY,1,1,37,LATONA AVE NE & NE 57TH ST,47.669903,-122.325645
26280,SATURDAY,1,1,37,LATONA AVE NE & NE 53RD ST,47.666973,-122.325684
26300,SATURDAY,1,1,37,THACKERAY PL NE & NE 50TH ST,47.66473,-122.326233
26320,SATURDAY,1,1,37,THACKERAY PL NE & NE 45TH ST,47.661148,-122.326286
26340,SATURDAY,1,1,37,THACKERAY PL NE & NE 43RD ST,47.658714,-122.326317
26350,SATURDAY,1,1,37,2ND AVE NE & NE 42ND ST,47.657429,-122.326904
26380,SATURDAY,0,1,26,N 40TH ST & CORLISS AVE N,47.655644,-122.331764
26380,SATURDAY,1,2,73,N 40TH ST & CORLISS AVE N,47.655644,-122.331764
2640,SATURDAY,1,2,76,QUEEN ANNE AVE N & W GALER ST,47.631836,-122.356697
26410,SATURDAY,1,1,37,WALLINGFORD AVE N & N 39TH ST,47.654091,-122.33638
26590,SATURDAY,1,2,66,WESTLAKE AVE N & GALER ST,47.632389,-122.341011
26600,SATURDAY,1,2,66,WESTLAKE AVE N & HIGHLAND DR,47.629799,-122.341095
26715,SATURDAY,0,1,31,WESTLAKE AVE N & THOMAS ST,47.621067,-122.338364
2672,SATURDAY,1,7,271,QUEEN ANNE AVE N & W MERCER ST,47.624306,-122.356819
26730,SATURDAY,0,2,67,WESTLAKE AVE N & MERCER ST,47.624844,-122.338333
26780,SATURDAY,0,2,67,WESTLAKE AVE N & 8TH AVE N,47.635208,-122.340317
2680,SATURDAY,1,2,76,QUEEN ANNE AVE N & W ALOHA ST,47.626892,-122.356789
26840,SATURDAY,0,2,67,WESTLAKE AVE N & WESTLAKE AVE N,47.644352,-122.345467
26850,SATURDAY,0,2,67,WESTLAKE AVE N & WESTLAKE ALY,47.645569,-122.348427
26870,SATURDAY,0,2,73,N 35TH ST & TROLL AVE N,47.650032,-122.347054
26870,SATURDAY,1,1,25,N 35TH ST & TROLL AVE N,47.650032,-122.347054
26885,SATURDAY,0,2,73,N 35TH ST & STONE WAY N,47.649525,-122.343742
26885,SATURDAY,1,1,25,N 35TH ST & STONE WAY N,47.649525,-122.343742
2690,SATURDAY,0,2,76,1ST AVE N & MERCER ST,47.624741,-122.355301
26920,SATURDAY,0,1,37,WALLINGFORD AVE N & N 35TH ST,47.649418,-122.336235
26940,SATURDAY,0,1,37,WALLINGFORD AVE N & N 37TH ST,47.652195,-122.336205
26965,SATURDAY,0,2,73,N 40TH ST & WALLINGFORD AVE N,47.655579,-122.335701
26965,SATURDAY,1,1,25,N 40TH ST & WALLINGFORD AVE N,47.655579,-122.335701
26990,SATURDAY,0,2,73,N 40TH ST & SUNNYSIDE AVE N,47.655502,-122.329964
26990,SATURDAY,1,1,25,N 40TH ST & SUNNYSIDE AVE N,47.655502,-122.329964
27000,SATURDAY,0,2,73,NE 40TH ST & 1ST AVE NE,47.655483,-122.32753
27000,SATURDAY,1,1,25,NE 40TH ST & 1ST AVE NE,47.655483,-122.32753
27020,SATURDAY,0,1,37,NE 42ND ST & LATONA AVE NE,47.65762,-122.325348
27050,SATURDAY,0,1,37,LATONA AVE NE & NE 45TH ST,47.661617,-122.325005
2710,SATURDAY,0,2,76,QUEEN ANNE AVE N & ALOHA ST,47.62711,-122.356583
27100,SATURDAY,0,1,37,LATONA AVE NE & NE 54TH ST,47.668049,-122.32547
27110,SATURDAY,0,1,37,LATONA AVE NE & NE 56TH ST,47.66951,-122.325455
27150,SATURDAY,0,1,37,LATONA AVE NE & NE 65TH ST,47.675762,-122.325348
27175,SATURDAY,0,1,31,36TH AVE S & S DAY ST,47.588825,-122.286713
27175,SATURDAY,1,1,30,36TH AVE S & S DAY ST,47.588825,-122.286713
27180,SATURDAY,1,1,30,LKSIDE AVE S & S DAY ST,47.590134,-122.286423
27190,SATURDAY,1,1,30,LKSIDE AVE S & S JUDKINS ST,47.5924,-122.287491
2730,SATURDAY,0,2,76,QUEEN ANNE AVE N & HIGHLAND DR,47.629791,-122.356514
27320,SATURDAY,1,1,30,E YESLER WAY & 29TH AVE,47.601726,-122.295288
27350,SATURDAY,1,1,30,E YESLER WAY & 23RD AVE,47.601734,-122.302177
2740,SATURDAY,0,2,76,QUEEN ANNE AVE N & W LEE ST,47.631493,-122.356491
27420,SATURDAY,1,1,30,YESLER WAY & BROADWAY,47.601768,-122.321053
27430,SATURDAY,1,1,30,YESLER WAY & 8TH AVE,47.601768,-122.322868
27480,SATURDAY,0,1,31,YESLER WAY & 8TH AVE S,47.601635,-122.322571
27510,SATURDAY,0,1,31,E YESLER WAY & 12TH AVE S,47.601624,-122.316246
27540,SATURDAY,0,1,31,E YESLER WAY & 18TH AVE S,47.601612,-122.30864
27550,SATURDAY,0,1,31,E YESLER WAY & 20TH AVE S,47.601601,-122.306564
27560,SATURDAY,0,1,31,E YESLER WAY & 22ND AVE S,47.601597,-122.303871
27590,SATURDAY,0,2,90,E YESLER WAY & 27TH AVE S,47.601593,-122.297531
2760,SATURDAY,0,1,40,W GALER ST & 1ST AVE W,47.632389,-122.35862
27600,SATURDAY,0,1,31,E YESLER WAY & 28TH AVE S,47.601589,-122.295525
27670,SATURDAY,0,1,31,E ALDER ST & ERIE AVE,47.603798,-122.28521
27690,SATURDAY,0,1,31,LKSIDE AVE S & E YESLER WAY,47.601631,-122.285469
2770,SATURDAY,0,1,40,W GALER ST & 3RD AVE W,47.632393,-122.361282
27720,SATURDAY,0,1,31,LKSIDE AVE S & S LANE ST,47.596832,-122.287453
27740,SATURDAY,0,1,31,LKSIDE AVE S & S JUDKINS ST,47.592297,-122.287643
27770,SATURDAY,0,1,30,N 143RD ST & GREENWOOD AVE N,47.73225,-122.355095
27790,SATURDAY,1,1,36,3RD AVE NW & NW 145TH ST,47.733814,-122.361038
27810,SATURDAY,1,1,36,3RD AVE NW & NW 140TH ST,47.730465,-122.361038
27820,SATURDAY,1,1,36,3RD AVE NW & NW 137TH ST,47.728668,-122.361053
27840,SATURDAY,1,1,36,NW 132ND ST & 3RD AVE NW,47.725151,-122.361557
27860,SATURDAY,1,1,36,8TH AVE NW & NW 132ND ST,47.724743,-122.366447
27880,SATURDAY,1,1,36,8TH AVE NW & NW 127TH ST,47.721207,-122.366478
27890,SATURDAY,1,1,36,NW 125TH ST & 8TH AVE NW,47.719597,-122.365891
2790,SATURDAY,0,1,40,6TH AVE W & W GARFIELD ST,47.633709,-122.364929
27910,SATURDAY,1,1,36,3RD AVE NW & NW 125TH ST,47.719254,-122.361053
27930,SATURDAY,1,1,36,3RD AVE NW & NW 120TH ST,47.716061,-122.361015
280,SATURDAY,0,1,27,2ND AVE & STEWART ST,47.610702,-122.340332
28000,SATURDAY,1,1,36,NW 103RD ST & 3RD AVE NW,47.703556,-122.361244
28020,SATURDAY,1,1,36,NW 100TH PL & NW 100TH ST,47.701649,-122.365562
28030,SATURDAY,1,1,36,8TH AVE NW & NW 97TH ST,47.69997,-122.36615
2810,SATURDAY,0,1,40,6TH AVE W & W CROCKETT ST,47.637974,-122.364876
28120,SATURDAY,1,2,38,8TH AVE NW & NW 75TH ST,47.683361,-122.366188
28130,SATURDAY,1,2,38,8TH AVE NW & NW 73RD ST,47.68121,-122.366203
28140,SATURDAY,1,1,36,8TH AVE NW & NW 70TH ST,47.679325,-122.366203
28160,SATURDAY,1,1,36,8TH AVE NW & NW 65TH ST,47.675796,-122.366135
28180,SATURDAY,1,1,36,8TH AVE NW & NW 61ST ST,47.672836,-122.366257
28210,SATURDAY,1,1,36,8TH AVE NW & NW MARKET ST,47.668426,-122.366287
28230,SATURDAY,1,1,36,8TH AVE NW & NW 51ST ST,47.665462,-122.366287
28250,SATURDAY,1,1,36,8TH AVE NW & NW 46TH ST,47.661942,-122.366287
28260,SATURDAY,1,1,36,LEARY WAY NW & NW 43RD ST,47.658703,-122.364601
28310,SATURDAY,1,1,36,N 36TH ST & PHINNEY AVE N,47.652206,-122.354622
2840,SATURDAY,0,1,40,6TH AVE W & W RAYE ST,47.643005,-122.364807
28425,SATURDAY,0,1,35,8TH AVE NW & NW 45th ST,47.661701,-122.366081
28450,SATURDAY,0,1,35,8TH AVE NW & NW 50TH ST,47.665203,-122.366096
28510,SATURDAY,0,1,35,8TH AVE NW & NW 65TH ST,47.676315,-122.36586
28550,SATURDAY,0,1,35,8TH AVE NW & NW 75TH ST,47.68346,-122.36586
28650,SATURDAY,0,1,35,8TH AVE NW & NW 95TH ST,47.698139,-122.365929
28680,SATURDAY,0,1,35,NW 100TH PL & 7TH AVE NW,47.70245,-122.363785
28720,SATURDAY,0,1,35,3RD AVE NW & NW 110TH ST,47.708984,-122.360725
28740,SATURDAY,0,1,35,3RD AVE NW & NW 115TH ST,47.712582,-122.360764
28750,SATURDAY,0,1,35,3RD AVE NW & NW 117TH ST,47.714348,-122.360794
28780,SATURDAY,0,1,35,NW 125TH ST & 3RD AVE NW,47.719708,-122.361488
28850,SATURDAY,0,1,35,NW 132ND ST & 3RD AVE NW,47.72501,-122.361145
28870,SATURDAY,0,1,35,3RD AVE NW & NW 137TH ST,47.729015,-122.360847
28880,SATURDAY,0,1,35,3RD AVE NW & NW 140TH ST,47.730793,-122.360832
28890,SATURDAY,0,1,35,3RD AVE NW & NW 143RD ST,47.732578,-122.360832
2900,SATURDAY,1,1,63,E DENNY WAY & E FLORENCE CT,47.618359,-122.288643
2911,SATURDAY,1,1,63,34TH AVE & E OLIVE ST,47.616302,-122.289307
29130,SATURDAY,1,2,65,NE 45TH ST & 36TH AVE NE,47.661194,-122.289223
29214,SATURDAY,1,1,77,NW MARKET ST & 17TH AVE NW,47.668598,-122.378372
29215,SATURDAY,1,1,77,NW MARKET ST & 15TH AVE NW,47.668594,-122.375847
29217,SATURDAY,1,1,77,NW MARKET ST & 11TH AVE NW,47.668594,-122.370453
29219,SATURDAY,1,1,77,NW MARKET ST & 8TH AVE NW,47.668594,-122.365532
29220,SATURDAY,1,1,77,NW MARKET ST & 6TH AVE NW,47.668617,-122.363037
29225,SATURDAY,1,1,77,N 46TH ST & PHINNEY AVE N,47.662071,-122.353638
29231,SATURDAY,0,2,52,N 45TH ST & STONE WAY N,47.66132,-122.341652
29231,SATURDAY,1,1,77,N 45TH ST & STONE WAY N,47.66132,-122.341652
29236,SATURDAY,1,1,77,NE 45TH ST & THACKERAY PL NE,47.661282,-122.32634
29239,SATURDAY,0,2,90,15TH AVE NE & NE PACIFIC ST,47.653172,-122.312378
29239,SATURDAY,1,2,124,15TH AVE NE & NE PACIFIC ST,47.653172,-122.312378
29244,SATURDAY,0,1,64,24TH AVE E & E CALHOUN ST,47.64069,-122.302177
29244,SATURDAY,1,1,70,24TH AVE E & E CALHOUN ST,47.64069,-122.302177
29251,SATURDAY,0,1,64,24TH AVE E & E GALER ST,47.632168,-122.301712
29251,SATURDAY,1,1,70,24TH AVE E & E GALER ST,47.632168,-122.301712
29254,SATURDAY,0,1,64,23RD AVE E & E ALOHA ST,47.626579,-122.30249
29254,SATURDAY,1,1,70,23RD AVE E & E ALOHA ST,47.626579,-122.30249
29255,SATURDAY,0,1,64,23RD AVE E & E ROY ST,47.624989,-122.302528
29255,SATURDAY,1,1,70,23RD AVE E & E ROY ST,47.624989,-122.302528
29260,SATURDAY,0,1,59,E THOMAS ST & 16TH AVE E,47.620564,-122.311264
29260,SATURDAY,1,1,70,E THOMAS ST & 16TH AVE E,47.620564,-122.311264
29261,SATURDAY,0,1,59,E JOHN ST & 15TH AVE E,47.620037,-122.313202
29261,SATURDAY,1,2,71,E JOHN ST & 15TH AVE E,47.620037,-122.313202
29268,SATURDAY,0,1,58,E OLIVE WAY & SUMMIT AVE E,47.619133,-122.324883
29268,SATURDAY,1,1,60,E OLIVE WAY & SUMMIT AVE E,47.619133,-122.324883
29277,SATURDAY,0,1,70,E JOHN ST & 12TH AVE E,47.619877,-122.316422
29277,SATURDAY,1,1,60,E JOHN ST & 12TH AVE E,47.619877,-122.316422
2930,SATURDAY,1,1,63,34TH AVE & E UNION ST,47.61301,-122.289406
29300,SATURDAY,0,1,70,24TH AVE E & E PROSPECT ST,47.629471,-122.301559
29300,SATURDAY,1,1,62,24TH AVE E & E PROSPECT ST,47.629471,-122.301559
29301,SATURDAY,0,1,59,E JOHN ST & 12TH AVE E,47.619995,-122.317528
29301,SATURDAY,1,1,70,E JOHN ST & 12TH AVE E,47.619995,-122.317528
29320,SATURDAY,0,1,70,24TH AVE E & E GALER ST,47.632767,-122.301506
29320,SATURDAY,1,1,62,24TH AVE E & E GALER ST,47.632767,-122.301506
29340,SATURDAY,0,1,70,24TH AVE E & BOYER AVE E,47.635136,-122.301468
29340,SATURDAY,1,1,62,24TH AVE E & BOYER AVE E,47.635136,-122.301468
29380,SATURDAY,0,1,70,EAST MONTLAKE PL E & E ROANOKE ST,47.643101,-122.302849
29380,SATURDAY,1,1,62,EAST MONTLAKE PL E & E ROANOKE ST,47.643101,-122.302849
2940,SATURDAY,0,1,1,E UNION ST & 33RD AVE,47.612976,-122.290794
2940,SATURDAY,1,1,63,E UNION ST & 33RD AVE,47.612976,-122.290794
29410,SATURDAY,0,2,125,NE PACIFIC ST & NE PACIFIC PL,47.650501,-122.307365
29410,SATURDAY,1,2,87,NE PACIFIC ST & NE PACIFIC PL,47.650501,-122.307365
29420,SATURDAY,0,2,125,NE PACIFIC ST & 15TH AVE NE,47.652359,-122.311081
29420,SATURDAY,1,2,87,NE PACIFIC ST & 15TH AVE NE,47.652359,-122.311081
29453,SATURDAY,1,1,77,NE 45TH ST & 7TH AVE NE,47.661259,-122.321152
29455,SATURDAY,0,1,77,NE 45TH ST & 9TH AVE NE,47.661373,-122.318214
29470,SATURDAY,0,1,77,NE 45TH ST & 7TH AVE NE,47.661388,-122.321304
2950,SATURDAY,0,1,1,E UNION ST & 31ST AVE,47.61301,-122.292931
2950,SATURDAY,1,1,63,E UNION ST & 31ST AVE,47.61301,-122.292931
29500,SATURDAY,0,1,77,N 45TH ST & SUNNYSIDE AVE N,47.661446,-122.330711
29557,SATURDAY,0,1,77,N 46TH ST & GREEN LK WAY N,47.662205,-122.345398
29580,SATURDAY,0,1,77,N 46TH ST & FREMONT AVE N,47.662212,-122.350441
2960,SATURDAY,0,1,1,E UNION ST & 29TH AVE,47.613026,-122.295288
2960,SATURDAY,1,1,63,E UNION ST & 29TH AVE,47.613026,-122.295288
29620,SATURDAY,0,1,77,NW MARKET ST & NW 48TH ST,47.663635,-122.357948
29640,SATURDAY,0,1,77,NW MARKET ST & 3RD AVE NW,47.667763,-122.361336
29650,SATURDAY,0,1,77,NW MARKET ST & 5TH AVE NW,47.668747,-122.363228
29660,SATURDAY,0,1,77,NW MARKET ST & 8TH AVE NW,47.668724,-122.366493
29690,SATURDAY,0,1,77,NW MARKET ST & 14TH AVE NW,47.668724,-122.37429
29700,SATURDAY,0,1,77,NW MARKET ST & 15TH AVE NW,47.668739,-122.376625
29710,SATURDAY,0,1,77,NW MARKET ST & 17TH AVE NW,47.668743,-122.379234
29720,SATURDAY,0,1,77,NW MARKET ST & 20TH AVE NW,47.668743,-122.382416
29930,SATURDAY,0,2,65,NE 45TH ST & 36TH AVE NE,47.661053,-122.289024
2995,SATURDAY,1,1,63,E UNION ST & 23RD AVE,47.61301,-122.302994
3010,SATURDAY,1,1,62,E UNION ST & 18TH AVE,47.612976,-122.309349
30171,SATURDAY,1,1,37,CARKEEK DR S & 41ST AVE S,47.522297,-122.281181
30180,SATURDAY,1,1,37,CARKEEK DR S & 40TH AVE S,47.517265,-122.282394
30190,SATURDAY,1,1,37,39TH AVE S & S CAMBRIDGE ST,47.518478,-122.283569
3020,SATURDAY,1,1,62,E UNION ST & 16TH AVE,47.612976,-122.31192
30211,SATURDAY,1,1,37,39TH AVE S & S BARTON ST,47.521481,-122.283554
30270,SATURDAY,1,1,37,BEACON AVE S & S MONROE ST,47.530773,-122.287781
30300,SATURDAY,1,1,37,BEACON AVE S & S WEBSTER ST,47.535229,-122.290359
3032,SATURDAY,1,1,62,E UNION ST & BROADWAY,47.613018,-122.320602
30340,SATURDAY,1,1,99,BEACON AVE S & S MYRTLE ST,47.539234,-122.296341
3036,SATURDAY,1,1,62,SENECA ST & TERRY AVE,47.610233,-122.327911
30410,SATURDAY,1,1,99,BEACON AVE S & S ORCAS ST,47.550903,-122.301605
30430,SATURDAY,1,1,99,BEACON AVE S & S BRANDON ST,47.553944,-122.302528
30453,SATURDAY,0,1,16,VA HOSPITAL,47.564117,-122.308159
30453,SATURDAY,1,1,16,VA HOSPITAL,47.564117,-122.308159
30460,SATURDAY,1,1,16,S COLUMBIAN WAY & BEACON AVE S,47.559792,-122.30513
30470,SATURDAY,1,1,16,S COLUMBIAN WAY & S ANGELINE ST,47.560562,-122.307487
30530,SATURDAY,1,1,16,S COLUMBIAN WAY & S SPOKANE ST,47.572041,-122.314621
30538,SATURDAY,1,3,76,4TH AVE S & S SPOKANE ST,47.572174,-122.328789
30600,SATURDAY,1,7,190,4TH AVE S & S HOLGATE ST,47.586391,-122.328964
30635,SATURDAY,0,2,3,4TH AVE S & S ROYAL BROUGHAM WAY,47.593204,-122.328949
30635,SATURDAY,1,11,227,4TH AVE S & S ROYAL BROUGHAM WAY,47.593204,-122.328949
30690,SATURDAY,0,6,186,4TH AVE S & S HOLGATE ST,47.585663,-122.32917
30700,SATURDAY,0,6,186,4TH AVE S & S WALKER ST,47.583725,-122.329155
30800,SATURDAY,0,2,43,15TH AVE S & S NEVADA ST,47.565064,-122.313599
30820,SATURDAY,0,1,16,S COLUMBIAN WAY & S SNOQUALMIE ST,47.561768,-122.310837
30830,SATURDAY,0,1,16,S COLUMBIAN WAY & S ANGELINE ST,47.560524,-122.307831
30855,SATURDAY,0,1,99,BEACON AVE S & S DAWSON ST,47.555714,-122.303581
30870,SATURDAY,0,1,99,BEACON AVE S & S BRANDON ST,47.553505,-122.302887
31001,SATURDAY,0,1,36,BEACON AVE S & S WEBSTER ST,47.535332,-122.291222
31050,SATURDAY,0,1,36,BEACON AVE S & S THISTLE ST,47.528107,-122.288116
31090,SATURDAY,0,1,36,39TH AVE S & S BARTON ST,47.521069,-122.28376
31111,SATURDAY,0,1,36,39TH AVE S & S CAMBRIDGE ST,47.518436,-122.28376
31130,SATURDAY,0,1,36,CARKEEK DR S & 40TH AVE S,47.517094,-122.282318
31134,SATURDAY,0,1,36,S HENDERSON ST & 48TH AVE S,47.523243,-122.272575
31134,SATURDAY,1,2,93,S HENDERSON ST & 48TH AVE S,47.523243,-122.272575
31136,SATURDAY,1,1,90,S HENDERSON ST & 53RD AVE S,47.523228,-122.266029
31140,SATURDAY,0,1,4,DISCOVERY PARK RD & TEXAS WAY,47.664749,-122.410896
31140,SATURDAY,1,1,14,DISCOVERY PARK RD & TEXAS WAY,47.664749,-122.410896
31180,SATURDAY,1,1,16,GILMAN AVE W & 28TH PL W,47.660973,-122.393616
31190,SATURDAY,1,1,16,GILMAN AVE W & W JAMESON ST,47.659458,-122.391121
31200,SATURDAY,1,1,16,GILMAN AVE W & 26TH AVE W,47.658329,-122.389702
31210,SATURDAY,1,1,16,GILMAN AVE W & 25TH AVE W,47.657143,-122.388199
31230,SATURDAY,0,1,26,22ND AVE W & GILMAN AVE W,47.653686,-122.38475
31230,SATURDAY,1,1,16,22ND AVE W & GILMAN AVE W,47.653686,-122.38475
31250,SATURDAY,0,1,26,22ND AVE W & W BERTONA ST,47.650139,-122.384766
31250,SATURDAY,1,1,16,22ND AVE W & W BERTONA ST,47.650139,-122.384766
31260,SATURDAY,0,1,26,22ND AVE W & W DRAVUS ST,47.648266,-122.384766
31260,SATURDAY,1,1,16,22ND AVE W & W DRAVUS ST,47.648266,-122.384766
31270,SATURDAY,0,1,26,22ND AVE W & W BARRETT ST,47.646351,-122.38475
31270,SATURDAY,1,1,16,22ND AVE W & W BARRETT ST,47.646351,-122.38475
31320,SATURDAY,0,1,26,THORNDYKE AVE W & W BOSTON ST,47.638294,-122.388252
31320,SATURDAY,1,1,16,THORNDYKE AVE W & W BOSTON ST,47.638294,-122.388252
31340,SATURDAY,1,1,16,W BLAINE ST & 27TH AVE W,47.635166,-122.391228
31350,SATURDAY,0,1,16,THORNDYKE AVE W & W BLAINE ST,47.635212,-122.390396
31350,SATURDAY,1,1,25,THORNDYKE AVE W & W BLAINE ST,47.635212,-122.390396
31370,SATURDAY,0,1,16,THORNDYKE AVE W & W BOSTON ST,47.63834,-122.387787
31370,SATURDAY,1,1,25,THORNDYKE AVE W & W BOSTON ST,47.63834,-122.387787
31380,SATURDAY,0,1,16,THORNDYKE AVE W & W LYNN ST,47.639309,-122.387077
31380,SATURDAY,1,1,25,THORNDYKE AVE W & W LYNN ST,47.639309,-122.387077
31390,SATURDAY,0,1,16,THORNDYKE AVE W & 23RD AVE W,47.640953,-122.385941
31390,SATURDAY,1,1,25,THORNDYKE AVE W & 23RD AVE W,47.640953,-122.385941
31400,SATURDAY,0,1,16,22ND AVE W & THORNDYKE AVE W,47.643177,-122.384537
31400,SATURDAY,1,1,25,22ND AVE W & THORNDYKE AVE W,47.643177,-122.384537
31410,SATURDAY,0,1,16,22ND AVE W & W ARMOUR ST,47.645058,-122.384552
31410,SATURDAY,1,1,25,22ND AVE W & W ARMOUR ST,47.645058,-122.384552
31420,SATURDAY,0,1,16,22ND AVE W & W BARRETT ST,47.646801,-122.38456
31420,SATURDAY,1,1,25,22ND AVE W & W BARRETT ST,47.646801,-122.38456
31450,SATURDAY,0,1,16,22ND AVE W & W RUFFNER ST,47.6521,-122.384575
31450,SATURDAY,1,1,25,22ND AVE W & W RUFFNER ST,47.6521,-122.384575
31460,SATURDAY,0,1,16,22ND AVE W & GILMAN AVE W,47.653324,-122.38456
31460,SATURDAY,1,1,25,22ND AVE W & GILMAN AVE W,47.653324,-122.38456
31470,SATURDAY,0,1,16,GILMAN AVE W & W EMERSON PL,47.656109,-122.386635
31490,SATURDAY,0,1,16,GILMAN AVE W & 26TH AVE W,47.658619,-122.389778
31500,SATURDAY,0,1,16,GILMAN AVE W & 27TH AVE W,47.65974,-122.391212
3151,SATURDAY,0,1,61,SENECA ST & 9TH AVE,47.609901,-122.328323
31510,SATURDAY,0,1,16,GILMAN AVE W & 28TH PL W,47.66085,-122.393028
3153,SATURDAY,0,1,61,SENECA ST & SUMMIT AVE,47.611763,-122.323883
31530,SATURDAY,0,1,16,W GOVERNMENT WAY & 31ST AVE W,47.661072,-122.398155
3154,SATURDAY,0,1,61,SENECA ST & BOYLSTON AVE,47.612225,-122.322777
31547,SATURDAY,0,1,4,TEXAS WAY & W GOVERNMENT WAY,47.662239,-122.405655
31547,SATURDAY,1,1,14,TEXAS WAY & W GOVERNMENT WAY,47.662239,-122.405655
3155,SATURDAY,0,1,61,E UNION ST & BROADWAY,47.612884,-122.320389
31560,SATURDAY,0,2,54,SW ROXBURY ST & 8TH AVE SW,47.517372,-122.345818
31613,SATURDAY,1,1,41,EAST MARGINAL WAY S & S BOEING ACS,47.509937,-122.292152
31631,SATURDAY,1,1,41,EAST MARGINAL WAY S & S 94TH PL,47.519032,-122.298103
31650,SATURDAY,1,1,41,EAST MARGINAL WAY S & S 81ST PL,47.529892,-122.305786
3170,SATURDAY,0,1,61,E UNION ST & 14TH AVE,47.612846,-122.313744
31700,SATURDAY,0,2,45,S CLOVERDALE ST & 8TH AVE S,47.526539,-122.323265
31730,SATURDAY,0,1,39,26TH AVE SW & SW CAMBRIDGE ST,47.519413,-122.365807
31730,SATURDAY,1,1,24,26TH AVE SW & SW CAMBRIDGE ST,47.519413,-122.365807
31791,SATURDAY,1,1,66,CALIFORNIA AVE SW & SW DIRECTOR ST,47.521568,-122.387566
31840,SATURDAY,0,2,65,CALIFORNIA AVE SW & SW DAKOTA ST,47.566788,-122.386665
31840,SATURDAY,1,1,1,CALIFORNIA AVE SW & SW DAKOTA ST,47.566788,-122.386665
31861,SATURDAY,0,2,65,CALIFORNIA AVE SW & SW CHARLESTOWN ST,47.570465,-122.386665
31861,SATURDAY,1,1,1,CALIFORNIA AVE SW & SW CHARLESTOWN ST,47.570465,-122.386665
31890,SATURDAY,0,2,65,CALIFORNIA AVE SW & SW HANFORD ST,47.575928,-122.38665
31890,SATURDAY,1,1,1,CALIFORNIA AVE SW & SW HANFORD ST,47.575928,-122.38665
3190,SATURDAY,0,1,61,E UNION ST & 18TH AVE,47.612835,-122.309021
31920,SATURDAY,0,2,17,CALIFORNIA AVE SW & SW ADMIRAL WAY,47.580898,-122.386665
31920,SATURDAY,1,3,83,CALIFORNIA AVE SW & SW ADMIRAL WAY,47.580898,-122.386665
31930,SATURDAY,0,1,1,CALIFORNIA AVE SW & SW LANDER ST,47.579056,-122.386734
31930,SATURDAY,1,3,83,CALIFORNIA AVE SW & SW LANDER ST,47.579056,-122.386734
31950,SATURDAY,0,1,1,CALIFORNIA AVE SW & SW HANFORD ST,47.575447,-122.386856
31950,SATURDAY,1,2,67,CALIFORNIA AVE SW & SW HANFORD ST,47.575447,-122.386856
31980,SATURDAY,0,1,1,CALIFORNIA AVE SW & SW CHARLESTOWN ST,47.569958,-122.386871
31980,SATURDAY,1,2,67,CALIFORNIA AVE SW & SW CHARLESTOWN ST,47.569958,-122.386871
320,SATURDAY,0,1,27,2ND AVE & SENECA ST,47.606213,-122.336205
3200,SATURDAY,0,1,61,E UNION ST & 20TH AVE,47.612843,-122.306412
32011,SATURDAY,0,1,38,SW ALASKA ST & 44TH AVE SW,47.561207,-122.388115
32011,SATURDAY,1,2,29,SW ALASKA ST & 44TH AVE SW,47.561207,-122.388115
32030,SATURDAY,0,1,65,CALIFORNIA AVE SW & SW BARTON ST,47.521931,-122.38736
32100,SATURDAY,1,2,45,S CLOVERDALE ST & 5TH AVE S,47.526413,-122.327827
32140,SATURDAY,0,1,19,S CLOVERDALE ST & 12TH AVE S,47.526382,-122.317711
32140,SATURDAY,1,2,45,S CLOVERDALE ST & 12TH AVE S,47.526382,-122.317711
32200,SATURDAY,0,1,40,EAST MARGINAL WAY S & S 96TH PL,47.516644,-122.296738
32210,SATURDAY,0,1,40,EAST MARGINAL WAY S & S NORFOLK ST,47.512169,-122.293854
32370,SATURDAY,1,1,28,SW COLLEGE ST & CALIFORNIA AVE SW,47.582928,-122.386635
32371,SATURDAY,0,1,24,CALIFORNIA AVE SW & SW COLLEGE ST,47.582783,-122.386581
32371,SATURDAY,1,2,67,CALIFORNIA AVE SW & SW COLLEGE ST,47.582783,-122.386581
32372,SATURDAY,1,1,16,SW HANFORD ST & CALIFORNIA AVE SW,47.575558,-122.386353
32373,SATURDAY,1,1,16,SW HANFORD ST & WALNUT AVE SW,47.575546,-122.383606
32374,SATURDAY,1,1,16,SW HANFORD ST & 39TH AVE SW,47.575531,-122.381432
32379,SATURDAY,1,1,16,SW MANNING ST & 36TH AVE SW,47.571114,-122.376694
32380,SATURDAY,1,1,16,35TH AVE SW & SW CHARLESTOWN ST,47.570011,-122.376228
32381,SATURDAY,1,1,16,35TH AVE SW & SW ANDOVER ST,47.568428,-122.376259
32382,SATURDAY,1,1,16,35TH AVE SW & SW DAKOTA ST,47.566547,-122.376282
32420,SATURDAY,1,1,25,ALKI AVE SW & 59TH AVE SW,47.58012,-122.407692
32421,SATURDAY,1,1,25,ALKI AVE SW & 57TH AVE SW,47.58131,-122.404945
32423,SATURDAY,1,1,25,ALKI AVE SW & 53RD AVE SW,47.583675,-122.400749
32425,SATURDAY,1,1,25,ALKI AVE SW & BONAIR DR SW,47.586071,-122.39798
32426,SATURDAY,1,1,25,ALKI AVE SW & 1700 BLOCK,47.588043,-122.395706
32431,SATURDAY,1,1,25,ALKI AVE SW & 1000 BLK,47.594959,-122.387352
32432,SATURDAY,1,1,25,ALKI AVE SW & HARBOR AVE SW,47.595081,-122.385765
32436,SATURDAY,0,1,24,HARBOR AVE SW & FAIRMOUNT AVE SW,47.587112,-122.378372
32438,SATURDAY,0,1,24,HARBOR AVE SW & 2100 BLOCK,47.585266,-122.376022
32443,SATURDAY,0,1,24,HARBOR AVE SW & SW HARBOR LN,47.577442,-122.371902
32630,SATURDAY,1,1,24,HARBOR AVE SW & FAUNTLEROY AVE SW,47.582912,-122.373772
32660,SATURDAY,1,1,24,HARBOR AVE SW & FAIRMOUNT AVE SW,47.58746,-122.378593
33220,SATURDAY,1,4,140,SW ALASKA ST & FAUNTLEROY WAY SW,47.561016,-122.380875
3330,SATURDAY,0,1,62,MADRONA DR & NEWPORT WAY,47.613491,-122.2827
3380,SATURDAY,1,1,99,BEACON AVE S & S COLUMBIAN WAY,47.559219,-122.304161
3400,SATURDAY,1,1,99,BEACON AVE S & VA HOSPITAL,47.563469,-122.305481
3420,SATURDAY,1,1,99,BEACON AVE S & JEFF COMM CENTER,47.569813,-122.307449
3450,SATURDAY,1,1,99,BEACON AVE S & S HANFORD ST,47.575359,-122.309196
34540,SATURDAY,1,2,93,SEWARD PK AVE S & S FISHER PL,47.52219,-122.264366
34544,SATURDAY,0,2,91,S HENDERSON ST & RAINIER AVE S,47.523376,-122.269341
34640,SATURDAY,1,1,16,SEWARD PK AVE S & S OTHELLO ST,47.53717,-122.267166
34650,SATURDAY,1,1,16,SEWARD PK AVE S & S MYRTLE ST,47.53883,-122.26712
34660,SATURDAY,1,1,16,SEWARD PK AVE S & S WILLOW ST,47.540699,-122.265892
34690,SATURDAY,1,1,16,SEWARD PK AVE S & WILSON AVE S,47.544926,-122.26342
3470,SATURDAY,1,2,126,BEACON AVE S & S LANDER ST,47.579319,-122.312119
34700,SATURDAY,1,1,16,SEWARD PK AVE S & 57TH AVE S,47.546322,-122.261917
3480,SATURDAY,1,2,126,BEACON AVE S & 15TH AVE S,47.580536,-122.31324
34810,SATURDAY,1,1,16,50TH AVE S & S OREGON ST,47.56316,-122.270622
34830,SATURDAY,1,1,16,S GENESEE ST & 48TH AVE S,47.564175,-122.273315
34840,SATURDAY,1,1,16,S GENESEE ST & 47TH AVE S,47.564171,-122.274826
34850,SATURDAY,1,1,16,S GENESEE ST & 45TH AVE S,47.564163,-122.277328
34870,SATURDAY,1,1,16,S GENESEE ST & 41ST AVE S,47.564213,-122.282051
34920,SATURDAY,0,1,16,S GENESEE ST & 38TH AVE S,47.564053,-122.285019
34980,SATURDAY,0,1,16,50TH AVE S & S GENESEE ST,47.563812,-122.270828
34990,SATURDAY,0,1,16,50TH AVE S & S SNOQUALMIE ST,47.561844,-122.270813
35000,SATURDAY,0,1,16,50TH AVE S & S ALASKA ST,47.560383,-122.270798
35010,SATURDAY,0,1,16,50TH AVE S & S ANGELINE ST,47.559208,-122.270798
35020,SATURDAY,0,1,16,WILSON AVE S & S HUDSON ST,47.55687,-122.27076
35050,SATURDAY,0,1,16,WILSON AVE S & S FINDLAY ST,47.552013,-122.266975
35070,SATURDAY,0,1,16,SEWARD PK AVE S & S ORCAS ST,47.550854,-122.2621
35110,SATURDAY,0,1,16,SEWARD PK AVE S & S MORGAN ST,47.544102,-122.264282
35120,SATURDAY,0,1,16,SEWARD PK AVE S & S HOLLY ST,47.542301,-122.264717
35130,SATURDAY,0,1,16,SEWARD PK AVE S & S WILLOW ST,47.540527,-122.266335
35149,SATURDAY,0,1,16,SEWARD PK AVE S & S OTHELLO ST,47.537113,-122.267372
3515,SATURDAY,1,2,126,14TH AVE S & S HOLGATE ST,47.586605,-122.314568
35231,SATURDAY,1,1,54,NE 125TH ST & 28TH AVE NE,47.719364,-122.298256
35233,SATURDAY,1,1,54,NE 125TH ST & 25TH AVE NE,47.719383,-122.302246
35235,SATURDAY,0,1,31,28TH AVE NE & NE 125TH ST,47.719841,-122.2976
35250,SATURDAY,1,1,54,NE 125TH ST & 20TH AVE NE,47.719437,-122.307602
35293,SATURDAY,0,2,54,NORTHGATE TC,47.702622,-122.327271
35293,SATURDAY,1,2,52,NORTHGATE TC,47.702622,-122.327271
35295,SATURDAY,0,2,68,NORTHGATE TC,47.70203,-122.32724
35295,SATURDAY,1,2,88,NORTHGATE TC,47.70203,-122.32724
35332,SATURDAY,1,1,33,NE NORTHGATE WAY & 15TH AVE NE,47.708462,-122.312149
35333,SATURDAY,1,1,33,NE NORTHGATE WAY & 23RD AVE NE,47.708679,-122.30468
35334,SATURDAY,1,1,33,NE NORTHGATE WAY & 19TH AVE NE,47.708416,-122.307816
35380,SATURDAY,0,1,53,NE 125TH ST & 15TH AVE NE,47.719364,-122.312271
35400,SATURDAY,0,1,53,NE 125TH ST & 20TH AVE NE,47.719296,-122.307014
35420,SATURDAY,0,1,53,NE 125TH ST & 25TH AVE NE,47.719246,-122.301506
3550,SATURDAY,1,2,126,12TH AVE S & S ATLANTIC ST,47.590252,-122.317177
35540,SATURDAY,1,1,62,NW 85TH ST & 31ST AVE NW,47.690502,-122.39653
35580,SATURDAY,1,3,93,NW 85TH ST & 20TH AVE NW,47.690529,-122.381874
35600,SATURDAY,1,2,64,NW 85TH ST & 15TH AVE NW,47.690536,-122.376434
35630,SATURDAY,1,2,64,NW 85TH ST & 11TH AVE NW,47.690571,-122.370026
35680,SATURDAY,1,1,62,EAST GREEN LK DR N & WALLINGFORD AVE N,47.685478,-122.336563
35690,SATURDAY,1,1,62,EAST GREEN LK DR N & ORIN CT N,47.683495,-122.334221
35710,SATURDAY,1,1,62,EAST GREEN LK DR N & SUNNYSIDE AVE N,47.682545,-122.329453
35720,SATURDAY,1,1,62,EAST GREEN LK DR N & LATONA AVE NE,47.681473,-122.327354
35740,SATURDAY,1,1,62,NE 65TH ST & 12TH AVE NE,47.675747,-122.315369
35741,SATURDAY,1,5,169,15TH AVE NE & NE 65TH ST,47.675472,-122.312027
35790,SATURDAY,1,1,64,15TH AVE NE & NE 52ND ST,47.666302,-122.312027
3580,SATURDAY,1,2,126,S CHARLES ST & GOLF DR S,47.594139,-122.316742
35800,SATURDAY,1,2,99,15TH AVE NE & NE 50TH ST,47.66452,-122.312042
35820,SATURDAY,0,1,64,15TH AVE NE & NE 45TH ST,47.661343,-122.31208
35820,SATURDAY,1,2,99,15TH AVE NE & NE 45TH ST,47.661343,-122.31208
35825,SATURDAY,0,1,70,23RD AVE E & E JOHN ST,47.620606,-122.302399
35825,SATURDAY,1,1,62,23RD AVE E & E JOHN ST,47.620606,-122.302399
35830,SATURDAY,0,1,64,23RD AVE & E MADISON ST,47.618763,-122.302658
35840,SATURDAY,0,1,64,23RD AVE & E OLIVE ST,47.616894,-122.302711
35860,SATURDAY,0,1,64,23RD AVE & E UNION ST,47.612694,-122.302818
35910,SATURDAY,0,1,64,23RD AVE S & S JUDKINS ST,47.591621,-122.302505
35979,SATURDAY,1,1,16,S ALASKA ST & MARTIN L KING JR WAY S,47.560913,-122.293983
35990,SATURDAY,1,1,16,S COLUMBIAN WAY & S AMERICUS ST,47.560482,-122.301292
3600,SATURDAY,0,1,18,S JACKSON ST & 12TH AVE S,47.599258,-122.317749
3600,SATURDAY,1,3,227,S JACKSON ST & 12TH AVE S,47.599258,-122.317749
36120,SATURDAY,0,1,33,16TH AVE SW & SW BRANDON ST,47.555241,-122.354889
36170,SATURDAY,0,1,33,16TH AVE SW & SW HOLLY ST,47.542824,-122.355026
36180,SATURDAY,0,1,33,16TH AVE SW & SW MYRTLE ST,47.538837,-122.355095
36190,SATURDAY,0,1,33,16TH AVE SW & SW WEBSTER ST,47.535259,-122.355125
36330,SATURDAY,0,1,27,SYLVAN WAY SW & SW SYLVAN HEIGHTS DR,47.540504,-122.369034
36380,SATURDAY,0,1,27,SW MORGAN ST & 40TH AVE SW,47.544891,-122.383522
36380,SATURDAY,1,1,1,SW MORGAN ST & 40TH AVE SW,47.544891,-122.383522
36410,SATURDAY,0,1,1,SW MORGAN ST & 40TH AVE SW,47.54475,-122.382797
36410,SATURDAY,1,1,28,SW MORGAN ST & 40TH AVE SW,47.54475,-122.382797
36420,SATURDAY,0,1,1,SW MORGAN ST & 38TH AVE SW,47.544685,-122.380188
36420,SATURDAY,1,1,28,SW MORGAN ST & 38TH AVE SW,47.544685,-122.380188
36430,SATURDAY,0,1,1,SW MORGAN ST & 36TH AVE SW,47.54464,-122.377907
36430,SATURDAY,1,1,28,SW MORGAN ST & 36TH AVE SW,47.54464,-122.377907
36450,SATURDAY,1,1,28,SW MORGAN ST & LANHAM PL SW,47.544601,-122.372871
36480,SATURDAY,1,1,28,SW ORCHARD ST & DELRIDGE WAY SW,47.537277,-122.36306
36500,SATURDAY,1,1,34,16TH AVE SW & SW ORCHARD ST,47.538406,-122.354889
36520,SATURDAY,1,1,34,16TH AVE SW & SW MORGAN ST,47.544964,-122.354675
36530,SATURDAY,1,1,34,16TH AVE SW & SW FINDLAY ST,47.551884,-122.354691
36540,SATURDAY,1,1,34,16TH AVE SW & SW BRANDON ST,47.553936,-122.354698
36560,SATURDAY,1,1,34,SW DAWSON ST & 18TH AVE SW,47.555828,-122.356995
36580,SATURDAY,1,1,34,21ST AVE SW & 22ND AVE SW,47.559052,-122.360085
36690,SATURDAY,0,1,16,S COLUMBIAN WAY & S AMERICUS ST,47.560524,-122.300728
36711,SATURDAY,0,1,16,S ALASKA ST & ML KING JR WAY WAY S,47.560726,-122.292221
36720,SATURDAY,0,1,16,S ALASKA ST & 35TH AVE S,47.560658,-122.289024
36776,SATURDAY,1,1,62,23RD AVE S & S JUDKINS ST,47.592106,-122.30246
36780,SATURDAY,1,1,62,23RD AVE S & S NORMAN ST,47.593521,-122.302139
36791,SATURDAY,1,1,62,23RD AVE & E JEFFERSON ST,47.606358,-122.302681
36800,SATURDAY,1,1,62,23RD AVE & E CHERRY ST,47.608158,-122.302666
36830,SATURDAY,1,1,62,23RD AVE & E UNION ST,47.613277,-122.302597
36860,SATURDAY,0,2,97,15TH AVE NE & NE 45TH ST,47.661488,-122.31189
36860,SATURDAY,1,1,62,15TH AVE NE & NE 45TH ST,47.661488,-122.31189
36900,SATURDAY,0,1,62,15TH AVE NE & NE 55TH ST,47.668758,-122.311783
36930,SATURDAY,0,1,62,NE 65TH ST & 15TH AVE NE,47.675861,-122.312546
36961,SATURDAY,0,1,62,EAST GREEN LK DR N & 4TH AVE NE,47.681362,-122.326874
36990,SATURDAY,0,1,62,EAST GREEN LK DR N & SUNNYSIDE AVE N,47.682751,-122.329918
3700,SATURDAY,0,2,126,12TH AVE S & S JACKSON ST,47.598782,-122.317329
37010,SATURDAY,0,1,62,EAST GREEN LK DR N & ORIN CT N,47.683941,-122.334427
37040,SATURDAY,0,1,62,NW 85TH ST & 3RD AVE NW,47.690697,-122.360291
37078,SATURDAY,0,2,94,NW 85TH ST & 22ND AVE NW,47.690651,-122.384712
37080,SATURDAY,0,1,62,NW 85TH ST & MARY AVE NW,47.690685,-122.375343
37083,SATURDAY,0,2,94,NW 85TH ST & 19TH AVE NW,47.690662,-122.381462
37086,SATURDAY,0,1,62,NW 85TH ST & 24TH AVE NW,47.690643,-122.387962
37088,SATURDAY,0,1,62,NW 85TH ST & 28TH AVE NW,47.69064,-122.393372
37089,SATURDAY,0,1,62,NW 85TH ST & 30TH AVE NW,47.69064,-122.396294
3710,SATURDAY,0,2,126,12TH AVE S & S WELLER ST,47.597305,-122.317329
37120,SATURDAY,0,1,24,CALIFORNIA AVE SW & SW HOLGATE ST,47.586521,-122.386436
37120,SATURDAY,1,1,39,CALIFORNIA AVE SW & SW HOLGATE ST,47.586521,-122.386436
37140,SATURDAY,0,1,24,CALIFORNIA AVE SW & SW WALKER ST,47.583763,-122.386543
37140,SATURDAY,1,1,39,CALIFORNIA AVE SW & SW WALKER ST,47.583763,-122.386543
37150,SATURDAY,0,1,38,CALIFORNIA AVE SW & SW ADMIRAL WAY,47.581436,-122.386436
37200,SATURDAY,0,1,38,SW SEATTLE ST & CALIFORNIA AVE SW,47.589394,-122.386635
37220,SATURDAY,1,2,54,SW OREGON ST & 44TH AVE SW,47.563019,-122.387909
37360,SATURDAY,0,1,38,NE 65TH ST & 16TH AVE NE,47.67572,-122.310944
37380,SATURDAY,0,1,38,NE 65TH ST & 19TH AVE NE,47.675754,-122.307724
37400,SATURDAY,0,1,38,NE 65TH ST & 23RD AVE NE,47.675705,-122.302422
37400,SATURDAY,1,1,2,NE 65TH ST & 23RD AVE NE,47.675705,-122.302422
37410,SATURDAY,0,1,38,NE 65TH ST & 25TH AVE NE,47.675705,-122.300293
37410,SATURDAY,1,1,2,NE 65TH ST & 25TH AVE NE,47.675705,-122.300293
37420,SATURDAY,0,1,38,NE 65TH ST & 27TH AVE NE,47.675709,-122.298218
37420,SATURDAY,1,1,2,NE 65TH ST & 27TH AVE NE,47.675709,-122.298218
37430,SATURDAY,0,1,38,NE 65TH ST & 29TH AVE NE,47.675709,-122.296059
37430,SATURDAY,1,1,2,NE 65TH ST & 29TH AVE NE,47.675709,-122.296059
37440,SATURDAY,0,1,38,NE 65TH ST & 31ST AVE NE,47.67572,-122.293968
37440,SATURDAY,1,1,2,NE 65TH ST & 31ST AVE NE,47.67572,-122.293968
37450,SATURDAY,0,1,38,NE 65TH ST & 33RD AVE NE,47.675724,-122.291931
37450,SATURDAY,1,1,2,NE 65TH ST & 33RD AVE NE,47.675724,-122.291931
37460,SATURDAY,0,1,38,NE 65TH ST & 35TH AVE NE,47.67572,-122.289963
37480,SATURDAY,0,1,38,NE 65TH ST & 40TH AVE NE,47.67572,-122.284554
37520,SATURDAY,0,1,38,NE 65TH ST & PRINCETON AVE NE,47.675709,-122.275513
37530,SATURDAY,0,1,38,50TH AVE NE & NE 68TH ST,47.677734,-122.274162
37540,SATURDAY,0,1,38,50TH AVE NE & NE 70TH ST,47.67926,-122.2742
37570,SATURDAY,0,1,38,NE 75TH ST & 48TH AVE NE,47.683102,-122.277122
3760,SATURDAY,0,2,126,14TH AVE S & S MASSACHUSETTS ST,47.588192,-122.314964
37600,SATURDAY,0,1,38,NE 75TH ST & 41ST AVE NE,47.683109,-122.283737
37610,SATURDAY,0,1,38,40TH AVE NE & NE 75TH ST,47.683376,-122.285103
37620,SATURDAY,0,1,38,40TH AVE NE & NE 77TH ST,47.685062,-122.285172
37630,SATURDAY,0,1,38,40TH AVE NE & NE 80TH ST,47.686558,-122.28521
37650,SATURDAY,0,1,38,NE 85TH ST & 40TH AVE NE,47.690258,-122.285637
37695,SATURDAY,1,1,39,NE 85TH ST & 39TH AVE NE,47.690117,-122.28611
3770,SATURDAY,0,2,126,14TH AVE S & S HOLGATE ST,47.58614,-122.314774
37710,SATURDAY,1,1,39,40TH AVE NE & NE 82ND ST,47.688229,-122.285378
37780,SATURDAY,1,1,39,NE 75TH ST & 48TH AVE NE,47.682968,-122.27626
3780,SATURDAY,0,2,126,14TH AVE S & S WALKER ST,47.583565,-122.314796
37800,SATURDAY,1,1,39,NE 75TH ST & 52ND AVE NE,47.682964,-122.271332
37820,SATURDAY,1,1,39,55TH AVE NE & NE 73RD ST,47.681175,-122.269089
37830,SATURDAY,1,1,39,55TH AVE NE & NE 70TH ST,47.679184,-122.269066
37840,SATURDAY,1,1,39,55TH AVE NE & NE 68TH ST,47.677376,-122.269012
37849,SATURDAY,1,1,37,NE 65TH ST & SAND PT WAY NE,47.675796,-122.264626
37870,SATURDAY,1,2,76,NE PRINCETON WAY & PRINCETON AVE NE,47.674946,-122.275101
37880,SATURDAY,1,2,76,NE 65TH ST & 49TH AVE NE,47.67585,-122.276535
37930,SATURDAY,1,1,39,NE 65TH ST & 37TH AVE NE,47.675854,-122.28775
37960,SATURDAY,1,1,39,NE 65TH ST & 30TH AVE NE,47.67585,-122.295349
37970,SATURDAY,1,1,39,NE 65TH ST & 28TH AVE NE,47.67585,-122.297668
37990,SATURDAY,1,2,41,NE 65TH ST & 24TH AVE NE,47.675842,-122.301247
3800,SATURDAY,0,2,126,BEACON AVE S & S BAYVIEW ST,47.580715,-122.313637
38000,SATURDAY,1,2,41,NE 65TH ST & RAVENNA AVE NE,47.675842,-122.304077
38050,SATURDAY,1,1,32,30TH AVE NE & NE 143RD ST,47.73172,-122.296646
38080,SATURDAY,1,1,32,30TH AVE NE & NE 135TH ST,47.726578,-122.296509
38110,SATURDAY,1,1,32,30TH AVE NE & NE 127TH ST,47.720905,-122.29644
38160,SATURDAY,0,1,34,LK CITY WAY NE & NE 115TH ST,47.711739,-122.299797
38160,SATURDAY,1,1,32,LK CITY WAY NE & NE 115TH ST,47.711739,-122.299797
3820,SATURDAY,0,1,99,BEACON AVE S & S STEVENS ST,47.577118,-122.310318
38230,SATURDAY,1,1,32,LK CITY WAY NE & NE 95TH ST,47.697731,-122.305481
3830,SATURDAY,0,1,99,BEACON AVE S & S HANFORD ST,47.575192,-122.309349
38320,SATURDAY,1,1,32,NE 80TH ST & 17TH AVE NE,47.686745,-122.31073
38330,SATURDAY,1,2,64,15TH AVE NE & NE 80TH ST,47.686401,-122.312256
38390,SATURDAY,0,3,64,15TH AVE NE & NE 65TH ST,47.67609,-122.311836
38460,SATURDAY,0,1,31,NE 80TH ST & 18TH AVE NE,47.686604,-122.308556
38460,SATURDAY,1,1,2,NE 80TH ST & 18TH AVE NE,47.686604,-122.308556
38480,SATURDAY,0,1,31,NE 80TH ST & 21ST AVE NE,47.686405,-122.305206
38490,SATURDAY,0,1,31,NE 80TH ST & RAVENNA AVE NE,47.686192,-122.302849
38510,SATURDAY,0,1,31,RAVENNA AVE NE & NE 82ND ST,47.688347,-122.301575
38520,SATURDAY,0,1,31,RAVENNA AVE NE & NE 83RD ST,47.68988,-122.301414
38530,SATURDAY,0,1,31,RAVENNA AVE NE & NE 86TH ST,47.691326,-122.301987
38540,SATURDAY,0,1,31,RAVENNA AVE NE & NE 90TH ST,47.693672,-122.303116
38560,SATURDAY,0,1,31,LK CITY WAY NE & NE 95TH ST,47.6978,-122.305222
38580,SATURDAY,0,1,31,LK CITY WAY NE & FISCHER PL NE,47.702297,-122.301727
38590,SATURDAY,0,1,31,LK CITY WAY NE & 24TH AVE NE,47.704365,-122.301506
3860,SATURDAY,0,1,99,BEACON AVE S & S SPOKANE ST,47.571571,-122.308243
38610,SATURDAY,0,1,31,LK CITY WAY NE & NE 110TH ST,47.70858,-122.301208
38650,SATURDAY,0,1,31,LK CITY WAY NE & NE 120TH ST,47.71582,-122.29718
38650,SATURDAY,1,1,33,LK CITY WAY NE & NE 120TH ST,47.71582,-122.29718
38653,SATURDAY,1,2,86,NE 130TH ST & 35TH AVE NE,47.72271,-122.291237
38670,SATURDAY,0,1,31,30TH AVE NE & NE 127TH ST,47.721325,-122.296234
38690,SATURDAY,0,1,31,30TH AVE NE & NE 133RD ST,47.724949,-122.296288
3870,SATURDAY,0,1,99,BEACON AVE S & JEFF COMM CENTER,47.569748,-122.30764
38710,SATURDAY,0,1,31,30TH AVE NE & NE 137TH ST,47.72802,-122.296333
38730,SATURDAY,0,1,31,30TH AVE NE & NE 143RD ST,47.73217,-122.29644
38750,SATURDAY,0,1,31,17TH AVE NE & NE 136TH ST,47.727299,-122.309868
38790,SATURDAY,1,1,32,20TH AVE NE & NE 143RD ST,47.731953,-122.307205
38890,SATURDAY,1,3,84,15TH AVE NE & NE 130TH ST,47.722893,-122.312767
38900,SATURDAY,1,3,84,15TH AVE NE & NE 127TH ST,47.72097,-122.312775
38910,SATURDAY,1,3,84,15TH AVE NE & NE 125TH ST,47.718998,-122.312767
38930,SATURDAY,1,3,84,15TH AVE NE & NE 120TH ST,47.715473,-122.312637
38962,SATURDAY,1,2,52,PINEHURST WAY NE & NE 115TH ST,47.712326,-122.315155
38970,SATURDAY,1,1,32,15TH AVE NE & NE NORTHGATE WAY,47.708309,-122.312531
38990,SATURDAY,1,1,32,15TH AVE NE & NE 104TH ST,47.703781,-122.312477
39010,SATURDAY,1,1,32,15TH AVE NE & NE 98TH ST,47.70015,-122.312302
39030,SATURDAY,1,1,32,15TH AVE NE & NE 94TH ST,47.696545,-122.312202
39050,SATURDAY,1,1,32,15TH AVE NE & NE 89TH ST,47.692852,-122.312286
39070,SATURDAY,1,1,32,15TH AVE NE & NE 82ND ST,47.688274,-122.312286
39080,SATURDAY,0,1,31,15TH AVE NE & NE 80TH ST,47.686951,-122.312065
3910,SATURDAY,0,1,11,W MCGRAW ST & 2ND AVE W,47.639534,-122.359222
3910,SATURDAY,1,3,66,W MCGRAW ST & 2ND AVE W,47.639534,-122.359222
39100,SATURDAY,0,1,31,15TH AVE NE & NE 85TH ST,47.690586,-122.312119
39120,SATURDAY,0,1,31,15TH AVE NE & NE 90TH ST,47.694168,-122.31205
39140,SATURDAY,0,1,31,15TH AVE NE & NE 95TH ST,47.697815,-122.311981
3920,SATURDAY,0,1,11,QUEEN ANNE AVE N & W MCGRAW ST,47.639324,-122.357025
3920,SATURDAY,1,4,67,QUEEN ANNE AVE N & W MCGRAW ST,47.639324,-122.357025
39260,SATURDAY,0,3,85,15TH AVE NE & NE 127TH ST,47.721226,-122.312569
3930,SATURDAY,1,3,65,BOSTON ST & QUEEN ANNE AVE N,47.638317,-122.356544
39320,SATURDAY,0,3,85,15TH AVE NE & NE 143RD ST,47.732018,-122.31263
39334,SATURDAY,0,1,28,15TH AVE NE & NE 160TH ST,47.745396,-122.312912
39336,SATURDAY,1,1,28,15TH AVE NE & NE 160TH ST,47.744717,-122.313087
39340,SATURDAY,0,1,28,15TH AVE NE & NE 145TH ST,47.734344,-122.312653
39350,SATURDAY,0,1,31,NE 145TH ST & 20TH AVE NE,47.733826,-122.307625
39370,SATURDAY,0,1,31,20TH AVE NE & NE 140TH ST,47.73003,-122.307396
39380,SATURDAY,0,1,31,20TH AVE NE & NE 137TH ST,47.728538,-122.307365
3940,SATURDAY,1,3,65,BOSTON ST & WARREN AVE N,47.638199,-122.354492
39427,SATURDAY,1,1,24,24TH AVE SW & SW CLOVERDALE ST,47.526653,-122.36306
39428,SATURDAY,1,1,24,SW THISTLE ST & 25TH AVE SW,47.528347,-122.364471
39429,SATURDAY,1,1,24,SW THISTLE ST & 28TH AVE SW,47.528347,-122.368866
39431,SATURDAY,0,1,1,15TH AVE SW & SW ROXBURY ST,47.516895,-122.35392
39431,SATURDAY,1,7,185,15TH AVE SW & SW ROXBURY ST,47.516895,-122.35392
39432,SATURDAY,1,1,24,25TH AVE SW & SW BARTON ST,47.521305,-122.364441
39438,SATURDAY,1,1,24,SW THISTLE ST & 31ST AVE SW,47.528355,-122.372444
39442,SATURDAY,1,1,24,SW THISTLE ST & 39TH AVE SW,47.528488,-122.382332
39445,SATURDAY,1,1,24,41ST AVE SW & SW ROSE ST,47.529465,-122.38459
39446,SATURDAY,1,1,24,41ST AVE SW & SW ELMGROVE ST,47.530949,-122.384575
39447,SATURDAY,1,1,24,41ST AVE SW & SW KENYON ST,47.532436,-122.384575
39450,SATURDAY,1,1,24,SW IDA ST & CALIFORNIA AVE SW,47.534443,-122.387215
39452,SATURDAY,1,1,24,CALIFORNIA AVE SW & SW FONTANELLE ST,47.537277,-122.387199
39454,SATURDAY,1,1,24,CALIFORNIA AVE SW & SW MYRTLE ST,47.540154,-122.387169
39455,SATURDAY,1,1,24,CALIFORNIA AVE SW & SW MILLS ST,47.541614,-122.387146
39456,SATURDAY,1,1,24,CALIFORNIA AVE SW & SW HOLLY ST,47.54332,-122.387115
39459,SATURDAY,0,1,16,SW GENESEE ST & 47TH AVE SW,47.564838,-122.392509
39461,SATURDAY,0,1,16,SW GENESEE ST & 51ST AVE SW,47.56488,-122.397362
39463,SATURDAY,0,1,16,SW GENESEE ST & 55TH AVE SW,47.564991,-122.402802
39464,SATURDAY,0,1,16,55TH AVE SW & SW DAKOTA ST,47.566944,-122.402718
39467,SATURDAY,0,1,16,SW CHARLESTOWN ST & 53RD AVE SW,47.570286,-122.39975
39469,SATURDAY,0,1,16,49TH AVE SW & SW CHARLESTOWN ST,47.57058,-122.394653
39470,SATURDAY,0,1,16,49TH AVE SW & SW SPOKANE ST,47.572292,-122.394646
39472,SATURDAY,0,1,16,49TH AVE SW & SW HANFORD ST,47.575905,-122.39418
39473,SATURDAY,0,1,16,49TH AVE SW & SW STEVENS ST,47.577778,-122.394112
3950,SATURDAY,1,3,65,BOSTON ST & NOB HILL AVE N,47.638187,-122.350861
3960,SATURDAY,1,3,65,BOSTON ST & BIGELOW AVE N,47.638187,-122.348404
39790,SATURDAY,0,1,25,CALIFORNIA AVE SW & FAUNTLEROY WAY SW,47.544586,-122.387321
39800,SATURDAY,0,1,25,CALIFORNIA AVE SW & SW WILLOW ST,47.542046,-122.387352
39810,SATURDAY,0,1,25,CALIFORNIA AVE SW & SW MYRTLE ST,47.539951,-122.387375
39830,SATURDAY,0,1,25,CALIFORNIA AVE SW & SW WEBSTER ST,47.535614,-122.387421
39850,SATURDAY,0,1,25,SW IDA ST & 41ST AVE SW,47.534298,-122.384811
39870,SATURDAY,0,1,25,41ST AVE SW & SW MONROE ST,47.531311,-122.384781
39880,SATURDAY,0,1,25,41ST AVE SW & SW SOUTHERN ST,47.529716,-122.384796
39900,SATURDAY,0,1,25,SW THISTLE ST & 39TH AVE SW,47.528347,-122.382133
39910,SATURDAY,0,1,25,SW THISTLE ST & 37TH AVE SW,47.528282,-122.379463
39920,SATURDAY,0,1,25,SW THISTLE ST & 35TH AVE SW,47.528229,-122.377129
39930,SATURDAY,0,1,25,SW THISTLE ST & 34TH AVE SW,47.528217,-122.374916
39940,SATURDAY,0,1,25,SW THISTLE ST & 31ST AVE SW,47.528217,-122.372269
39955,SATURDAY,0,1,25,SW THISTLE ST & 28TH AVE SW,47.528214,-122.368759
39976,SATURDAY,0,1,25,25TH AVE SW & SW TRENTON ST,47.524418,-122.364632
40010,SATURDAY,0,1,27,SYLVAN WAY SW & HIGH PT DR SW,47.543373,-122.370796
40012,SATURDAY,0,1,27,SW MORGAN ST & LANHAM PL SW,47.544735,-122.373276
40018,SATURDAY,0,1,33,22ND AVE SW & 23RD AVE SW,47.56089,-122.361519
40020,SATURDAY,0,1,33,SW OREGON ST & DELRIDGE WAY SW,47.562832,-122.363037
40030,SATURDAY,0,1,32,N NORTHGATE WAY & INTERLAKE AVE N,47.70512,-122.342598
40030,SATURDAY,1,1,28,N NORTHGATE WAY & INTERLAKE AVE N,47.70512,-122.342598
40038,SATURDAY,0,1,32,N 105TH ST & GREENWOOD AVE N,47.705151,-122.355232
40040,SATURDAY,0,1,32,HOLMAN RD NW & 3RD AVE NW,47.702316,-122.361076
40049,SATURDAY,0,1,32,HOLMAN RD NW & MARY AVE NW,47.694538,-122.375748
40052,SATURDAY,1,1,29,HOLMAN RD NW & 13TH AVE NW,47.696434,-122.372337
40060,SATURDAY,1,1,29,HOLMAN RD N & GREENWOOD AVE N,47.704616,-122.356201
40068,SATURDAY,0,1,25,N NORTHGATE WAY & AURORA AVE N,47.704987,-122.344307
40068,SATURDAY,1,1,29,N NORTHGATE WAY & AURORA AVE N,47.704987,-122.344307
40070,SATURDAY,0,1,25,N NORTHGATE WAY & STONE AVE N,47.704975,-122.341667
40070,SATURDAY,1,1,29,N NORTHGATE WAY & STONE AVE N,47.704975,-122.341667
40080,SATURDAY,1,1,9,NE 7TH ST & MONROE AVE NE,47.495216,-122.175766
40085,SATURDAY,0,1,9,NE 7TH ST & KIRKLAND AVE NE,47.494915,-122.176804
40093,SATURDAY,0,1,29,NE SUNSET BLVD & UNION AVE NE,47.503632,-122.163048
40097,SATURDAY,0,1,29,DUVALL AVE NE & NE SUNSET BLVD,47.506264,-122.156364
40103,SATURDAY,1,1,29,DUVALL AVE NE & NE 23RD ST,47.511764,-122.156013
40121,SATURDAY,1,1,29,DUVALL AVE NE & NE 21ST ST,47.510654,-122.156136
40140,SATURDAY,0,2,84,I-90 & RAINIER FRWY STA,47.590092,-122.306892
4020,SATURDAY,1,3,65,TAYLOR AVE N & PROSPECT ST,47.628979,-122.346329
4040,SATURDAY,1,4,117,5TH AVE N & VALLEY ST,47.626018,-122.347649
4080,SATURDAY,1,4,117,5TH AVE N & DENNY WAY,47.619213,-122.347717
40811,SATURDAY,0,1,27,S 144TH ST & MACADAM RD S,47.474121,-122.270378
40872,SATURDAY,1,2,45,CARLETON AVE S & S WARSAW ST,47.544456,-122.320984
40876,SATURDAY,1,2,45,S BAILEY ST & CARLETON AVE S,47.547371,-122.319687
40882,SATURDAY,1,2,55,AIRPT WAY S & S DORIS ST,47.550453,-122.317978
40885,SATURDAY,1,2,55,AIRPT WAY S & CORSON AVE S,47.552395,-122.319939
41000,SATURDAY,0,1,18,AIRPT WAY S & S BRADFORD ST,47.568703,-122.322792
41060,SATURDAY,0,2,54,AIRPT WAY S & S LUCILE ST,47.553204,-122.320976
41080,SATURDAY,0,2,54,AIRPT WAY S & S DORIS ST,47.549877,-122.317657
41119,SATURDAY,1,1,28,42ND AVE S & S 144TH ST,47.473995,-122.281075
41121,SATURDAY,1,1,28,MILITARY RD S & S 128TH ST,47.488487,-122.297234
41125,SATURDAY,1,1,28,MILITARY RD S & S 138TH ST,47.479526,-122.294418
41128,SATURDAY,1,1,28,S 144TH ST & PACIFIC HWY S,47.474186,-122.285812
41247,SATURDAY,1,1,28,S 144TH ST & 53RD AVE S,47.473976,-122.267838
41255,SATURDAY,0,1,36,3RD AVE W & W CREMONA ST,47.649059,-122.360985
41255,SATURDAY,1,1,36,3RD AVE W & W CREMONA ST,47.649059,-122.360985
41280,SATURDAY,1,1,36,3RD AVE W & W RAYE ST,47.643066,-122.361015
41300,SATURDAY,1,1,36,3RD AVE W & W MCGRAW ST,47.639843,-122.361023
41360,SATURDAY,0,1,36,3RD AVE W & W SMITH ST,47.641308,-122.360817
41380,SATURDAY,0,1,36,3RD AVE W & W ARMOUR ST,47.64534,-122.360794
41450,SATURDAY,0,1,62,N 85TH ST & GREENWOOD AVE N,47.69067,-122.355667
41740,SATURDAY,0,3,81,13TH AVE S & S BAILEY ST,47.547737,-122.316208
41740,SATURDAY,1,1,27,13TH AVE S & S BAILEY ST,47.547737,-122.316208
41800,SATURDAY,1,1,27,15TH AVE S & S PEARL ST,47.555836,-122.313354
41819,SATURDAY,1,1,27,15TH AVE S & S ANGELINE ST,47.56081,-122.313309
41870,SATURDAY,1,1,27,15TH AVE S & S HANFORD ST,47.575283,-122.313286
41880,SATURDAY,1,1,27,15TH AVE S & S STEVENS ST,47.577084,-122.313271
41902,SATURDAY,0,2,16,BOREN AVE & E YESLER WAY,47.601959,-122.31797
41908,SATURDAY,0,2,16,BROADWAY & E COLUMBIA ST,47.609463,-122.320656
41986,SATURDAY,1,2,16,BROADWAY & E COLUMBIA ST,47.608959,-122.320862
41988,SATURDAY,1,2,16,BROADWAY & TERRACE ST,47.605278,-122.320847
