route_id,stop_id,service_id,direction_id,avghdwy,stdev_hdwy,stop_name,stop_lat,stop_lon,route_short_name,route_long_name
4361,10,1,1,14.7,5.6,Wall @ Spokane Falls Blvd,47.659652,-117.422217,1,Plaza Arena Shuttle
4374,1000,1,1,34.0,9.6,Francis @ Pittsburg,47.714897,-117.384525,27,Hillyard
4374,1001,1,1,34.0,9.6,Francis @ Crestline,47.714832,-117.379259,27,Hillyard
4378,1002,1,1,19.1,12.2,Freya @ 28th,47.629256,-117.357764,33,Wellesley
4378,1004,1,1,19.1,12.2,Freya @ 24th,47.632634,-117.357761,33,Wellesley
4378,1005,1,1,19.1,12.2,Freya @ 22nd,47.634355,-117.357732,33,Wellesley
4378,1006,1,1,19.1,12.2,Freya @ Congress,47.636293,-117.35773,33,Wellesley
4378,1008,1,1,19.1,12.2,18th @ Freya,47.6392,-117.35811,33,Wellesley
4378,1010,1,1,19.1,12.2,Ray @ 18th Avenue,47.639225,-117.362939,33,Wellesley
4378,1012,1,1,19.1,12.2,Ray @ 15th,47.64182,-117.36301,33,Wellesley
4378,1014,1,1,19.0,12.1,Thor @ 8th,47.648131,-117.360294,33,Wellesley
4378,1015,1,1,19.0,12.1,Hartson @ Ferrall,47.649935,-117.358919,33,Wellesley
4373,1017,1,1,35.4,11.2,Spokane Falls Blvd @ Cincinnati,47.661924,-117.39803,26,Lidgerwood
4375,1017,1,1,34.7,10.8,Spokane Falls Blvd @ Cincinnati,47.661924,-117.39803,28,Nevada
4376,1017,1,1,35.1,10.7,Spokane Falls Blvd @ Cincinnati,47.661924,-117.39803,29,SCC
4373,1018,1,0,33.0,9.7,Spokane Falls Blvd @ Cincinnati,47.661753,-117.397671,26,Lidgerwood
4375,1018,1,0,35.8,12.5,Spokane Falls Blvd @ Cincinnati,47.661753,-117.397671,28,Nevada
4376,1018,1,0,34.8,10.8,Spokane Falls Blvd @ Cincinnati,47.661753,-117.397671,29,SCC
4378,1020,1,1,19.0,12.1,3rd @ Myrtle,47.653552,-117.352436,33,Wellesley
4378,1022,1,1,19.1,12.2,Freya @ 29th Avenue,47.628188,-117.357819,33,Wellesley
4382,1022,1,0,19.1,12.2,Freya @ 29th Avenue,47.628188,-117.357819,44,29th Avenue
4378,1024,1,1,19.1,12.2,Arrive Havana @ Sprague Northbound,47.656932,-117.346914,33,Wellesley
4378,1026,1,1,18.0,9.3,Havana @ Ferry,47.660812,-117.346821,33,Wellesley
4378,1027,1,1,18.0,9.3,Havana @ Alki (Fairgrounds),47.662134,-117.346833,33,Wellesley
4378,1028,1,1,18.0,9.3,Broadway @ Havana,47.664471,-117.347504,33,Wellesley
4378,1031,1,1,18.1,9.3,Market @ Cleveland,47.684634,-117.365067,33,Wellesley
4378,1032,1,1,18.1,9.3,Market @ Euclid,47.686092,-117.365026,33,Wellesley
4378,1034,1,1,18.1,9.3,Market @ Glass,47.69064,-117.365034,33,Wellesley
4378,1035,1,1,18.1,9.3,Market @ Garland,47.69333,-117.365005,33,Wellesley
4378,1036,1,1,18.1,9.3,N Market (Ziggy's),47.696038,-117.364936,33,Wellesley
4378,1037,1,1,18.1,9.3,Market @ Heroy,47.698493,-117.364907,33,Wellesley
4378,1038,1,1,18.1,9.3,Wellesley @ Haven,47.70055,-117.366228,33,Wellesley
4378,1039,1,1,18.1,9.3,Wellesley @ Crestline,47.700637,-117.378768,33,Wellesley
4378,1041,1,1,18.1,9.3,Wellesley @ Pittsburg,47.700648,-117.384787,33,Wellesley
4378,1043,1,1,18.1,9.3,Wellesley @ Perry,47.700668,-117.389602,33,Wellesley
4378,1045,1,1,18.1,9.3,Wellesley @ Nevada,47.700733,-117.39619,33,Wellesley
4378,1046,1,1,18.1,9.3,Wellesley @ Cincinnati,47.700697,-117.397751,33,Wellesley
4373,1048,1,0,33.0,9.7,Wellesley @ Addison,47.700753,-117.403849,26,Lidgerwood
4378,1048,1,1,18.1,9.3,Wellesley @ Addison,47.700753,-117.403849,33,Wellesley
4378,1049,1,1,18.1,9.3,Wellesley @ Lidgerwood,47.700762,-117.4059,33,Wellesley
4378,1050,1,1,18.1,9.3,Wellesley @ Division (Northtown),47.70089,-117.410014,33,Wellesley
4378,1052,1,1,18.1,9.3,Wellesley @ Whitehouse,47.700737,-117.416509,33,Wellesley
4378,1054,1,1,18.1,9.3,Wellesley @ Wall,47.700783,-117.421879,33,Wellesley
4378,1057,1,1,18.1,9.3,Wellesley @ Cedar,47.700774,-117.43233,33,Wellesley
4378,1058,1,1,18.1,9.3,Wellesley @ Maple,47.700765,-117.435002,33,Wellesley
4378,1060,1,1,18.1,9.3,Wellesley @ Cannon,47.700774,-117.440399,33,Wellesley
4378,1061,1,1,18.1,9.3,Wellesley @ Belt,47.700783,-117.443098,33,Wellesley
4378,1063,1,1,18.1,9.3,Wellesley @ Alberta,47.700773,-117.448984,33,Wellesley
4378,1064,1,1,18.1,9.3,Wellesley @ Milton,47.7008,-117.452794,33,Wellesley
4378,1065,1,1,18.1,9.3,Wellesley @ C Street,47.700854,-117.456644,33,Wellesley
4378,1066,1,1,18.1,9.3,Wellesley @ Driscoll,47.700806,-117.460305,33,Wellesley
4385,1067,1,0,34.8,10.8,Hayford @ 9th,47.649024,-117.560771,61,Highway 2 via Brownes Addition
4378,1069,1,0,18.9,12.0,Wellesley @ C Street,47.700727,-117.456882,33,Wellesley
4378,1070,1,0,18.9,12.0,Wellesley @ Milton,47.700673,-117.452005,33,Wellesley
4378,1071,1,0,18.9,12.0,Wellesley @ Alberta,47.700665,-117.449196,33,Wellesley
4378,1073,1,0,18.6,11.7,Wellesley @ Belt,47.700674,-117.443389,33,Wellesley
4378,1074,1,0,18.6,11.7,Wellesley @ Cannon,47.700665,-117.440465,33,Wellesley
4378,1077,1,0,18.6,11.7,Wellesley @ Cedar,47.700684,-117.431827,33,Wellesley
4378,1079,1,0,18.6,11.7,Wellesley @ Monroe,47.700683,-117.425993,33,Wellesley
4378,1080,1,0,18.6,11.7,Wellesley @ Wall,47.700656,-117.42221,33,Wellesley
4378,1082,1,0,18.6,11.7,Wellesley @ Whitehouse,47.700655,-117.416724,33,Wellesley
4378,1084,1,0,18.6,11.7,Wellesley @ Division,47.700619,-117.411667,33,Wellesley
4378,1085,1,0,18.6,11.7,Wellesley @ Lidgerwood,47.700654,-117.406151,33,Wellesley
4373,1086,1,1,35.4,11.2,Wellesley @ Addison,47.700599,-117.403413,26,Lidgerwood
4378,1086,1,0,18.6,11.7,Wellesley @ Addison,47.700599,-117.403413,33,Wellesley
4378,1088,1,0,18.6,11.7,Wellesley @ Cincinnati,47.700607,-117.397963,33,Wellesley
4378,1089,1,0,18.6,11.7,Wellesley @ Nevada,47.700579,-117.394616,33,Wellesley
4378,1091,1,0,18.6,11.7,Wellesley @ Perry,47.700586,-117.389774,33,Wellesley
4378,1093,1,0,18.6,11.7,Wellesley @ Pittsburg,47.700557,-117.38443,33,Wellesley
4378,1095,1,0,18.6,11.7,Wellesley @ Crestline,47.70051,-117.379046,33,Wellesley
4374,1096,1,0,34.0,9.5,Wellesley @ Haven,47.70045,-117.366638,27,Hillyard
4378,1096,1,0,18.6,11.7,Wellesley @ Haven,47.70045,-117.366638,33,Wellesley
4378,1097,1,0,18.6,11.7,Haven @ Heroy,47.698929,-117.366613,33,Wellesley
4361,11,1,1,14.7,5.6,Wall @ Main,47.658574,-117.422217,1,Plaza Arena Shuttle
4378,1100,1,0,18.6,11.7,Market @ Glass,47.690667,-117.365206,33,Wellesley
4378,1102,1,0,18.6,11.7,Market @ Euclid,47.686382,-117.36525,33,Wellesley
4378,1105,1,0,17.8,10.4,Havana @ Broadway,47.663584,-117.347003,33,Wellesley
4378,1106,1,0,17.8,10.4,Havana @ Alki (Fairgrounds),47.662759,-117.346991,33,Wellesley
4378,1107,1,0,17.8,10.4,Havana @ Ferry,47.661011,-117.347033,33,Wellesley
4378,1109,1,0,18.6,9.9,Leave Havana @ Sprague Southbound,47.65689,-117.34713,33,Wellesley
4378,1111,1,0,18.5,9.9,Havana @ 2nd,47.654554,-117.347081,33,Wellesley
4378,1113,1,0,18.6,9.9,2nd @ Myrtle,47.654602,-117.352183,33,Wellesley
4378,1115,1,0,18.6,9.9,2nd @ Freya,47.654403,-117.357302,33,Wellesley
4378,1116,1,0,18.6,9.9,Thor @ 5th,47.652188,-117.360474,33,Wellesley
4378,1117,1,0,18.6,9.9,Thor @ Hartson,47.650105,-117.360477,33,Wellesley
4378,1118,1,0,18.6,9.9,Thor @ 8th,47.648285,-117.360465,33,Wellesley
4378,1120,1,0,18.6,9.9,Ray @ 15th,47.641594,-117.363222,33,Wellesley
4378,1122,1,0,18.6,9.9,18th @ Ray,47.63904,-117.362947,33,Wellesley
4378,1124,1,0,18.6,9.9,18th Avenue @ Freya,47.639073,-117.357832,33,Wellesley
4378,1126,1,0,18.6,9.9,Freya @ Congress,47.636438,-117.357888,33,Wellesley
4378,1127,1,0,18.6,9.9,Freya @ 22nd,47.634482,-117.357891,33,Wellesley
4378,1128,1,0,18.6,9.9,Freya @ 24th,47.632779,-117.357906,33,Wellesley
4378,1130,1,0,18.6,9.9,Freya @ 28th,47.629428,-117.357883,33,Wellesley
4378,1131,1,0,18.6,9.9,Freya @ 29th Avenue,47.628242,-117.357898,33,Wellesley
4382,1131,1,1,18.6,9.9,Freya @ 29th Avenue,47.628242,-117.357898,44,29th Avenue
4384,1133,1,0,35.6,12.8,Pacific @ Maple,47.655595,-117.436481,60,Airport via Brownes Addition
4385,1133,1,0,34.8,10.8,Pacific @ Maple,47.655595,-117.436481,61,Highway 2 via Brownes Addition
4384,1134,1,0,35.6,12.8,Pacific @ Oak,47.655658,-117.438385,60,Airport via Brownes Addition
4385,1134,1,0,34.8,10.8,Pacific @ Oak,47.655658,-117.438385,61,Highway 2 via Brownes Addition
4384,1136,1,0,35.6,12.8,Pacific @ Cannon,47.655633,-117.441419,60,Airport via Brownes Addition
4385,1136,1,0,34.8,10.8,Pacific @ Cannon,47.655633,-117.441419,61,Highway 2 via Brownes Addition
4384,1138,1,0,35.6,12.8,Pacific @ Hemlock (MAC  Museum),47.655594,-117.444571,60,Airport via Brownes Addition
4385,1138,1,0,34.8,10.8,Pacific @ Hemlock (MAC  Museum),47.655594,-117.444571,61,Highway 2 via Brownes Addition
4384,1146,1,0,34.2,10.6,4th @ Hemlock,47.65256,-117.444729,60,Airport via Brownes Addition
4385,1146,1,0,34.8,10.8,4th @ Hemlock,47.65256,-117.444729,61,Highway 2 via Brownes Addition
4385,1146,1,1,33.0,9.9,4th @ Hemlock,47.65256,-117.444729,61,Highway 2 via Brownes Addition
4384,1150,1,1,34.2,10.6,Pacific @ Oak,47.655486,-117.438623,60,Airport via Brownes Addition
4385,1150,1,1,34.1,11.2,Pacific @ Oak,47.655486,-117.438623,61,Highway 2 via Brownes Addition
4384,1151,1,1,34.2,10.6,Pacific @ Maple,47.655468,-117.436481,60,Airport via Brownes Addition
4385,1151,1,1,34.1,11.2,Pacific @ Maple,47.655468,-117.436481,61,Highway 2 via Brownes Addition
4384,1155,1,0,34.2,10.6,Sunset @ Lindeke,47.649281,-117.451298,60,Airport via Brownes Addition
4385,1155,1,0,34.8,10.8,Sunset @ Lindeke,47.649281,-117.451298,61,Highway 2 via Brownes Addition
4366,1175,1,0,24.8,13.0,8th & McClellan,47.648302,-117.414677,2,Southside Medical Shuttle
4363,1191,1,1,30.0,0.0,3rd @ Cedar,47.653466,-117.432806,165,Cheney Express
4381,1191,1,1,34.6,10.7,3rd @ Cedar,47.653466,-117.432806,43,Lincoln 37th
4386,1191,1,1,86.1,10.5,3rd @ Cedar,47.653466,-117.432806,62,Medical Lake
4387,1191,1,1,20.1,13.7,3rd @ Cedar,47.653466,-117.432806,66,Cheney EWU
4387,1192,1,0,27.9,15.2,Leave @ Jefferson Lot,47.652638,-117.429584,66,Cheney EWU
4381,1193,1,0,35.1,12.2,Maple @ 2nd,47.6542,-117.435609,43,Lincoln 37th
4381,1196,1,0,35.1,12.2,Maple @ 7th,47.64949,-117.435701,43,Lincoln 37th
4381,1198,1,0,35.1,12.2,Maple @ 9th,47.647416,-117.435701,43,Lincoln 37th
4380,1204,1,1,34.1,10.5,Cedar @ 12th,47.644391,-117.432278,42,South Adams
4381,1204,1,1,34.6,10.6,Cedar @ 12th,47.644391,-117.432278,43,Lincoln 37th
4381,1205,1,1,34.6,10.7,Walnut @ 9th,47.647281,-117.434009,43,Lincoln 37th
4381,1207,1,1,34.6,10.7,Walnut @ 7th,47.649382,-117.433969,43,Lincoln 37th
4363,1209,1,1,30.0,0.0,Walnut @ 5th (Jefferson Lot),47.651727,-117.43393,165,Cheney Express
4381,1209,1,1,34.6,10.7,Walnut @ 5th (Jefferson Lot),47.651727,-117.43393,43,Lincoln 37th
4386,1209,1,1,86.2,10.6,Walnut @ 5th (Jefferson Lot),47.651727,-117.43393,62,Medical Lake
4387,1209,1,1,20.1,13.7,Walnut @ 5th (Jefferson Lot),47.651727,-117.43393,66,Cheney EWU
4363,1210,1,1,30.0,0.0,Walnut @ 3rd,47.653448,-117.43393,165,Cheney Express
4381,1210,1,1,34.6,10.7,Walnut @ 3rd,47.653448,-117.43393,43,Lincoln 37th
4387,1210,1,1,20.1,13.7,Walnut @ 3rd,47.653448,-117.43393,66,Cheney EWU
4366,1211,1,0,24.8,13.0,Stevens @ 4th,47.652515,-117.419601,2,Southside Medical Shuttle
4382,1211,1,0,18.6,12.3,Stevens @ 4th,47.652515,-117.419601,44,29th Avenue
4380,1213,1,0,34.1,10.5,5th @ Monroe,47.651465,-117.426382,42,South Adams
4380,1214,1,0,34.1,10.5,5th @ Madison,47.651437,-117.427757,42,South Adams
4380,1215,1,0,34.1,10.5,5th @ Jefferson,47.651428,-117.429369,42,South Adams
4380,1216,1,0,34.1,10.5,Adams @ 6th,47.650007,-117.431154,42,South Adams
4380,1217,1,0,34.1,10.5,Adams @ 8th,47.648349,-117.431101,42,South Adams
4380,1218,1,0,34.1,10.5,Adams @ 10th,47.646357,-117.431048,42,South Adams
4380,1219,1,0,34.1,10.5,10th @ Madison,47.646248,-117.427995,42,South Adams
4380,1220,1,0,34.1,10.5,Madison @ 12th,47.644527,-117.427982,42,South Adams
4380,1221,1,0,34.1,10.5,Madison @ 14th,47.642734,-117.428009,42,South Adams
4381,1222,1,0,35.1,12.2,14th @ Lincoln,47.642625,-117.424506,43,Lincoln 37th
4381,1223,1,0,35.1,12.2,Lincoln @ 17th,47.639954,-117.424242,43,Lincoln 37th
4381,1224,1,0,35.1,12.2,Lincoln @ 19th,47.637699,-117.425022,43,Lincoln 37th
4381,1226,1,0,35.1,12.2,Lincoln @ 22nd,47.634465,-117.425023,43,Lincoln 37th
4381,1228,1,0,35.1,12.2,Lincoln @ 26th,47.630961,-117.425102,43,Lincoln 37th
4381,1230,1,0,35.1,12.2,29th @ Post,47.62813,-117.423293,43,Lincoln 37th
4381,1232,1,0,35.1,12.2,29th @ Bernard,47.62812,-117.416973,43,Lincoln 37th
4381,1234,1,0,35.1,12.2,Bernard @ 33rd,47.624684,-117.416858,43,Lincoln 37th
4381,1236,1,0,35.1,12.2,37th @ Bernard,47.620899,-117.415908,43,Lincoln 37th
4381,1237,1,0,35.1,12.2,37th @ Manito Blvd,47.620826,-117.411574,43,Lincoln 37th
4378,124,1,1,18.1,9.3,Driscoll @ Hoffman,47.699938,-117.459937,33,Wellesley
4381,1240,1,0,35.1,12.2,37th @ Latawah,47.620824,-117.403422,43,Lincoln 37th
4381,1241,1,0,35.1,12.2,37th @ Hatch,47.620787,-117.400423,43,Lincoln 37th
4381,1243,1,0,35.1,12.2,37th @ Arthur,47.620777,-117.395455,43,Lincoln 37th
4381,1244,1,0,35.1,12.2,37th @ Perry,47.620739,-117.390223,43,Lincoln 37th
4381,1245,1,0,35.1,12.2,37th @ Helena,47.620865,-117.387502,43,Lincoln 37th
4381,1246,1,0,35.1,12.2,37th @ Pittsburg,47.620873,-117.38478,43,Lincoln 37th
4381,1248,1,0,35.1,12.2,37th @ Crestline,47.620862,-117.379429,43,Lincoln 37th
4381,1250,1,0,35.1,12.2,37th @ Cook,47.62086,-117.374065,43,Lincoln 37th
4381,1251,1,0,35.1,12.2,37th @ Mt Vernon,47.620859,-117.370841,43,Lincoln 37th
4390,1252,1,1,30.0,0.0,2nd & Stevens,47.654589,-117.419308,94,East Central Millwood
4383,1253,1,0,29.5,14.3,Regal @ 39th,47.619173,-117.368663,45,Regal
4383,1254,1,0,29.5,14.3,Regal @ Thurston,47.617362,-117.368678,45,Regal
4378,126,1,1,18.1,9.3,Driscoll @ Rockwell,47.696334,-117.45602,33,Wellesley
4381,1262,1,1,34.6,10.6,37th @ Pittsburg,47.620973,-117.384582,43,Lincoln 37th
4381,1263,1,1,34.6,10.6,37th @ Helena,47.620974,-117.387264,43,Lincoln 37th
4381,1264,1,1,34.6,10.6,37th @ Perry,47.620975,-117.389946,43,Lincoln 37th
4381,1265,1,1,34.6,10.6,37th @ Arthur,47.620877,-117.395244,43,Lincoln 37th
4381,1267,1,1,34.6,10.6,37th @ Grand,47.620914,-117.401758,43,Lincoln 37th
4381,1268,1,1,34.6,10.6,37th @ Latawah,47.620942,-117.404625,43,Lincoln 37th
4381,1271,1,1,34.6,10.6,37th @ Manito Blvd,47.620943,-117.411006,43,Lincoln 37th
4381,1272,1,1,34.6,10.6,37th @ Bernard,47.621026,-117.416568,43,Lincoln 37th
4381,1273,1,1,34.6,10.6,Bernard @ 34th,47.623072,-117.416647,43,Lincoln 37th
4381,1274,1,1,34.6,10.6,Bernard @ 33rd,47.624449,-117.416686,43,Lincoln 37th
4381,1276,1,1,34.6,10.6,29th @ Bernard,47.62827,-117.417333,43,Lincoln 37th
4381,1278,1,1,34.6,10.6,29th @ Post,47.62828,-117.423028,43,Lincoln 37th
4378,128,1,1,18.1,9.3,Driscoll @ Garland,47.693753,-117.453202,33,Wellesley
4381,1280,1,1,34.6,10.6,Lincoln @ 26th,47.63078,-117.424891,43,Lincoln 37th
4381,1282,1,1,34.6,10.6,Lincoln @ 22nd,47.634284,-117.424824,43,Lincoln 37th
4381,1284,1,1,34.6,10.6,Lincoln @ Shoshone,47.637662,-117.424811,43,Lincoln 37th
4381,1285,1,1,34.6,10.6,Lincoln @ 17th,47.640198,-117.424004,43,Lincoln 37th
4381,1286,1,1,34.6,10.6,14th @ Lincoln,47.642734,-117.425035,43,Lincoln 37th
4380,1292,1,1,34.1,10.5,Adams @ 6th,47.650269,-117.430956,42,South Adams
4380,1293,1,1,34.1,10.5,5th @ Jefferson,47.651311,-117.429581,42,South Adams
4380,1294,1,1,34.1,10.5,5th @ Monroe,47.651356,-117.42658,42,South Adams
4380,1295,1,1,54.0,13.4,Wall @ 4th,47.65237,-117.421927,42,South Adams
4380,1296,1,1,54.0,13.4,Wall @ 3rd,47.653402,-117.421967,42,South Adams
4366,1297,1,1,25.2,14.3,Wall @ 2nd,47.654752,-117.421917,2,Southside Medical Shuttle
4380,1297,1,1,54.0,13.4,Wall @ 2nd,47.654752,-117.421917,42,South Adams
4381,1297,1,1,,,Wall @ 2nd,47.654752,-117.421917,43,Lincoln 37th
4366,1298,1,1,25.2,14.3,Wall @ 1st,47.656527,-117.422006,2,Southside Medical Shuttle
4380,1298,1,1,54.0,13.4,Wall @ 1st,47.656527,-117.422006,42,South Adams
4381,1298,1,1,,,Wall @ 1st,47.656527,-117.422006,43,Lincoln 37th
4382,1299,1,0,18.6,12.3,Stevens @ 6th,47.650631,-117.419601,44,29th Avenue
4366,13,1,0,24.8,13.0,Stevens @ 2nd,47.654598,-117.419587,2,Southside Medical Shuttle
4382,13,1,0,18.6,12.3,Stevens @ 2nd,47.654598,-117.419587,44,29th Avenue
4378,130,1,1,18.1,9.3,Driscoll @ Kiernan,47.691307,-117.450649,33,Wellesley
4382,1300,1,0,31.0,4.7,Grove @ 12th,47.644925,-117.417355,44,29th Avenue
4382,1301,1,0,31.0,4.7,Grove @ 14th,47.642742,-117.417118,44,29th Avenue
4382,1304,1,0,31.0,4.7,Bernard @ 19th,47.638413,-117.416828,44,29th Avenue
4382,1306,1,0,31.0,4.7,Bernard @ 21st,47.635561,-117.416829,44,29th Avenue
4382,1308,1,0,31.0,4.7,Bernard @ 25th,47.631875,-117.416856,44,29th Avenue
4382,1310,1,0,31.0,4.7,29th Street @ Bernard,47.628107,-117.416157,44,29th Avenue
4382,1312,1,0,31.0,4.7,29th @ Division,47.628125,-117.41066,44,29th Avenue
4382,1313,1,0,31.0,4.7,29th @ Manito Blvd,47.628115,-117.407898,44,29th Avenue
4382,1314,1,0,31.0,4.7,29th @ Latawah,47.628132,-117.404212,44,29th Avenue
4382,1315,1,1,33.1,9.5,29th @ Latawah,47.628241,-117.404,44,29th Avenue
4382,1316,1,1,33.1,9.5,29th @ Manito Blvd,47.628242,-117.407224,44,29th Avenue
4382,1317,1,1,33.1,9.5,29th @ Division,47.628242,-117.411334,44,29th Avenue
4382,1319,1,1,33.1,9.5,29th Avenue @ Bernard,47.62827,-117.416434,44,29th Avenue
4382,1321,1,1,33.1,9.5,Bernard @ 25th,47.631739,-117.416685,44,29th Avenue
4382,1323,1,1,33.1,9.5,Bernard @ 21st,47.635425,-117.416631,44,29th Avenue
4382,1324,1,1,33.1,9.5,Bernard @ 20th,47.637489,-117.416617,44,29th Avenue
4382,1325,1,1,33.1,9.5,Bernard @ 18th,47.638948,-117.416643,44,29th Avenue
4382,1326,1,1,33.1,9.5,Bernard @ 16th,47.640804,-117.416696,44,29th Avenue
4382,1327,1,1,33.1,9.5,Bernard @ 15th,47.642063,-117.416682,44,29th Avenue
4382,1329,1,1,33.1,9.5,Grove @ Sumner,47.645323,-117.416787,44,29th Avenue
4378,133,1,1,18.1,9.3,Alberta @ Northwest Blvd,47.685546,-117.449495,33,Wellesley
4382,1331,1,1,18.0,10.0,Washington @ 4th,47.652397,-117.417882,44,29th Avenue
4383,1332,1,1,30.0,13.1,2nd @ Washington,47.654598,-117.417882,45,Regal
4390,1332,1,1,33.6,9.5,2nd @ Washington,47.654598,-117.417882,94,East Central Millwood
4382,1333,1,0,35.5,14.0,9th @ McClellan,47.647261,-117.415042,44,29th Avenue
4382,1334,1,0,35.5,14.0,Grand @ 13th,47.643692,-117.40965,44,29th Avenue
4382,1335,1,0,35.5,14.0,Grand @ 14th,47.643058,-117.408871,44,29th Avenue
4382,1337,1,0,35.5,14.0,Grand @ 18th,47.639055,-117.407379,44,29th Avenue
4382,1338,1,0,35.5,14.0,Grand @ 20th,47.636863,-117.406732,44,29th Avenue
4382,1339,1,0,35.5,14.0,Grand @ 22nd,47.634871,-117.405729,44,29th Avenue
4382,1341,1,0,35.5,14.0,Grand @ 25th,47.631882,-117.403893,44,29th Avenue
4382,1343,1,0,18.6,12.3,29th @ Grand,47.628063,-117.40086,44,29th Avenue
4382,1344,1,1,18.6,9.9,Garfield @ 30th Ave (Manito Center),47.627469,-117.398253,44,29th Avenue
4382,1345,1,1,18.1,10.0,31st @ Grand Bl,47.626447,-117.401319,44,29th Avenue
4382,1347,1,0,19.1,12.2,29th @ Arthur,47.628094,-117.394553,44,29th Avenue
4382,1349,1,0,19.1,12.2,29th @ Perry,47.628129,-117.38936,44,29th Avenue
4378,135,1,1,18.1,9.3,TJ Meenach @ Elliot,47.677801,-117.456622,33,Wellesley
4382,1350,1,0,19.1,12.2,29th @ Pittsburg,47.628154,-117.384788,44,29th Avenue
4382,1351,1,0,19.1,12.2,29th @ Martin,47.62817,-117.379423,44,29th Avenue
4382,1353,1,0,19.1,12.2,29th @ Southeast Blvd,47.628132,-117.374085,44,29th Avenue
4382,1355,1,0,19.1,12.2,29th @ Regal,47.628165,-117.367795,44,29th Avenue
4382,1357,1,0,19.1,12.2,29th @ Ray,47.628136,-117.363263,44,29th Avenue
4382,1358,1,0,19.1,12.2,29th @ Thor,47.628108,-117.360633,44,29th Avenue
4382,1359,1,1,18.5,9.8,29th @ Thor,47.628271,-117.361148,44,29th Avenue
4367,136,1,1,18.1,9.3,Spokane Falls Community College,47.675264,-117.46203,20,SFCC
4378,136,1,1,18.1,9.3,Spokane Falls Community College,47.675264,-117.46203,33,Wellesley
4382,1360,1,1,18.5,9.8,29th @ Ray,47.628254,-117.363897,44,29th Avenue
4382,1362,1,1,18.5,9.8,29th @ Regal,47.628265,-117.368482,44,29th Avenue
4382,1363,1,1,18.5,9.8,29th @ Mt Vernon,47.628266,-117.370186,44,29th Avenue
4382,1366,1,1,18.5,9.8,29th @ Stone,47.62826,-117.376569,44,29th Avenue
4382,1367,1,1,18.5,9.8,29th @ Martin (Applebee's),47.628279,-117.380123,44,29th Avenue
4382,1368,1,1,18.5,9.8,29th @ Pittsburg,47.628272,-117.38488,44,29th Avenue
4382,1369,1,1,18.5,9.8,29th @ Pinecrest,47.628228,-117.389175,44,29th Avenue
4367,137,1,1,17.6,9.4,Fort George Wright @ Randolph,47.673188,-117.470134,20,SFCC
4382,1370,1,1,18.5,9.8,29th @ Ivory,47.62822,-117.392703,44,29th Avenue
4382,1373,1,1,34.4,10.8,Grand @ 25th,47.631755,-117.403668,44,29th Avenue
4382,1375,1,1,34.4,10.8,Grand @ 22nd,47.634653,-117.405438,44,29th Avenue
4382,1376,1,1,34.4,10.8,Grand @ 20th,47.6368,-117.406534,44,29th Avenue
4382,1377,1,1,34.4,10.8,Grand @ 18th,47.638928,-117.407181,44,29th Avenue
4382,1379,1,1,34.4,10.8,Grand @ 14th Avenue,47.642605,-117.408316,44,29th Avenue
4382,1380,1,1,34.3,10.8,Grand @ 12th,47.644317,-117.410192,44,29th Avenue
4382,1381,1,1,34.3,10.8,8th @ McClellan,47.648439,-117.415319,44,29th Avenue
4382,1382,1,1,34.3,10.8,8th @ Washington,47.648457,-117.417024,44,29th Avenue
4382,1384,1,1,18.0,10.0,Washington @ 6th,47.65035,-117.417896,44,29th Avenue
4366,1385,1,1,25.2,14.3,8th @ McClellan,47.64842,-117.41479,2,Southside Medical Shuttle
4366,1386,1,0,24.8,13.0,Rockwood Bl @ 9th Av,47.646237,-117.410786,2,Southside Medical Shuttle
4366,1387,1,0,24.8,13.0,Rockwood Bl @ Cowley,47.645954,-117.408542,2,Southside Medical Shuttle
4367,139,1,1,17.6,9.4,Government Way @ N 1202,47.666857,-117.469707,20,SFCC
4383,1395,1,0,29.5,14.3,Southeast Blvd @ Rockwood Blvd,47.633648,-117.377159,45,Regal
4383,1396,1,0,29.5,14.3,Southeast Blvd @ 27th,47.630116,-117.375378,45,Regal
4383,1397,1,0,29.5,14.3,Southeast Blvd @ 29th,47.62845,-117.375432,45,Regal
4381,1399,1,1,34.6,10.7,Southeast Blvd @ Regal,47.623575,-117.369306,43,Lincoln 37th
4383,1399,1,0,29.5,14.3,Southeast Blvd @ Regal,47.623575,-117.369306,45,Regal
4390,14,1,1,30.0,0.0,2nd @ Wall,47.654535,-117.42198,94,East Central Millwood
4367,140,1,1,17.6,9.4,Government Way @ N 508,47.66021,-117.466333,20,SFCC
4381,1400,1,1,34.6,10.7,Regal @ 35th,47.62227,-117.368726,43,Lincoln 37th
4383,1400,1,0,29.5,14.3,Regal @ 35th,47.62227,-117.368726,45,Regal
4381,1401,1,1,34.6,10.7,Regal @ 37th,47.621003,-117.3687,43,Lincoln 37th
4383,1401,1,0,29.5,14.3,Regal @ 37th,47.621003,-117.3687,45,Regal
4383,1403,1,0,29.5,14.3,Regal @ 44th,47.613704,-117.368615,45,Regal
4383,1404,1,0,29.5,14.3,Regal @ 46th,47.611422,-117.3683,45,Regal
4383,1405,1,0,29.5,14.3,Regal @ 53rd,47.606342,-117.368477,45,Regal
4383,1406,1,0,29.5,14.3,Regal @ 55th,47.604223,-117.368519,45,Regal
4383,1407,1,0,29.5,14.3,Regal @ 57th,47.602783,-117.3686,45,Regal
4383,1409,1,0,30.0,0.0,57th @ Cook,47.602312,-117.373694,45,Regal
4367,141,1,1,17.6,9.4,Government Way  @ N 211,47.658906,-117.465618,20,SFCC
4383,1411,1,0,30.0,0.0,57th @ Crestline,47.602371,-117.37955,45,Regal
4383,1412,1,0,30.0,0.0,57th @ Pittsburg,47.602382,-117.384252,45,Regal
4383,1414,1,0,30.0,0.0,57th @ Perry,47.60242,-117.389694,45,Regal
4383,1414,1,1,30.0,0.0,57th @ Perry,47.60242,-117.389694,45,Regal
4367,142,1,1,17.6,9.4,Government Way @ G St.,47.656234,-117.463303,20,SFCC
4383,1427,1,1,30.0,0.0,57th @ Cook,47.60215,-117.374,45,Regal
4383,1428,1,1,30.0,13.1,Regal @ 57th,47.602638,-117.368415,45,Regal
4383,1429,1,1,30.0,13.1,Regal @ 55th,47.603797,-117.368321,45,Regal
4383,1430,1,1,30.0,13.1,Regal @ 53rd,47.606695,-117.368265,45,Regal
4383,1431,1,1,30.0,13.1,Regal @ 46th,47.61143,-117.368102,45,Regal
4383,1432,1,1,30.0,13.1,Regal @ 44th,47.613396,-117.368312,45,Regal
4383,1433,1,1,30.0,13.1,Regal @ Thurston,47.617081,-117.368493,45,Regal
4383,1434,1,1,30.0,13.1,Regal @ 39th,47.619118,-117.36846,45,Regal
4383,1435,1,1,30.0,13.1,Regal @ 37th,47.620839,-117.368489,45,Regal
4381,1436,1,0,35.1,12.2,Regal @ 35th,47.622605,-117.36854,43,Lincoln 37th
4383,1436,1,1,30.0,13.1,Regal @ 35th,47.622605,-117.36854,45,Regal
4381,1437,1,0,35.1,12.2,Southeast Blvd @ Regal,47.623756,-117.369306,43,Lincoln 37th
4383,1437,1,1,30.0,13.1,Southeast Blvd @ Regal,47.623756,-117.369306,45,Regal
4367,144,1,1,17.6,9.4,Riverside @ A St,47.654198,-117.454657,20,SFCC
4383,1468,1,1,30.0,13.1,Southeast Blvd @ 29th,47.62902,-117.37522,45,Regal
4383,1469,1,1,30.0,13.1,Southeast Blvd @ 27th,47.630505,-117.375219,45,Regal
4367,147,1,1,33.7,10.6,Riverside @ Elm,47.657125,-117.44013,20,SFCC
4383,1470,1,1,30.0,13.1,Southeast Blvd @ Rockwood Blvd,47.634319,-117.377066,45,Regal
4366,1478,1,1,25.2,14.3,Rockwood Blvd @ Cowley,47.646079,-117.408662,2,Southside Medical Shuttle
4366,1479,1,1,25.2,14.3,Rockwood Blvd. @ 9th Ave,47.646431,-117.410925,2,Southside Medical Shuttle
4384,148,1,0,35.6,12.8,Maple @ 1st,47.656263,-117.435854,60,Airport via Brownes Addition
4385,148,1,0,34.8,10.8,Maple @ 1st,47.656263,-117.435854,61,Highway 2 via Brownes Addition
4366,1480,1,0,24.8,13.0,Sacred Heart Driveway @ 9th Ave,47.647448,-117.413906,2,Southside Medical Shuttle
4367,149,1,1,33.7,10.6,1st @ Cedar,47.656446,-117.432608,20,SFCC
4384,149,1,1,34.2,10.6,1st @ Cedar,47.656446,-117.432608,60,Airport via Brownes Addition
4385,149,1,1,34.1,11.2,1st @ Cedar,47.656446,-117.432608,61,Highway 2 via Brownes Addition
4380,15,1,1,34.1,10.5,5th @ Lincoln,47.651356,-117.425007,42,South Adams
4367,150,1,1,33.7,10.6,1st @ Jefferson,47.656443,-117.429118,20,SFCC
4384,150,1,1,34.2,10.6,1st @ Jefferson,47.656443,-117.429118,60,Airport via Brownes Addition
4385,150,1,1,34.1,11.2,1st @ Jefferson,47.656443,-117.429118,61,Highway 2 via Brownes Addition
4363,151,1,0,30.0,0.0,Monroe @ 1st,47.656623,-117.426642,165,Cheney Express
4381,151,1,0,35.1,12.2,Monroe @ 1st,47.656623,-117.426642,43,Lincoln 37th
4387,151,1,0,29.5,14.5,Monroe @ 1st,47.656623,-117.426642,66,Cheney EWU
4383,1515,1,1,30.0,13.1,Perry @ 15th,47.641514,-117.389853,45,Regal
4383,1516,1,1,30.0,13.1,Perry @ 13th,47.643552,-117.389904,45,Regal
4383,1517,1,1,30.0,13.1,Perry @ 11th,47.645345,-117.389864,45,Regal
4363,152,1,0,30.0,0.0,Monroe @ 2nd,47.654553,-117.42662,165,Cheney Express
4381,152,1,0,35.1,12.2,Monroe @ 2nd,47.654553,-117.42662,43,Lincoln 37th
4387,152,1,0,29.5,14.5,Monroe @ 2nd,47.654553,-117.42662,66,Cheney EWU
4366,1526,1,0,24.8,13.0,Chandler @ Hartson,47.65071,-117.405867,2,Southside Medical Shuttle
4366,1526,1,1,25.2,14.3,Chandler @ Hartson,47.65071,-117.405867,2,Southside Medical Shuttle
4381,153,1,0,35.1,12.2,2nd @ Jefferson,47.654517,-117.429422,43,Lincoln 37th
4384,1532,1,0,34.2,10.6,Sunset @ Rustle,47.640401,-117.473657,60,Airport via Brownes Addition
4385,1532,1,0,34.8,10.8,Sunset @ Rustle,47.640401,-117.473657,61,Highway 2 via Brownes Addition
4384,1533,1,0,34.2,10.6,Sunset @ Assembly,47.640499,-117.476658,60,Airport via Brownes Addition
4385,1533,1,0,34.8,10.8,Sunset @ Assembly,47.640499,-117.476658,61,Highway 2 via Brownes Addition
4384,1534,1,0,34.2,10.6,Sunset @ Royal,47.64144,-117.47942,60,Airport via Brownes Addition
4385,1534,1,0,34.8,10.8,Sunset @ Royal,47.64144,-117.47942,61,Highway 2 via Brownes Addition
4384,1536,1,0,34.2,10.6,Sunset @ Lewis,47.643112,-117.489215,60,Airport via Brownes Addition
4385,1536,1,0,34.8,10.8,Sunset @ Lewis,47.643112,-117.489215,61,Highway 2 via Brownes Addition
4384,1537,1,0,34.2,10.6,Sunset @ Windsor,47.643083,-117.493299,60,Airport via Brownes Addition
4385,1537,1,0,34.8,10.8,Sunset @ Windsor,47.643083,-117.493299,61,Highway 2 via Brownes Addition
4381,154,1,0,35.1,12.2,2nd @ Cedar,47.654535,-117.432198,43,Lincoln 37th
4384,1540,1,0,34.2,10.6,Leave SIA Concorse A,47.626503,-117.536888,60,Airport via Brownes Addition
4384,1540,1,1,16.8,16.0,Leave SIA Concorse A,47.626503,-117.536888,60,Airport via Brownes Addition
4385,1543,1,0,34.8,10.8,Hayford @ Hwy 2 (Walmart),47.64423,-117.560733,61,Highway 2 via Brownes Addition
4385,1544,1,0,34.8,10.8,Northern Quest Casino,47.657648,-117.561498,61,Highway 2 via Brownes Addition
4385,1545,1,0,34.8,10.8,Sunset @ Spotted Longhorn BBQ,47.643242,-117.518015,61,Highway 2 via Brownes Addition
4385,1548,1,0,34.8,10.8,Hwy 2 @ Flint (Triumph),47.643355,-117.539148,61,Highway 2 via Brownes Addition
4369,155,1,1,33.5,9.3,Boone @ Maple,47.66793,-117.434803,22,NW Blvd
4385,1550,1,1,33.0,9.9,Airway Heights Correctional Center,47.656461,-117.577242,61,Highway 2 via Brownes Addition
4385,1555,1,0,34.8,10.8,Hwy 2 @ Lundstrom,47.643021,-117.593971,61,Highway 2 via Brownes Addition
4385,1556,1,0,34.5,11.0,Hwy 2 @ Craig,47.643072,-117.604505,61,Highway 2 via Brownes Addition
4385,1558,1,0,34.5,11.0,Hwy 2 @ Rambo,47.643072,-117.625136,61,Highway 2 via Brownes Addition
4369,156,1,1,33.5,9.3,Boone @ Walnut,47.66793,-117.433322,22,NW Blvd
4385,1561,1,1,33.0,9.9,Airway Heights P&R (Yokes),47.642854,-117.589543,61,Highway 2 via Brownes Addition
4385,1567,1,1,33.0,9.9,Hayford @ 12th Av,47.646406,-117.560991,61,Highway 2 via Brownes Addition
4385,1568,1,1,33.0,9.9,Hayford @ 9th Av,47.649086,-117.561011,61,Highway 2 via Brownes Addition
4361,1571,1,0,14.7,5.3,Broadway @ Lincoln,47.664303,-117.424777,1,Plaza Arena Shuttle
4385,1572,1,0,34.8,10.8,Hwy 2 @ West St,47.642995,-117.598394,61,Highway 2 via Brownes Addition
4385,1573,1,0,60.0,0.0,Lefevre @ 4th,47.577119,-117.682812,61,Highway 2 via Brownes Addition
4386,1573,1,0,85.7,11.3,Lefevre @ 4th,47.577119,-117.682812,62,Medical Lake
4385,1574,1,1,33.0,9.9,Hwy 2 @ West St,47.642832,-117.598686,61,Highway 2 via Brownes Addition
4386,1575,1,0,82.5,15.0,4th @ Minnie,47.577599,-117.688148,62,Medical Lake
4386,1576,1,0,82.5,15.0,4th @ Eastlake State Hospital,47.572174,-117.693711,62,Medical Lake
4386,1577,1,0,82.5,15.0,Maple @ Pine,47.5721,-117.696828,62,Medical Lake
4386,1578,1,0,82.5,15.0,Maple @ Elm,47.571822,-117.700269,62,Medical Lake
4386,1578,1,1,90.0,0.0,Maple @ Elm,47.571822,-117.700269,62,Medical Lake
4386,1579,1,0,82.5,15.0,West Lake Hospital,47.574239,-117.702869,62,Medical Lake
4386,1579,1,1,90.0,0.0,West Lake Hospital,47.574239,-117.702869,62,Medical Lake
4369,158,1,1,33.4,9.4,Boone @ Monroe,47.667985,-117.426764,22,NW Blvd
4386,1580,1,0,82.5,15.0,Maple @ Elm,47.571688,-117.700083,62,Medical Lake
4386,1580,1,1,90.0,0.0,Maple @ Elm,47.571688,-117.700083,62,Medical Lake
4386,1581,1,0,82.5,15.0,Maple @ Pine,47.571974,-117.696801,62,Medical Lake
4386,1581,1,1,90.0,0.0,Maple @ Pine,47.571974,-117.696801,62,Medical Lake
4386,1582,1,0,82.5,15.0,Pine @ Poplar,47.567197,-117.696965,62,Medical Lake
4386,1583,1,0,82.5,15.0,851 S Pine,47.565476,-117.696998,62,Medical Lake
4386,1584,1,0,82.5,15.0,Pine @ Fancher,47.562088,-117.697615,62,Medical Lake
4386,1586,1,0,82.5,15.0,Hwy 902 @ Waterfront Park,47.561698,-117.693722,62,Medical Lake
4386,1587,1,0,82.5,15.0,Lefevre @ Jefferson,47.566162,-117.683562,62,Medical Lake
4386,1588,1,0,82.5,15.0,Lefevre @ Campbell,47.570019,-117.682517,62,Medical Lake
4386,1589,1,1,84.1,11.4,Medical Lake Center,47.572595,-117.681118,62,Medical Lake
4386,1590,1,0,90.0,0.0,Lake @ Walker,47.572792,-117.676842,62,Medical Lake
4386,1590,1,1,82.2,14.8,Lake @ Walker,47.572792,-117.676842,62,Medical Lake
4386,1591,1,0,90.0,0.0,Lake @ Stanley,47.572798,-117.674197,62,Medical Lake
4386,1591,1,1,82.5,15.0,Lake @ Stanley,47.572798,-117.674197,62,Medical Lake
4386,1592,1,0,90.0,0.0,Prentis @ Campbell,47.570183,-117.6732,62,Medical Lake
4386,1592,1,1,82.5,15.0,Prentis @ Campbell,47.570183,-117.6732,62,Medical Lake
4386,1597,1,0,90.0,0.0,Campbell @ Hallett,47.570205,-117.675815,62,Medical Lake
4386,1597,1,1,82.5,15.0,Campbell @ Hallett,47.570205,-117.675815,62,Medical Lake
4386,1598,1,0,90.0,0.0,Campbell @ Brower,47.570183,-117.678296,62,Medical Lake
4386,1598,1,1,82.5,15.0,Campbell @ Brower,47.570183,-117.678296,62,Medical Lake
4380,16,1,1,34.1,10.5,5th @ Deaconess Hospital,47.651374,-117.423025,42,South Adams
4386,1600,1,1,90.0,0.0,Lefevre @ Campbell,47.570057,-117.682758,62,Medical Lake
4386,1601,1,1,90.0,0.0,Lefevre @ Jefferson,47.566352,-117.683629,62,Medical Lake
4386,1602,1,1,90.0,0.0,Lefevre @ Waterfront Park,47.561971,-117.693182,62,Medical Lake
4386,1603,1,1,90.0,0.0,Pine @ Fancher,47.561818,-117.697485,62,Medical Lake
4386,1604,1,1,90.0,0.0,Pine @ S 851,47.565332,-117.696812,62,Medical Lake
4386,1605,1,1,90.0,0.0,Pine @ Poplar (Pine Lodge),47.567043,-117.69678,62,Medical Lake
4386,1606,1,1,90.0,0.0,Pine @ Maple,47.571951,-117.696641,62,Medical Lake
4386,1607,1,1,90.0,0.0,Maple @ Alder (Eastern State Hosp.),47.571975,-117.693592,62,Medical Lake
4386,1608,1,1,90.0,0.0,4th @ Minnie,47.577363,-117.687962,62,Medical Lake
4386,1609,1,1,90.0,0.0,4th @ Lefevre,47.576947,-117.683062,62,Medical Lake
4385,1610,1,1,60.0,0.0,Lefevre @ Medical Lake High School,47.577889,-117.682564,61,Highway 2 via Brownes Addition
4386,1610,1,1,86.2,10.6,Lefevre @ Medical Lake High School,47.577889,-117.682564,62,Medical Lake
4373,1612,1,0,33.0,9.7,Lidgerwood @ Wabash,47.702164,-117.405718,26,Lidgerwood
4373,1614,1,0,33.0,9.7,Lidgerwood @ Everett,47.705762,-117.40573,26,Lidgerwood
4373,1615,1,0,33.0,9.7,Lidgerwood @ Rowan,47.707866,-117.405742,26,Lidgerwood
4373,1616,1,1,35.4,11.2,Lidgerwood @ Rowan,47.707974,-117.405995,26,Lidgerwood
4373,1617,1,1,35.4,11.2,Lidgerwood @ Everett,47.706193,-117.405969,26,Lidgerwood
4373,1619,1,1,35.4,11.2,Lidgerwood @ Olympic/Wabash,47.702713,-117.405958,26,Lidgerwood
4385,1621,1,1,33.0,9.9,Hwy 2 @ Rambo,47.642846,-117.62499,61,Highway 2 via Brownes Addition
4385,1623,1,1,33.0,9.9,Hwy 2 @ Craig,47.642846,-117.603698,61,Highway 2 via Brownes Addition
4385,1624,1,1,33.0,9.9,Hwy 2 @ Ziegler,47.642784,-117.595358,61,Highway 2 via Brownes Addition
4385,1629,1,1,33.0,9.9,Hwy 2 @ Hayford (Walmart),47.642849,-117.559012,61,Highway 2 via Brownes Addition
4368,163,1,0,35.3,11.7,Broadway @ Monroe,47.664461,-117.427081,21,West Broadway
4370,163,1,0,43.0,15.2,Broadway @ Monroe,47.664461,-117.427081,23,Maple Ash
4385,1631,1,1,33.0,9.9,Hwy 2 @ Flint (Triumph),47.643091,-117.539941,61,Highway 2 via Brownes Addition
4367,1633,1,0,18.9,12.2,Plaza Zone 8,47.657234,-117.422875,20,SFCC
4379,1633,1,1,34.4,10.8,Plaza Zone 8,47.657234,-117.422875,39,Mission
4382,1633,1,1,15.2,1.4,Plaza Zone 8,47.657234,-117.422875,44,29th Avenue
4384,1633,1,0,35.6,12.9,Plaza Zone 8,47.657234,-117.422875,60,Airport via Brownes Addition
4385,1633,1,0,34.8,10.8,Plaza Zone 8,47.657234,-117.422875,61,Highway 2 via Brownes Addition
4385,1633,1,1,34.1,11.2,Plaza Zone 8,47.657234,-117.422875,61,Highway 2 via Brownes Addition
4385,1634,1,1,33.0,9.9,Hwy 2 @ Spotted Longhorn BBQ,47.64297,-117.519098,61,Highway 2 via Brownes Addition
4384,1639,1,1,34.2,10.6,Hwy 2 @ Windsor,47.642864,-117.496696,60,Airport via Brownes Addition
4385,1639,1,1,32.9,9.9,Hwy 2 @ Windsor,47.642864,-117.496696,61,Highway 2 via Brownes Addition
4368,164,1,0,35.3,11.7,Broadway @ Madison (Courthouse),47.664434,-117.42802,21,West Broadway
4370,164,1,0,43.0,15.2,Broadway @ Madison (Courthouse),47.664434,-117.42802,23,Maple Ash
4384,1641,1,1,34.2,10.6,Sunset @ Lewis,47.642849,-117.489228,60,Airport via Brownes Addition
4385,1641,1,1,32.9,9.9,Sunset @ Lewis,47.642849,-117.489228,61,Highway 2 via Brownes Addition
4384,1642,1,1,34.2,10.6,Sunset @ Royal,47.641322,-117.480174,60,Airport via Brownes Addition
4385,1642,1,1,33.0,9.9,Sunset @ Royal,47.641322,-117.480174,61,Highway 2 via Brownes Addition
4384,1643,1,1,34.2,10.6,Sunset @ Assembly,47.640137,-117.475878,60,Airport via Brownes Addition
4385,1643,1,1,33.0,9.9,Sunset @ Assembly,47.640137,-117.475878,61,Highway 2 via Brownes Addition
4384,1644,1,1,34.2,10.6,Sunset @ Rustle,47.640183,-117.473366,60,Airport via Brownes Addition
4385,1644,1,1,33.0,9.9,Sunset @ Rustle,47.640183,-117.473366,61,Highway 2 via Brownes Addition
4384,1645,1,1,34.2,10.6,Sunset @ Lindeke,47.649045,-117.45028,60,Airport via Brownes Addition
4385,1645,1,1,33.0,9.9,Sunset @ Lindeke,47.649045,-117.45028,61,Highway 2 via Brownes Addition
4386,1646,1,0,85.7,11.3,Medical Lake Hy @ Geiger Bl (Mobil),47.59403,-117.568334,62,Medical Lake
4386,1647,1,0,85.7,11.3,Medical Lake Hwy  @ Craig,47.594749,-117.60602,62,Medical Lake
4386,1648,1,0,85.7,11.3,Med Lake Hwy @ Stanley (Conoco),47.579434,-117.67437,62,Medical Lake
4386,1649,1,1,86.2,10.6,Med Lake Hwy @ Stanley (Conoco),47.579298,-117.67466,62,Medical Lake
4368,165,1,0,35.3,11.7,Broadway @ Jefferson,47.664461,-117.429501,21,West Broadway
4370,165,1,0,43.0,15.2,Broadway @ Jefferson,47.664461,-117.429501,23,Maple Ash
4386,1650,1,1,86.2,10.6,Medical Lake Hwy @ Craig,47.594592,-117.608666,62,Medical Lake
4386,1651,1,1,86.2,10.6,Medical Lake Hwy @ Geiger (Mobil),47.593722,-117.568175,62,Medical Lake
4368,166,1,0,35.3,11.7,Broadway @ Cedar,47.664407,-117.432423,21,West Broadway
4370,166,1,0,43.0,15.2,Broadway @ Cedar,47.664407,-117.432423,23,Maple Ash
4384,1668,1,0,34.2,10.6,Airport Dr @ Spotted,47.637437,-117.519011,60,Airport via Brownes Addition
4368,167,1,0,35.3,11.7,Broadway @ Walnut,47.664452,-117.434353,21,West Broadway
4370,167,1,0,43.0,15.2,Broadway @ Walnut,47.664452,-117.434353,23,Maple Ash
4368,168,1,0,35.3,11.7,Broadway @ Maple,47.664434,-117.435794,21,West Broadway
4363,1683,1,0,30.0,0.0,Four Lakes,47.561487,-117.594469,165,Cheney Express
4387,1683,1,0,27.9,15.2,Four Lakes,47.561487,-117.594469,66,Cheney EWU
4363,1684,1,0,30.0,0.0,SR 904 @ 6th,47.556399,-117.594443,165,Cheney Express
4387,1684,1,0,27.8,15.3,SR 904 @ 6th,47.556399,-117.594443,66,Cheney EWU
4363,1685,1,0,30.0,0.0,SR 904 @ Garfield,47.549877,-117.589227,165,Cheney Express
4387,1685,1,0,27.8,15.3,SR 904 @ Garfield,47.549877,-117.589227,66,Cheney EWU
4363,1686,1,0,30.0,0.0,SR 904 @ Meadow Lake Rd.,47.54419,-117.583669,165,Cheney Express
4387,1686,1,0,27.8,15.3,SR 904 @ Meadow Lake Rd.,47.54419,-117.583669,66,Cheney EWU
4363,1687,1,0,30.0,0.0,SR 904 @ Jensen,47.529347,-117.569414,165,Cheney Express
4387,1687,1,0,27.8,15.3,SR 904 @ Jensen,47.529347,-117.569414,66,Cheney EWU
4363,1688,1,0,30.0,0.0,SR 904 @ Paradise,47.513872,-117.564778,165,Cheney Express
4387,1688,1,0,27.8,15.3,SR 904 @ Paradise,47.513872,-117.564778,66,Cheney EWU
4363,1689,1,0,30.0,0.0,1st @ Betz (RR tracks),47.50501,-117.564839,165,Cheney Express
4388,1689,1,1,33.2,9.1,1st @ Betz (RR tracks),47.50501,-117.564839,68,Cheney Local
4368,169,1,0,35.3,11.7,Broadway @ Oak,47.664452,-117.43824,21,West Broadway
4363,1690,1,0,30.0,0.0,1st @ College Hill,47.501398,-117.564858,165,Cheney Express
4388,1690,1,1,33.2,9.1,1st @ College Hill,47.501398,-117.564858,68,Cheney Local
4363,1691,1,0,30.0,0.0,1st @ Cheney Spokane Rd.,47.49928,-117.564775,165,Cheney Express
4388,1691,1,1,33.2,9.1,1st @ Cheney Spokane Rd.,47.49928,-117.564775,68,Cheney Local
4363,1692,1,0,30.0,0.0,1st @ Mary,47.496582,-117.565099,165,Cheney Express
4388,1692,1,1,33.2,9.1,1st @ Mary,47.496582,-117.565099,68,Cheney Local
4363,1693,1,0,30.0,0.0,1st @ Vine,47.494507,-117.566901,165,Cheney Express
4388,1693,1,1,33.2,9.1,1st @ Vine,47.494507,-117.566901,68,Cheney Local
4363,1694,1,0,30.0,0.0,1st @ Pine,47.493175,-117.568468,165,Cheney Express
4388,1694,1,1,33.2,9.1,1st @ Pine,47.493175,-117.568468,68,Cheney Local
4363,1695,1,0,30.0,0.0,1st @ Calispel,47.491317,-117.570745,165,Cheney Express
4388,1695,1,1,33.2,9.1,1st @ Calispel,47.491317,-117.570745,68,Cheney Local
4363,1696,1,0,30.0,0.0,1st @ A Street,47.490375,-117.571903,165,Cheney Express
4388,1696,1,1,33.2,9.1,1st @ A Street,47.490375,-117.571903,68,Cheney Local
4363,1697,1,0,30.0,0.0,1st @ C Street CH. LIBRARY,47.488744,-117.573851,165,Cheney Express
4388,1697,1,1,33.2,9.1,1st @ C Street CH. LIBRARY,47.488744,-117.573851,68,Cheney Local
4363,1698,1,0,30.0,0.0,1st @ F Street,47.486985,-117.575957,165,Cheney Express
4388,1698,1,1,33.2,9.1,1st @ F Street,47.486985,-117.575957,68,Cheney Local
4363,1699,1,0,30.0,0.0,1st @ G Street,47.486016,-117.577181,165,Cheney Express
4388,1699,1,1,33.2,9.1,1st @ G Street,47.486016,-117.577181,68,Cheney Local
4380,17,1,1,54.0,13.4,5th @ Wall,47.651374,-117.422086,42,South Adams
4368,170,1,0,35.3,11.7,Broadway @ Cannon,47.664425,-117.441691,21,West Broadway
4363,1700,1,0,30.0,0.0,1st @ Union,47.484221,-117.579366,165,Cheney Express
4388,1700,1,1,33.2,9.1,1st @ Union,47.484221,-117.579366,68,Cheney Local
4363,1702,1,0,30.0,0.0,1st @ Washington,47.480402,-117.587241,165,Cheney Express
4363,1703,1,0,30.0,0.0,1st @ Buena Vista,47.479313,-117.589691,165,Cheney Express
4363,1704,1,0,30.0,0.0,1st @ W 800,47.478523,-117.591706,165,Cheney Express
4363,1705,1,0,30.0,0.0,Presley @ 1st,47.476762,-117.596619,165,Cheney Express
4363,1706,1,0,30.0,0.0,Presley @ Holladay,47.478599,-117.596623,165,Cheney Express
4363,1707,1,0,30.0,0.0,Presley @ Salnave,47.481604,-117.596657,165,Cheney Express
4363,1708,1,0,30.0,0.0,Salnave @ Bonnie,47.481859,-117.595036,165,Cheney Express
4363,1709,1,0,30.0,0.0,Salnave @ Hattie,47.481637,-117.591463,165,Cheney Express
4368,171,1,0,35.3,11.7,Broadway @ Nettleton,47.66457,-117.445631,21,West Broadway
4363,1710,1,0,30.0,0.0,Salnave @ Lincoln,47.481605,-117.588233,165,Cheney Express
4387,1711,1,1,35.0,23.8,Washington @ 3rd,47.482304,-117.586244,66,Cheney EWU
4388,1711,1,1,30.0,0.0,Washington @ 3rd,47.482304,-117.586244,68,Cheney Local
4387,1712,1,1,35.0,23.8,Washington @ 5th,47.483643,-117.586299,66,Cheney EWU
4388,1712,1,1,30.0,0.0,Washington @ 5th,47.483643,-117.586299,68,Cheney Local
4387,1713,1,1,35.0,23.8,Washington @ 6th,47.4852,-117.586264,66,Cheney EWU
4388,1713,1,1,30.0,0.0,Washington @ 6th,47.4852,-117.586264,68,Cheney Local
4387,1714,1,1,35.0,23.8,7th @ Washington,47.486477,-117.58595,66,Cheney EWU
4388,1714,1,0,33.2,9.1,7th @ Washington,47.486477,-117.58595,68,Cheney Local
4388,1714,1,1,30.0,0.0,7th @ Washington,47.486477,-117.58595,68,Cheney Local
4387,1715,1,1,35.0,23.8,7th @ I Street,47.487792,-117.583962,66,Cheney EWU
4388,1715,1,1,30.0,0.0,7th @ I Street,47.487792,-117.583962,68,Cheney Local
4387,1716,1,1,35.0,23.8,7th @ G Street,47.489079,-117.582396,66,Cheney EWU
4388,1716,1,1,30.0,0.0,7th @ G Street,47.489079,-117.582396,68,Cheney Local
4388,1717,1,1,30.0,0.0,6th @ G Street,47.488791,-117.580708,68,Cheney Local
4388,1718,1,1,30.0,0.0,F Street @ 6th,47.489027,-117.579904,68,Cheney Local
4387,1719,1,1,35.0,23.8,5th @ College,47.489309,-117.578573,66,Cheney EWU
4388,1719,1,1,30.0,0.0,5th @ College,47.489309,-117.578573,68,Cheney Local
4368,172,1,0,35.3,11.7,Broadway @ Cochran,47.664479,-117.448367,21,West Broadway
4387,1720,1,1,35.0,23.8,C Street @ 6th,47.491283,-117.577562,66,Cheney EWU
4388,1720,1,1,30.0,0.0,C Street @ 6th,47.491283,-117.577562,68,Cheney Local
4387,1721,1,1,35.0,23.8,C Street @ 7th,47.491961,-117.578777,66,Cheney EWU
4388,1721,1,1,30.0,0.0,C Street @ 7th,47.491961,-117.578777,68,Cheney Local
4387,1722,1,1,35.0,23.8,C Street @ Elm,47.492602,-117.579912,66,Cheney EWU
4388,1722,1,1,30.0,0.0,C Street @ Elm,47.492602,-117.579912,68,Cheney Local
4387,1724,1,0,47.5,15.4,Elm @ C Street,47.492746,-117.580849,66,Cheney EWU
4387,1724,1,1,20.0,13.7,Elm @ C Street,47.492746,-117.580849,66,Cheney EWU
4388,1724,1,0,30.2,0.9,Elm @ C Street,47.492746,-117.580849,68,Cheney Local
4387,1725,1,1,20.0,13.7,Elm @ 7th,47.492731,-117.578238,66,Cheney EWU
4387,1726,1,1,20.0,13.7,6TH STREET @ ELM,47.493259,-117.575377,66,Cheney EWU
4387,1727,1,1,20.0,13.7,6th @ Oak,47.495431,-117.575369,66,Cheney EWU
4387,1728,1,1,20.0,13.7,6th @ W 440 Cheney HS,47.497948,-117.575348,66,Cheney EWU
4387,1729,1,1,20.0,13.7,6th @ Golden Hills Drive,47.50155,-117.575316,66,Cheney EWU
4368,173,1,0,35.3,11.7,Broadway @ Lindeke,47.664515,-117.450998,21,West Broadway
4387,1730,1,1,20.0,13.7,6th @ Simpson Parkway Drive,47.504204,-117.575378,66,Cheney EWU
4387,1731,1,1,20.0,13.7,6th @ Betz,47.50661,-117.57538,66,Cheney EWU
4387,1732,1,1,20.0,13.7,Betz (turnout) @ SR 904,47.507271,-117.566479,66,Cheney EWU
4388,1732,1,1,33.2,9.1,Betz (turnout) @ SR 904,47.507271,-117.566479,68,Cheney Local
4387,1733,1,0,27.8,15.3,Betz @ Al Ogdon Way,47.507514,-117.56826,66,Cheney EWU
4388,1733,1,0,33.2,9.1,Betz @ Al Ogdon Way,47.507514,-117.56826,68,Cheney Local
4387,1734,1,0,27.8,15.3,6th @ Betz,47.50699,-117.575632,66,Cheney EWU
4387,1735,1,0,27.8,15.3,6th @ Parkway Drive,47.503596,-117.575651,66,Cheney EWU
4387,1736,1,0,27.8,15.3,6th @ Golden Hills Drive,47.50117,-117.575606,66,Cheney EWU
4387,1737,1,0,27.8,15.3,6th @ Cheney High School,47.497857,-117.575651,66,Cheney EWU
4387,1738,1,0,27.8,15.3,6th @ Oak,47.49554,-117.575699,66,Cheney EWU
4387,1739,1,0,27.8,15.3,6th @ Elm,47.493114,-117.575588,66,Cheney EWU
4368,174,1,0,35.3,11.7,Broadway @ A Street,47.664551,-117.453616,21,West Broadway
4387,1740,1,0,27.8,15.3,Elm @ 7th,47.492858,-117.577658,66,Cheney EWU
4387,1741,1,0,27.9,15.2,EWU PUB,47.492708,-117.583575,66,Cheney EWU
4387,1741,1,1,16.0,11.1,EWU PUB,47.492708,-117.583575,66,Cheney EWU
4388,1741,1,0,30.2,0.9,EWU PUB,47.492708,-117.583575,68,Cheney Local
4388,1741,1,1,30.0,0.0,EWU PUB,47.492708,-117.583575,68,Cheney Local
4387,1742,1,0,47.5,15.4,C Street @ 7th,47.491951,-117.579225,66,Cheney EWU
4388,1742,1,0,30.2,0.9,C Street @ 7th,47.491951,-117.579225,68,Cheney Local
4387,1743,1,0,47.5,15.4,C Street @ 5th,47.49103,-117.577561,66,Cheney EWU
4388,1743,1,0,30.2,0.9,C Street @ 5th,47.49103,-117.577561,68,Cheney Local
4387,1744,1,0,47.5,15.4,5th @ College,47.489472,-117.578745,66,Cheney EWU
4388,1744,1,0,30.2,0.9,5th @ College,47.489472,-117.578745,68,Cheney Local
4387,1745,1,0,47.5,15.4,F Street @ 6th,47.489316,-117.580063,66,Cheney EWU
4388,1745,1,0,30.2,0.9,F Street @ 6th,47.489316,-117.580063,68,Cheney Local
4387,1746,1,0,47.5,15.4,6th @ G Street,47.488745,-117.580985,66,Cheney EWU
4388,1746,1,0,30.2,0.9,6th @ G Street,47.488745,-117.580985,68,Cheney Local
4387,1747,1,0,47.5,15.4,G Street @ 7th,47.489278,-117.582093,66,Cheney EWU
4388,1747,1,0,30.2,0.9,G Street @ 7th,47.489278,-117.582093,68,Cheney Local
4387,1748,1,0,47.5,15.4,7th @ I Street,47.488045,-117.584016,66,Cheney EWU
4388,1748,1,0,30.2,0.9,7th @ I Street,47.488045,-117.584016,68,Cheney Local
4387,1749,1,0,47.5,15.4,7th @ Washington,47.486624,-117.586238,66,Cheney EWU
4368,175,1,0,35.3,11.7,A Street @ Mallon,47.66512,-117.453709,21,West Broadway
4387,1750,1,0,47.5,15.4,Washington @ 7th,47.485806,-117.586568,66,Cheney EWU
4387,1751,1,0,47.5,15.4,Washington @ 5th,47.483589,-117.586537,66,Cheney EWU
4387,1752,1,0,47.5,15.4,Washington @ 3rd,47.482485,-117.586495,66,Cheney EWU
4363,1753,1,1,30.0,0.0,Salnave @ Lincoln,47.481794,-117.588668,165,Cheney Express
4363,1754,1,1,30.0,0.0,Salnave @ Hattie,47.481764,-117.591635,165,Cheney Express
4363,1755,1,1,30.0,0.0,Salnave @ Bonnie,47.481986,-117.595393,165,Cheney Express
4363,1756,1,1,30.0,0.0,Presley @ Gregory,47.481549,-117.596908,165,Cheney Express
4363,1757,1,1,30.0,0.0,Presley @ Holladay,47.47887,-117.596901,165,Cheney Express
4363,1758,1,1,30.0,0.0,Presley @ 1st,47.476671,-117.596922,165,Cheney Express
4363,1759,1,1,30.0,0.0,1st @ W 800,47.478297,-117.591758,165,Cheney Express
4368,176,1,0,35.3,11.7,A Street @ Dean,47.666001,-117.453696,21,West Broadway
4363,1761,1,1,30.0,0.0,1st @ Union,47.484022,-117.579458,165,Cheney Express
4388,1761,1,0,33.2,9.1,1st @ Union,47.484022,-117.579458,68,Cheney Local
4363,1762,1,1,30.0,0.0,1st @ G Street,47.485989,-117.576891,165,Cheney Express
4388,1762,1,0,33.2,9.1,1st @ G Street,47.485989,-117.576891,68,Cheney Local
4363,1764,1,1,30.0,0.0,1st @ D Street CH. LIBRARY,47.488381,-117.573969,165,Cheney Express
4388,1764,1,0,33.2,9.1,1st @ D Street CH. LIBRARY,47.488381,-117.573969,68,Cheney Local
4363,1765,1,1,30.0,0.0,1st @ B Street,47.489342,-117.572837,165,Cheney Express
4388,1765,1,0,33.2,9.1,1st @ B Street,47.489342,-117.572837,68,Cheney Local
4363,1766,1,1,30.0,0.0,1st @ A Street,47.490139,-117.571955,165,Cheney Express
4388,1766,1,0,33.2,9.1,1st @ A Street,47.490139,-117.571955,68,Cheney Local
4363,1767,1,1,30.0,0.0,1st @ Calispel,47.491454,-117.570323,165,Cheney Express
4388,1767,1,0,33.2,9.1,1st @ Calispel,47.491454,-117.570323,68,Cheney Local
4363,1768,1,1,30.0,0.0,1st @ Pine,47.493212,-117.56823,165,Cheney Express
4388,1768,1,0,33.2,9.1,1st @ Pine,47.493212,-117.56823,68,Cheney Local
4363,1769,1,1,30.0,0.0,1st @ Mary,47.49604,-117.565084,165,Cheney Express
4388,1769,1,0,33.2,9.1,1st @ Mary,47.49604,-117.565084,68,Cheney Local
4368,177,1,0,35.3,11.7,A Street @ Boone,47.667899,-117.453697,21,West Broadway
4363,1771,1,1,30.0,0.0,1st @ Cheney Spokane Rd.,47.499325,-117.56459,165,Cheney Express
4388,1771,1,0,33.2,9.1,1st @ Cheney Spokane Rd.,47.499325,-117.56459,68,Cheney Local
4363,1772,1,1,30.0,0.0,1st @ College Hill,47.500511,-117.564592,165,Cheney Express
4388,1772,1,0,33.2,9.1,1st @ College Hill,47.500511,-117.564592,68,Cheney Local
4363,1773,1,1,30.0,0.0,1st @ Railroad Tracks,47.505254,-117.564431,165,Cheney Express
4388,1773,1,0,33.2,9.1,1st @ Railroad Tracks,47.505254,-117.564431,68,Cheney Local
4363,1774,1,0,30.0,0.0,SR 904 @ Betz,47.507679,-117.564715,165,Cheney Express
4363,1775,1,1,30.0,0.0,SR 904 @ Paradise,47.513619,-117.564395,165,Cheney Express
4387,1775,1,1,20.0,13.7,SR 904 @ Paradise,47.513619,-117.564395,66,Cheney EWU
4363,1776,1,1,30.0,0.0,SR 904 @ Jensen,47.529076,-117.568714,165,Cheney Express
4387,1776,1,1,20.0,13.7,SR 904 @ Jensen,47.529076,-117.568714,66,Cheney EWU
4363,1777,1,1,30.0,0.0,SR 904 @ Meadow Lake Rd,47.544181,-117.583364,165,Cheney Express
4387,1777,1,1,20.1,13.7,SR 904 @ Meadow Lake Rd,47.544181,-117.583364,66,Cheney EWU
4363,1778,1,1,30.0,0.0,SR 904 @ Garfield,47.549805,-117.588738,165,Cheney Express
4387,1778,1,1,20.1,13.7,SR 904 @ Garfield,47.549805,-117.588738,66,Cheney EWU
4363,1779,1,1,30.0,0.0,SR 904 @ 6th,47.556445,-117.59414,165,Cheney Express
4387,1779,1,1,20.1,13.7,SR 904 @ 6th,47.556445,-117.59414,66,Cheney EWU
4368,178,1,0,35.3,11.7,A Street @ Sinto,47.66977,-117.453684,21,West Broadway
4363,1780,1,1,30.0,0.0,SR 904 @ 1st (Four Lakes),47.562085,-117.594114,165,Cheney Express
4387,1780,1,1,20.1,13.7,SR 904 @ 1st (Four Lakes),47.562085,-117.594114,66,Cheney EWU
4391,1781,1,0,35.3,11.2,Central Pre-mix light,47.673779,-117.196406,96,Pines Sullivan
4364,1782,1,0,32.9,7.0,Plaza Zone 1,47.657882,-117.423367,173,VTC Express
4364,1782,1,1,32.2,6.9,Plaza Zone 1,47.657882,-117.423367,173,VTC Express
4369,1782,1,1,30.0,0.0,Plaza Zone 1,47.657882,-117.423367,22,NW Blvd
4374,1782,1,0,34.0,9.5,Plaza Zone 1,47.657882,-117.423367,27,Hillyard
4391,1783,1,0,35.3,11.2,Sullivan @ Fairview,47.683825,-117.196661,96,Pines Sullivan
4391,1784,1,0,35.3,11.2,Sullivan @ Euclid,47.686388,-117.196704,96,Pines Sullivan
4368,179,1,0,35.3,11.7,A Street @ Summit,47.671173,-117.453672,21,West Broadway
4391,1790,1,1,35.1,11.0,Sullivan @ Euclid Avenue,47.685646,-117.196932,96,Pines Sullivan
4391,1792,1,1,35.1,11.0,Sullivan @ Central Pre-mix light,47.675166,-117.196692,96,Pines Sullivan
4365,1794,1,0,30.0,21.7,Indiana @ 12410 E (Sounds on Wheel),47.67546,-117.237511,174,Liberty Lake Express
4377,1794,1,0,34.7,10.9,Indiana @ 12410 E (Sounds on Wheel),47.67546,-117.237511,32,Trent Montgomery
4366,1795,1,0,24.8,13.0,Wall @ 5th,47.651595,-117.422117,2,Southside Medical Shuttle
4380,1795,1,0,34.1,10.5,Wall @ 5th,47.651595,-117.422117,42,South Adams
4391,1796,1,0,35.3,11.2,Indiana @ Valley Mall (IHOP),47.676129,-117.209938,96,Pines Sullivan
4392,1796,1,1,35.1,11.2,Indiana @ Valley Mall (IHOP),47.676129,-117.209938,97,South Valley
4391,1797,1,0,35.3,11.2,Indiana @ Valley Mall,47.674461,-117.203346,96,Pines Sullivan
4391,1798,1,0,35.3,11.2,Indiana @ Valley Mall (Twigs),47.672348,-117.201621,96,Pines Sullivan
4392,1798,1,1,35.1,11.2,Indiana @ Valley Mall (Twigs),47.672348,-117.201621,97,South Valley
4392,1799,1,1,35.1,11.2,Indiana @ Staples,47.671532,-117.199841,97,South Valley
4368,180,1,0,35.3,11.7,Summit @ Lindeke,47.671,-117.451265,21,West Broadway
4391,1800,1,1,35.1,11.0,Indiana @ Valley Mall (Twigs),47.674733,-117.203358,96,Pines Sullivan
4391,1801,1,1,35.1,11.0,Indiana @ Valley Mall (Best Buy),47.672438,-117.20137,96,Pines Sullivan
4392,1801,1,0,34.0,10.5,Indiana @ Valley Mall (Best Buy),47.672438,-117.20137,97,South Valley
4383,1803,1,0,29.5,14.3,Regal @ 5000 S,47.608227,-117.368394,45,Regal
4365,1804,1,0,30.0,21.7,Mirabeau Point Park & Ride,47.67545,-117.227171,174,Liberty Lake Express
4365,1804,1,1,25.8,18.3,Mirabeau Point Park & Ride,47.67545,-117.227171,174,Liberty Lake Express
4377,1804,1,0,34.7,10.9,Mirabeau Point Park & Ride,47.67545,-117.227171,32,Trent Montgomery
4377,1804,1,1,33.8,10.4,Mirabeau Point Park & Ride,47.67545,-117.227171,32,Trent Montgomery
4391,1804,1,0,31.2,4.3,Mirabeau Point Park & Ride,47.67545,-117.227171,96,Pines Sullivan
4391,1804,1,1,38.5,13.4,Mirabeau Point Park & Ride,47.67545,-117.227171,96,Pines Sullivan
4392,1804,1,0,34.0,10.5,Mirabeau Point Park & Ride,47.67545,-117.227171,97,South Valley
4392,1804,1,1,35.1,11.2,Mirabeau Point Park & Ride,47.67545,-117.227171,97,South Valley
4365,1806,1,0,23.0,16.1,I-90 off ramp @ Liberty Lake Rd.,47.669908,-117.105786,174,Liberty Lake Express
4393,1806,1,0,35.1,10.8,I-90 off ramp @ Liberty Lake Rd.,47.669908,-117.105786,98,Liberty Lake via Sprague
4365,1807,1,0,23.0,16.1,Appleway @ Meadowood Ln,47.671709,-117.104794,174,Liberty Lake Express
4365,1808,1,0,23.0,16.1,Appleway @ Signal,47.672798,-117.101748,174,Liberty Lake Express
4365,1809,1,0,16.1,13.9,Signal @ Mission,47.671191,-117.100354,174,Liberty Lake Express
4368,181,1,0,35.3,11.7,Summit @ Cochran,47.671426,-117.44862,21,West Broadway
4365,1810,1,0,32.0,10.2,Mission @ Homestead Dr,47.671159,-117.09667,174,Liberty Lake Express
4365,1810,1,1,43.4,14.5,Mission @ Homestead Dr,47.671159,-117.09667,174,Liberty Lake Express
4365,1811,1,0,32.0,10.2,Mission @ E 23400,47.671198,-117.091649,174,Liberty Lake Express
4365,1811,1,1,43.4,14.5,Mission @ E 23400,47.671198,-117.091649,174,Liberty Lake Express
4365,1812,1,0,32.1,10.5,Molter @ Mission,47.671844,-117.089495,174,Liberty Lake Express
4365,1812,1,1,43.6,14.5,Molter @ Mission,47.671844,-117.089495,174,Liberty Lake Express
4365,1813,1,0,32.0,10.2,Molter @ Agilent,47.674852,-117.089561,174,Liberty Lake Express
4365,1813,1,1,43.4,14.2,Molter @ Agilent,47.674852,-117.089561,174,Liberty Lake Express
4365,1814,1,0,32.0,10.2,Molter @ Huntwood,47.675974,-117.089619,174,Liberty Lake Express
4365,1814,1,1,43.4,14.2,Molter @ Huntwood,47.675974,-117.089619,174,Liberty Lake Express
4365,1815,1,0,32.0,10.2,Appleway @ Molter,47.67619,-117.092685,174,Liberty Lake Express
4365,1815,1,1,43.4,14.2,Appleway @ Molter,47.67619,-117.092685,174,Liberty Lake Express
4365,1816,1,0,32.0,10.2,Appleway @ Madson,47.675185,-117.095432,174,Liberty Lake Express
4365,1816,1,1,43.4,14.2,Appleway @ Madson,47.675185,-117.095432,174,Liberty Lake Express
4365,1817,1,0,32.0,10.2,Appleway @ E 22910,47.674536,-117.097521,174,Liberty Lake Express
4365,1817,1,1,43.4,14.2,Appleway @ E 22910,47.674536,-117.097521,174,Liberty Lake Express
4365,1818,1,0,23.0,14.6,Liberty Lake Park & Ride,47.66981,-117.102358,174,Liberty Lake Express
4365,1818,1,1,20.9,11.6,Liberty Lake Park & Ride,47.66981,-117.102358,174,Liberty Lake Express
4393,1818,1,0,35.1,10.8,Liberty Lake Park & Ride,47.66981,-117.102358,98,Liberty Lake via Sprague
4393,1818,1,1,34.5,9.8,Liberty Lake Park & Ride,47.66981,-117.102358,98,Liberty Lake via Sprague
4383,1819,1,1,30.0,13.1,Regal @ 5001 S,47.608218,-117.368155,45,Regal
4368,182,1,0,35.3,11.7,Mission @ Nettleton,47.671634,-117.446042,21,West Broadway
4365,1820,1,1,43.4,14.5,Mission @ Signal,47.671017,-117.100373,174,Liberty Lake Express
4365,1821,1,1,43.4,14.2,Appleway @ Meadowood Ln,47.672458,-117.103601,174,Liberty Lake Express
4364,1822,1,0,32.9,7.0,Mission @ Mullan,47.671389,-117.281158,173,VTC Express
4364,1823,1,0,32.9,7.0,Mission @ Locust,47.671394,-117.277588,173,VTC Express
4364,1824,1,0,32.9,7.0,Mission @ Woodruff,47.671433,-117.272232,173,VTC Express
4364,1825,1,0,32.9,7.0,Mission @ Felts,47.671455,-117.26738,173,VTC Express
4364,1826,1,0,32.9,7.0,University @ Mission,47.67085,-117.261378,173,VTC Express
4364,1827,1,0,32.9,7.0,University @ Boone,47.667915,-117.261439,173,VTC Express
4364,1828,1,0,32.9,7.0,University @ Broadway,47.664401,-117.261448,173,VTC Express
4364,1829,1,0,32.9,7.0,University @ Valleyway,47.660497,-117.261458,173,VTC Express
4368,183,1,0,35.3,11.7,Mission @ Pettet,47.671644,-117.443583,21,West Broadway
4364,1830,1,0,32.9,7.0,University @ Main,47.658749,-117.26145,173,VTC Express
4364,1831,1,0,32.9,7.0,University @ Sprague,47.656207,-117.261465,173,VTC Express
4393,1831,1,1,34.0,10.0,University @ Sprague,47.656207,-117.261465,98,Liberty Lake via Sprague
4384,1832,1,0,34.2,10.6,SIA Concourse C,47.624519,-117.539491,60,Airport via Brownes Addition
4384,1832,1,1,34.2,10.6,SIA Concourse C,47.624519,-117.539491,60,Airport via Brownes Addition
4364,1833,1,1,32.7,6.8,University @ Main,47.658767,-117.261225,173,VTC Express
4364,1834,1,1,32.7,6.8,University @ Valleyway,47.660859,-117.261233,173,VTC Express
4364,1835,1,1,32.7,6.8,University @ Broadway,47.664509,-117.26121,173,VTC Express
4364,1836,1,1,32.7,6.8,University @ Boone,47.66854,-117.261146,173,VTC Express
4364,1837,1,1,32.7,6.8,Mission @ University,47.671711,-117.261826,173,VTC Express
4364,1838,1,1,32.7,6.8,Mission @ Felts,47.671636,-117.267141,173,VTC Express
4364,1839,1,1,32.7,6.8,Mission @ Woodruff,47.671596,-117.271928,173,VTC Express
4364,1840,1,1,32.7,6.8,Mission @ Locust,47.671557,-117.27731,173,VTC Express
4364,1841,1,1,32.7,6.8,Mission @ Mullan,47.67156,-117.280509,173,VTC Express
4385,1843,1,1,34.1,11.2,1st @ Lincoln,47.656473,-117.425139,61,Highway 2 via Brownes Addition
4389,1847,1,0,18.2,7.8,Sprague @ Division,47.657169,-117.411338,90,Sprague
4389,1848,1,0,18.2,7.8,Sprague @ Cowley,47.657159,-117.408363,90,Sprague
4368,185,1,0,35.3,11.7,Pettit @ Augusta WCCC,47.672784,-117.443672,21,West Broadway
4368,185,1,1,34.7,10.6,Pettit @ Augusta WCCC,47.672784,-117.443672,21,West Broadway
4389,1850,1,0,18.2,7.8,Sprague @ Sherman,47.657213,-117.403022,90,Sprague
4389,1852,1,0,18.2,7.8,Sprague @ O'Keefe Bridge Overpass,47.657075,-117.395144,90,Sprague
4389,1853,1,0,18.2,7.8,Sprague @ Ivory,47.657137,-117.392222,90,Sprague
4389,1854,1,0,18.2,7.8,Sprague @ Helena,47.657127,-117.387357,90,Sprague
4389,1855,1,0,18.2,7.8,Sprague @ Pittsburg,47.657162,-117.384396,90,Sprague
4389,1856,1,0,18.2,7.8,Sprague @ Napa,47.657143,-117.381382,90,Sprague
4389,1858,1,0,18.2,7.8,Sprague @ Altamont,47.657193,-117.375509,90,Sprague
4389,1859,1,0,18.2,7.8,Sprague @ Lacey,47.657209,-117.370969,90,Sprague
4368,186,1,1,34.7,10.6,Nora @ Pettet,47.674026,-117.444046,21,West Broadway
4389,1860,1,0,18.2,7.8,Sprague @ Haven,47.657255,-117.367171,90,Sprague
4389,1861,1,0,18.2,7.8,Sprague @ Greene,47.657208,-117.363813,90,Sprague
4389,1863,1,0,18.2,7.8,Sprague @ Freya,47.657214,-117.357983,90,Sprague
4389,1864,1,0,18.2,7.8,Sprague @ Rebecca,47.657184,-117.353621,90,Sprague
4389,1866,1,0,18.2,7.8,Sprague @ Havana,47.657198,-117.347117,90,Sprague
4389,1868,1,0,18.2,7.8,Sprague @ Custer,47.657123,-117.341816,90,Sprague
4368,187,1,1,34.7,10.6,Mission @ Nettleton,47.671843,-117.445592,21,West Broadway
4389,1870,1,0,18.2,7.8,Sprague @ Carnahan,47.657064,-117.335735,90,Sprague
4389,1872,1,0,18.2,7.8,Sprague @ Howe,47.65705,-117.32898,90,Sprague
4389,1873,1,0,18.2,7.8,Sprague @ Fancher,47.656966,-117.326191,90,Sprague
4389,1875,1,0,18.2,7.8,Appleway @ Theirman,47.656115,-117.315233,90,Sprague
4389,1877,1,0,18.2,7.8,Appleway @ Coleman,47.655866,-117.309615,90,Sprague
4389,1879,1,0,18.2,7.8,Appleway @ Park,47.655543,-117.303469,90,Sprague
4368,188,1,1,34.7,10.6,Mission @ Cochran,47.671661,-117.448435,21,West Broadway
4389,1881,1,0,18.2,7.8,Appleway @ Vista,47.654945,-117.293701,90,Sprague
4389,1882,1,0,18.2,7.8,Appleway @ Sargent,47.655366,-117.288942,90,Sprague
4389,1883,1,0,18.2,7.8,Appleway @ Dishman,47.655406,-117.284103,90,Sprague
4389,1884,1,0,18.2,7.8,Appleway @ Dishman Mica,47.655103,-117.280217,90,Sprague
4389,1885,1,0,18.2,7.8,Appleway @ Farr (Winco),47.654889,-117.27497,90,Sprague
4389,1886,1,0,18.2,7.8,Appleway @ Dartmouth,47.654682,-117.268797,90,Sprague
4389,1887,1,0,18.2,7.8,Appleway @ University,47.654877,-117.262095,90,Sprague
4393,1888,1,0,35.1,10.8,Sprague @ University,47.656936,-117.260106,98,Liberty Lake via Sprague
4393,1889,1,0,35.1,10.8,Sprague @ Gillis,47.656969,-117.257502,98,Liberty Lake via Sprague
4368,189,1,1,34.7,10.6,Summit @ Lindeke,47.67111,-117.450889,21,West Broadway
4393,1891,1,0,35.1,10.8,Sprague @ Bowdish,47.656987,-117.249967,98,Liberty Lake via Sprague
4393,1892,1,0,35.1,10.8,Sprague @ Fox,47.656973,-117.246728,98,Liberty Lake via Sprague
4393,1894,1,0,35.1,10.8,Sprague @ Pines,47.656981,-117.238955,98,Liberty Lake via Sprague
4393,1896,1,0,35.1,10.8,Sprague @ 12816 E (DMV),47.656981,-117.232557,98,Liberty Lake via Sprague
4393,1897,1,0,35.1,10.8,Sprague @ McDonald,47.657001,-117.228049,98,Liberty Lake via Sprague
4393,1899,1,0,35.1,10.8,Spargue @ Mayhew,47.656973,-117.221531,98,Liberty Lake via Sprague
4366,19,1,0,24.8,13.0,6th @ Stevens,47.650341,-117.419562,2,Southside Medical Shuttle
4368,190,1,1,34.7,10.6,Summit @ A Street,47.671398,-117.453526,21,West Broadway
4393,1900,1,0,35.1,10.8,Sprague @ Evergreen,47.656976,-117.217566,98,Liberty Lake via Sprague
4393,1902,1,0,35.1,10.8,Sprague @ Best (Group Health),47.656985,-117.211604,98,Liberty Lake via Sprague
4393,1903,1,0,35.1,10.8,Sprague @ Adams,47.657004,-117.206712,98,Liberty Lake via Sprague
4393,1904,1,0,35.1,10.8,Sprague @ Progress,47.657006,-117.202389,98,Liberty Lake via Sprague
4392,1906,1,0,34.0,10.5,Sullivan @ Sprague,47.657728,-117.196481,97,South Valley
4392,1907,1,0,34.0,10.5,Sullivan @ Valleyway,47.660552,-117.196468,97,South Valley
4392,1909,1,0,34.0,10.5,Sullivan @ Broadway,47.664885,-117.196478,97,South Valley
4368,191,1,1,34.7,10.6,A Street @ Sinto,47.669976,-117.453935,21,West Broadway
4392,1911,1,1,35.1,11.2,Sullivan @ Mission,47.666336,-117.196762,97,South Valley
4392,1912,1,1,35.1,11.2,Sullivan @ 819 N (McDonalds),47.664813,-117.196716,97,South Valley
4392,1914,1,1,35.1,11.2,Sullivan @ Valleyway,47.660918,-117.196691,97,South Valley
4392,1915,1,1,35.1,11.2,Sullivan @ Sprague,47.656874,-117.196724,97,South Valley
4393,1916,1,0,35.1,10.8,Sprague @ Sullivan,47.656896,-117.196111,98,Liberty Lake via Sprague
4393,1917,1,0,35.1,10.8,Sprague @ 15808 E (Zips),47.656916,-117.192065,98,Liberty Lake via Sprague
4393,1919,1,0,35.1,10.8,Sprague @ Conklin,47.656878,-117.185782,98,Liberty Lake via Sprague
4368,192,1,1,34.7,10.6,A Street @ Boone,47.668074,-117.453895,21,West Broadway
4393,1921,1,0,35.1,10.8,Sprague @ 16720 E,47.656875,-117.179137,98,Liberty Lake via Sprague
4368,193,1,1,34.6,10.6,A Street @ Dean,47.666217,-117.453947,21,West Broadway
4393,1932,1,1,34.5,9.8,Barker @ Boone,47.668157,-117.153839,98,Liberty Lake via Sprague
4393,1933,1,1,34.5,9.8,Barker @ Alki,47.662786,-117.153822,98,Liberty Lake via Sprague
4393,1937,1,1,34.5,9.8,Appleway @ Corbin,47.657262,-117.168327,98,Liberty Lake via Sprague
4393,1938,1,1,34.5,9.8,Appleway @ Long,47.658215,-117.164563,98,Liberty Lake via Sprague
4368,194,1,1,34.6,10.6,A Street @ Mallon,47.665311,-117.453973,21,West Broadway
4393,1941,1,1,34.5,9.8,Sprague @ Flora,47.657068,-117.175884,98,Liberty Lake via Sprague
4393,1942,1,1,34.5,9.8,Sprague @ 16713 E (Eagles),47.657074,-117.178911,98,Liberty Lake via Sprague
4393,1943,1,1,34.5,9.8,Sprague @ 16507 E,47.657043,-117.182905,98,Liberty Lake via Sprague
4393,1944,1,1,34.5,9.8,Sprague @ Conklin,47.657023,-117.185587,98,Liberty Lake via Sprague
4393,1945,1,1,34.5,9.8,Sprague @ 15915 E,47.657095,-117.190624,98,Liberty Lake via Sprague
4393,1946,1,1,34.5,9.8,Sprague @ 15800 E (Fred Meyer),47.657081,-117.19295,98,Liberty Lake via Sprague
4393,1947,1,1,34.0,10.0,Sprague @ Sullivan,47.657154,-117.197336,98,Liberty Lake via Sprague
4393,1949,1,1,34.0,10.1,Sprague @ Progress,47.657123,-117.201821,98,Liberty Lake via Sprague
4368,195,1,1,34.6,10.6,A Street @ Broadway,47.664587,-117.45396,21,West Broadway
4393,1950,1,1,34.0,10.1,Sprague @ Adams,47.657162,-117.208734,98,Liberty Lake via Sprague
4393,1951,1,1,34.0,10.1,Sprague @ Best,47.657158,-117.212066,98,Liberty Lake via Sprague
4393,1953,1,1,34.0,10.1,Sprague @ Evergreen,47.657123,-117.218821,98,Liberty Lake via Sprague
4393,1954,1,1,34.0,10.1,Sprague @ Mayhew,47.657118,-117.221346,98,Liberty Lake via Sprague
4393,1956,1,1,34.0,10.1,Sprague @ McDonald,47.657165,-117.228709,98,Liberty Lake via Sprague
4393,1957,1,1,34.0,10.1,Sprague @ 12805 E (DMV),47.657144,-117.232609,98,Liberty Lake via Sprague
4393,1959,1,1,34.0,10.0,Sprague @ Pines,47.657137,-117.240845,98,Liberty Lake via Sprague
4368,196,1,1,34.6,10.6,Broadway @ Lindeke,47.664352,-117.451316,21,West Broadway
4393,1960,1,1,34.0,10.0,Sprague @ Perrine,47.657159,-117.243713,98,Liberty Lake via Sprague
4393,1961,1,1,34.0,10.0,Sprague @ Fox,47.657181,-117.246529,98,Liberty Lake via Sprague
4393,1962,1,1,34.0,10.0,Sprague @ Bowdish,47.657133,-117.251328,98,Liberty Lake via Sprague
4393,1964,1,1,34.0,10.0,Sprague @ Moffitt,47.657139,-117.255783,98,Liberty Lake via Sprague
4389,1965,1,1,17.3,5.3,Sprague @ University,47.657107,-117.262034,90,Sprague
4389,1967,1,1,17.3,5.3,Sprague @ Felts,47.657162,-117.26739,90,Sprague
4389,1968,1,1,17.3,5.3,Sprague @ Walnut,47.657157,-117.270589,90,Sprague
4389,1969,1,1,17.3,5.3,Sprague @ Farr (Winco),47.657144,-117.275163,90,Sprague
4368,197,1,1,34.6,10.6,Broadway @ Cochran,47.664361,-117.448248,21,West Broadway
4389,1971,1,1,17.3,5.3,Sprague @ Mullan,47.657064,-117.282256,90,Sprague
4389,1973,1,1,17.3,5.3,Sprague @ 8722 E,47.657031,-117.287497,90,Sprague
4389,1974,1,1,17.3,5.3,Sprague @ Bessie,47.657008,-117.291476,90,Sprague
4389,1975,1,1,17.3,5.3,Sprague @ Vista,47.657002,-117.295085,90,Sprague
4389,1977,1,1,17.3,5.3,Sprague @ Park,47.657048,-117.304788,90,Sprague
4389,1979,1,1,17.3,5.3,Sprague @ Coleman,47.657052,-117.309481,90,Sprague
4368,198,1,1,34.6,10.6,Broadway @ Nettleton,47.66437,-117.445988,21,West Broadway
4389,1981,1,1,17.3,5.3,Sprague @ Thierman,47.657039,-117.314672,90,Sprague
4389,1983,1,1,17.3,5.3,Sprague @ Fancher,47.657193,-117.326362,90,Sprague
4389,1984,1,1,17.3,5.3,Sprague @ Howe,47.657223,-117.329786,90,Sprague
4389,1986,1,1,17.3,5.3,Sprague @ Light Entrance to Costco,47.657245,-117.334875,90,Sprague
4389,1988,1,1,17.3,5.3,Sprague @ Custer,47.657288,-117.341722,90,Sprague
4368,199,1,1,34.6,10.6,Broadway @ Cannon,47.664253,-117.441982,21,West Broadway
4389,1990,1,1,17.3,5.3,Sprague @ Havana,47.657379,-117.346601,90,Sprague
4389,1992,1,1,17.3,5.3,Sprague @ Julia,47.657383,-117.352894,90,Sprague
4389,1994,1,1,17.3,5.3,Sprague @ Freya,47.657385,-117.357124,90,Sprague
4389,1996,1,1,17.3,5.3,Sprague @ Greene,47.657407,-117.363628,90,Sprague
4389,1998,1,1,17.3,5.3,Sprague @ Lacey,47.65741,-117.370568,90,Sprague
4389,1999,1,1,17.3,5.3,Sprague @ Altamont,47.657367,-117.375103,90,Sprague
4361,2,1,0,14.7,5.3,Wall @ Riverside,47.658475,-117.421969,1,Plaza Arena Shuttle
4366,20,1,0,24.8,13.0,6th @ Washington,47.650368,-117.418015,2,Southside Medical Shuttle
4368,200,1,1,34.6,10.6,Broadway @ Oak,47.664298,-117.437764,21,West Broadway
4389,2001,1,1,17.3,5.3,Sprague @ Napa,47.657387,-117.381025,90,Sprague
4389,2002,1,1,17.3,5.3,Sprague @ Pittsburg,47.65737,-117.384052,90,Sprague
4389,2003,1,1,17.3,5.3,Sprague @ Helena,47.657335,-117.387066,90,Sprague
4389,2004,1,1,17.3,5.3,Sprague @ Ivory,47.657291,-117.39246,90,Sprague
4389,2005,1,1,17.3,5.3,Sprague @ O'Keefe Bridge Overpass,47.657274,-117.395117,90,Sprague
4389,2007,1,1,17.3,5.3,Sprague @ Sheridan,47.657412,-117.401978,90,Sprague
4389,2008,1,1,17.3,5.3,Sprague @ Sherman,47.657421,-117.403591,90,Sprague
4368,201,1,1,34.6,10.6,Broadway @ Maple,47.664262,-117.435252,21,West Broadway
4370,201,1,1,43.1,14.2,Broadway @ Maple,47.664262,-117.435252,23,Maple Ash
4389,2010,1,1,17.3,5.3,Sprague @ Cowley,47.657331,-117.408284,90,Sprague
4379,2012,1,0,34.4,10.8,Mission @ Division,47.671631,-117.41126,39,Mission
4379,2013,1,0,34.4,10.8,Mission @ Ruby,47.67156,-117.409416,39,Mission
4379,2014,1,0,34.4,10.8,Mission @ Astor,47.671596,-117.404814,39,Mission
4379,2015,1,0,34.4,10.8,Mission @ Dakota,47.671649,-117.399406,39,Mission
4379,2016,1,0,34.4,10.8,Mission @ Hamilton,47.671585,-117.39696,39,Mission
4379,2017,1,0,34.4,10.8,Mission @ Superior,47.671647,-117.393535,39,Mission
4379,2018,1,0,34.4,10.8,Mission @ Perry,47.671637,-117.3906,39,Mission
4379,2019,1,0,34.4,10.8,Mission @ Magnolia,47.67178,-117.382865,39,Mission
4368,202,1,1,34.6,10.6,Broadway @ Cedar,47.664262,-117.43274,21,West Broadway
4370,202,1,1,43.1,14.2,Broadway @ Cedar,47.664262,-117.43274,23,Maple Ash
4379,2020,1,0,34.4,10.8,Mission @ Napa,47.671743,-117.381331,39,Mission
4376,2021,1,0,34.8,10.8,Mission @ Stone,47.671805,-117.376769,29,SCC
4379,2021,1,0,34.4,10.8,Mission @ Stone,47.671805,-117.376769,39,Mission
4376,2022,1,0,34.8,10.8,Mission @ Cook,47.671803,-117.373794,29,SCC
4379,2022,1,0,34.4,10.8,Mission @ Cook,47.671803,-117.373794,39,Mission
4376,2023,1,0,34.8,10.8,Mission @ Lacey,47.671811,-117.371083,29,SCC
4379,2023,1,0,34.4,10.8,Mission @ Lacey,47.671811,-117.371083,39,Mission
4376,2024,1,0,34.8,10.8,Mission @ Regal,47.671746,-117.367606,29,SCC
4379,2024,1,0,34.4,10.8,Mission @ Regal,47.671746,-117.367606,39,Mission
4384,2029,1,1,34.2,10.6,Airport @ Spotted,47.635555,-117.517158,60,Airport via Brownes Addition
4368,203,1,1,34.6,10.6,Broadway @ Jefferson,47.664307,-117.429792,21,West Broadway
4370,203,1,1,43.1,14.2,Broadway @ Jefferson,47.664307,-117.429792,23,Maple Ash
4377,2030,1,0,34.7,10.9,4500 E Trent,47.672131,-117.342747,32,Trent Montgomery
4377,2031,1,0,34.7,10.9,Trent @ Waterworks,47.672935,-117.339136,32,Trent Montgomery
4377,2032,1,0,34.7,10.9,Trent @ Byrd,47.673485,-117.336358,32,Trent Montgomery
4377,2033,1,0,34.7,10.9,Trent @ Waldo,47.674172,-117.333673,32,Trent Montgomery
4377,2034,1,0,34.7,10.9,Trent @ Airport,47.67475,-117.331319,32,Trent Montgomery
4377,2035,1,0,34.7,10.9,Trent @ Koren,47.675318,-117.327893,32,Trent Montgomery
4377,2037,1,0,34.7,10.9,6300 E Trent,47.675122,-117.320263,32,Trent Montgomery
4377,2038,1,0,34.7,10.9,Trent @ Dollar,47.674974,-117.3175,32,Trent Montgomery
4368,204,1,1,34.6,10.6,Broadway @ Madison (Courthouse),47.664289,-117.428456,21,West Broadway
4370,204,1,1,43.1,14.2,Broadway @ Madison (Courthouse),47.664289,-117.428456,23,Maple Ash
4384,2040,1,1,34.2,10.6,Pacific @ Hemlock,47.655534,-117.444653,60,Airport via Brownes Addition
4385,2040,1,1,34.1,11.2,Pacific @ Hemlock,47.655534,-117.444653,61,Highway 2 via Brownes Addition
4385,2041,1,0,34.8,10.8,Sprague @ Airway Heights Correction,47.657378,-117.576913,61,Highway 2 via Brownes Addition
4368,205,1,1,34.6,10.6,Broadway @ Monroe,47.664298,-117.426738,21,West Broadway
4370,205,1,1,43.1,14.2,Broadway @ Monroe,47.664298,-117.426738,23,Maple Ash
4390,2055,1,1,33.6,9.5,Argonne @ Empire,47.686426,-117.282816,94,East Central Millwood
4390,2057,1,1,33.6,9.5,Argonne @ Grace,47.683682,-117.282835,94,East Central Millwood
4390,2059,1,1,33.6,9.5,Argonne @ Trent,47.681164,-117.282841,94,East Central Millwood
4384,2061,1,1,34.2,10.6,Pacific @ Cannon,47.655516,-117.441751,60,Airport via Brownes Addition
4385,2061,1,1,34.1,11.2,Pacific @ Cannon,47.655516,-117.441751,61,Highway 2 via Brownes Addition
4377,2062,1,1,33.8,10.4,Trent @ Bessie (DSHS),47.67983,-117.289416,32,Trent Montgomery
4377,2063,1,1,33.8,10.4,Trent @ Ella,47.677865,-117.299114,32,Trent Montgomery
4377,2064,1,1,33.8,10.4,Trent @ Center,47.677368,-117.301548,32,Trent Montgomery
4377,2065,1,1,33.8,10.4,Trent @ Park,47.676883,-117.303903,32,Trent Montgomery
4377,2066,1,1,33.8,10.4,Trent @ Lily,47.676143,-117.307557,32,Trent Montgomery
4377,2067,1,1,33.8,10.4,Trent @ Bradley,47.675284,-117.311821,32,Trent Montgomery
4377,2068,1,1,33.8,10.4,Trent @ Dollar,47.675119,-117.317121,32,Trent Montgomery
4377,2069,1,1,33.8,10.4,6300 E Trent,47.675266,-117.320184,32,Trent Montgomery
4361,207,1,0,14.7,5.3,Mallon @ Flour Mill,47.665256,-117.422087,1,Plaza Arena Shuttle
4377,2071,1,1,33.8,10.4,Trent @ Koren,47.67549,-117.328131,32,Trent Montgomery
4377,2072,1,1,33.8,10.4,Trent @ Airport,47.674985,-117.331133,32,Trent Montgomery
4377,2073,1,1,33.8,10.4,Trent @ Waldo,47.674407,-117.33358,32,Trent Montgomery
4377,2074,1,1,33.8,10.4,Trent @ Byrd,47.673784,-117.335908,32,Trent Montgomery
4377,2075,1,1,33.8,10.4,Trent @ Waterworks,47.673071,-117.339281,32,Trent Montgomery
4384,2077,1,1,34.2,10.6,4th @ Cannon,47.652548,-117.441551,60,Airport via Brownes Addition
4385,2077,1,1,33.0,9.9,4th @ Cannon,47.652548,-117.441551,61,Highway 2 via Brownes Addition
4385,2078,1,0,34.8,10.8,Russell @ 2nd,47.653737,-117.582334,61,Highway 2 via Brownes Addition
4385,2079,1,0,34.8,10.8,Russell @ 6th,47.650023,-117.582284,61,Highway 2 via Brownes Addition
4376,2082,1,1,35.1,10.7,Mission @ Regal,47.671909,-117.367566,29,SCC
4379,2082,1,1,34.4,10.8,Mission @ Regal,47.671909,-117.367566,39,Mission
4376,2083,1,1,35.1,10.7,Mission @ Lacey,47.671902,-117.371057,29,SCC
4379,2083,1,1,34.4,10.8,Mission @ Lacey,47.671902,-117.371057,39,Mission
4376,2084,1,1,35.1,10.7,Mission @ Cook,47.671939,-117.373794,29,SCC
4379,2084,1,1,34.4,10.8,Mission @ Cook,47.671939,-117.373794,39,Mission
4376,2085,1,1,35.1,10.7,Mission @ Stone,47.671913,-117.376557,29,SCC
4379,2085,1,1,34.4,10.8,Mission @ Stone,47.671913,-117.376557,39,Mission
4379,2086,1,1,34.4,10.8,Mission @ Crestline,47.671924,-117.380048,39,Mission
4379,2087,1,1,34.4,10.8,Mission @ Marshall,47.671871,-117.383512,39,Mission
4379,2088,1,1,34.4,10.8,Mission @ Upriver Drive,47.671818,-117.388854,39,Mission
4379,2089,1,1,34.4,10.8,Mission @ Superior,47.671783,-117.393165,39,Mission
4369,209,1,0,35.1,12.1,Boone @ Monroe,47.66813,-117.427319,22,NW Blvd
4379,2090,1,1,34.4,10.8,Mission @ Hamilton,47.671829,-117.396391,39,Mission
4379,2091,1,1,34.4,10.8,Mission @ Dakota,47.671821,-117.399393,39,Mission
4379,2092,1,1,34.4,10.8,Mission @ Astor,47.671795,-117.40455,39,Mission
4379,2093,1,1,34.4,10.8,Mission @ 203 E,47.671841,-117.407802,39,Mission
4379,2094,1,1,34.4,10.8,Mission @ Ruby,47.671877,-117.409534,39,Mission
4379,2095,1,1,34.4,10.8,Mission @ Division,47.671787,-117.411875,39,Mission
4366,2097,1,1,25.2,14.3,Division @ 5th,47.651535,-117.411313,2,Southside Medical Shuttle
4370,2099,1,0,30.0,0.0,Leave Indian Trail End of the Line,47.75681,-117.495192,23,Maple Ash
4370,2099,1,1,32.5,8.6,Leave Indian Trail End of the Line,47.75681,-117.495192,23,Maple Ash
4366,21,1,0,24.8,13.0,6th @ Bernard,47.650386,-117.416495,2,Southside Medical Shuttle
4369,210,1,1,33.5,9.3,Boone @ Spokane Transit Authority,47.667939,-117.43032,22,NW Blvd
4376,2100,1,1,30.0,0.0,Plaza Zone 10,47.65727,-117.42334,29,SCC
4380,2100,1,0,34.1,10.5,Plaza Zone 10,47.65727,-117.42334,42,South Adams
4380,2100,1,1,54.0,13.4,Plaza Zone 10,47.65727,-117.42334,42,South Adams
4381,2100,1,0,35.1,12.2,Plaza Zone 10,47.65727,-117.42334,43,Lincoln 37th
4381,2100,1,1,,,Plaza Zone 10,47.65727,-117.42334,43,Lincoln 37th
4390,2100,1,1,60.0,0.0,Plaza Zone 10,47.65727,-117.42334,94,East Central Millwood
4366,2111,1,1,25.2,14.3,Rockwood & Sacred Heart Dr,47.647438,-117.413466,2,Southside Medical Shuttle
4388,2112,1,0,33.2,9.1,Jay Street @ 6th,47.486168,-117.584246,68,Cheney Local
4388,2112,1,1,33.2,9.1,Jay Street @ 6th,47.486168,-117.584246,68,Cheney Local
4385,2113,1,0,34.8,10.8,6th @ Campbell,47.650037,-117.585478,61,Highway 2 via Brownes Addition
4385,2114,1,0,34.8,10.8,6th @ Lawson,47.650016,-117.587701,61,Highway 2 via Brownes Addition
4385,2115,1,0,34.8,10.8,Lawson @ 8th,47.648379,-117.587883,61,Highway 2 via Brownes Addition
4385,2116,1,0,34.8,10.8,Lawson @ 12th,47.644835,-117.587925,61,Highway 2 via Brownes Addition
4369,2119,1,0,35.1,12.1,Boone @ Walnut,47.668093,-117.433956,22,NW Blvd
4385,2120,1,1,33.0,9.9,Lawson @ 12th,47.644682,-117.587685,61,Highway 2 via Brownes Addition
4385,2125,1,0,25.0,15.2,Fairchild @ Front Gate,47.642708,-117.644616,61,Highway 2 via Brownes Addition
4385,2125,1,1,33.0,9.9,Fairchild @ Front Gate,47.642708,-117.644616,61,Highway 2 via Brownes Addition
4384,2126,1,0,35.6,12.9,Spruce @ 2nd,47.654607,-117.446277,60,Airport via Brownes Addition
4385,2126,1,0,34.8,10.8,Spruce @ 2nd,47.654607,-117.446277,61,Highway 2 via Brownes Addition
4378,2127,1,0,18.6,11.7,Wellesley @ Ash,47.700711,-117.436537,33,Wellesley
4384,2128,1,1,34.2,10.6,Spruce @ 2nd,47.654437,-117.446037,60,Airport via Brownes Addition
4385,2128,1,1,33.0,9.9,Spruce @ 2nd,47.654437,-117.446037,61,Highway 2 via Brownes Addition
4385,2129,1,1,33.0,9.9,Lawson @ 8th,47.648226,-117.587656,61,Highway 2 via Brownes Addition
4362,2133,1,0,23.5,7.2,Plaza Zone 6,47.65727,-117.422209,124,North Express
4363,2133,1,0,30.0,0.0,Plaza Zone 6,47.65727,-117.422209,165,Cheney Express
4363,2133,1,1,30.0,0.0,Plaza Zone 6,47.65727,-117.422209,165,Cheney Express
4365,2133,1,1,20.9,10.9,Plaza Zone 6,47.65727,-117.422209,174,Liberty Lake Express
4382,2133,1,1,60.0,,Plaza Zone 6,47.65727,-117.422209,44,29th Avenue
4386,2133,1,0,85.7,11.3,Plaza Zone 6,47.65727,-117.422209,62,Medical Lake
4387,2133,1,0,29.5,14.5,Plaza Zone 6,47.65727,-117.422209,66,Cheney EWU
4389,2133,1,1,25.0,7.3,Plaza Zone 6,47.65727,-117.422209,90,Sprague
4368,2134,1,0,35.3,11.7,Plaza Zone 9,47.65727,-117.423034,21,West Broadway
4370,2134,1,0,43.0,15.2,Plaza Zone 9,47.65727,-117.423034,23,Maple Ash
4374,2134,1,1,50.0,12.2,Plaza Zone 9,47.65727,-117.423034,27,Hillyard
4383,2134,1,1,30.0,13.1,Plaza Zone 9,47.65727,-117.423034,45,Regal
4389,2134,1,1,15.2,1.4,Plaza Zone 9,47.65727,-117.423034,90,Sprague
4376,2144,1,0,34.8,10.8,Napa @ Mission,47.671703,-117.381059,29,SCC
4379,2145,1,0,33.8,10.7,Euclid @ Market,47.686301,-117.365026,39,Mission
4376,2146,1,1,35.1,10.8,Napa @ Mission,47.671784,-117.381299,29,SCC
4374,2158,1,0,34.0,9.5,Washington @ Spokane Falls Blvd,47.660014,-117.417934,27,Hillyard
4379,2158,1,0,34.4,10.8,Washington @ Spokane Falls Blvd,47.660014,-117.417934,39,Mission
4362,2160,1,0,23.5,7.2,Hastings Park & Ride,47.769144,-117.407116,124,North Express
4362,2160,1,1,24.0,7.3,Hastings Park & Ride,47.769144,-117.407116,124,North Express
4372,2160,1,0,17.1,4.9,Hastings Park & Ride,47.769144,-117.407116,25,Division
4372,2160,1,1,17.3,7.2,Hastings Park & Ride,47.769144,-117.407116,25,Division
4373,2162,1,1,34.5,10.3,Wiscomb @ Wedgewood (Lilac Plaza),47.721008,-117.403628,26,Lidgerwood
4385,2163,1,1,33.0,9.9,Lawson @ 6th,47.649863,-117.587647,61,Highway 2 via Brownes Addition
4385,2164,1,1,33.0,9.9,6th @ Campbell,47.649875,-117.585518,61,Highway 2 via Brownes Addition
4389,2169,1,0,18.2,7.8,Plaza Zone 2,47.657846,-117.423167,90,Sprague
4370,217,1,0,43.0,15.2,Maple @ Boone,47.66793,-117.435437,23,Maple Ash
4385,2174,1,1,33.0,9.9,6th @ Solar,47.64986,-117.583135,61,Highway 2 via Brownes Addition
4369,218,1,0,35.1,12.1,Maple @ Maxwell,47.67072,-117.435398,22,NW Blvd
4370,218,1,0,43.0,15.2,Maple @ Maxwell,47.67072,-117.435398,23,Maple Ash
4385,2184,1,1,33.0,9.9,Russell @ Tower,47.652991,-117.582106,61,Highway 2 via Brownes Addition
4372,2186,1,0,18.4,8.5,Plaza Zone 4,47.657845,-117.422515,25,Division
4372,2186,1,1,18.3,8.1,Plaza Zone 4,47.657845,-117.422515,25,Division
4390,2186,1,0,30.0,0.0,Plaza Zone 4,47.657845,-117.422515,94,East Central Millwood
4390,2186,1,1,30.0,0.0,Plaza Zone 4,47.657845,-117.422515,94,East Central Millwood
4390,2188,1,0,34.6,10.6,3rd @ Magnolia,47.653548,-117.382892,94,East Central Millwood
4390,2189,1,0,34.6,10.6,5th @ Havana,47.651719,-117.347084,94,East Central Millwood
4390,2191,1,0,34.6,10.6,8th @ Park,47.649549,-117.304367,94,East Central Millwood
4390,2192,1,0,34.6,10.6,Park @ Broadway,47.664012,-117.303981,94,East Central Millwood
4390,2193,1,1,33.6,9.5,Park @ Broadway,47.663917,-117.304151,94,East Central Millwood
4378,2194,1,0,17.9,10.4,Arrive Havana @ Sprague Southbound,47.656941,-117.347127,33,Wellesley
4390,2195,1,1,33.6,9.5,5th @ Havana,47.6519,-117.347111,94,East Central Millwood
4390,2196,1,1,33.6,9.5,Park @ Sprague,47.656794,-117.304194,94,East Central Millwood
4390,2197,1,1,33.6,9.5,Magnolia @ 3rd,47.653502,-117.382575,94,East Central Millwood
4384,2199,1,0,34.2,10.6,Sunset @ Goverment Way,47.648508,-117.454288,60,Airport via Brownes Addition
4385,2199,1,0,34.8,10.8,Sunset @ Goverment Way,47.648508,-117.454288,61,Highway 2 via Brownes Addition
4366,22,1,0,24.8,13.0,Bernard @ 5th,47.651337,-117.416363,2,Southside Medical Shuttle
4369,220,1,0,35.1,12.1,Maple @ Augusta,47.672982,-117.435416,22,NW Blvd
4370,220,1,0,43.0,15.2,Maple @ Augusta,47.672982,-117.435416,23,Maple Ash
4377,2202,1,0,34.7,10.9,Trent @ Bessie,47.679397,-117.291004,32,Trent Montgomery
4376,2205,1,0,34.8,10.8,Spokane Community College Leave,47.675928,-117.361559,29,SCC
4376,2205,1,1,35.1,10.8,Spokane Community College Leave,47.675928,-117.361559,29,SCC
4377,2205,1,0,34.7,10.9,Spokane Community College Leave,47.675928,-117.361559,32,Trent Montgomery
4377,2205,1,1,33.8,10.4,Spokane Community College Leave,47.675928,-117.361559,32,Trent Montgomery
4378,2205,1,0,18.6,11.7,Spokane Community College Leave,47.675928,-117.361559,33,Wellesley
4378,2205,1,1,18.1,9.3,Spokane Community College Leave,47.675928,-117.361559,33,Wellesley
4379,2205,1,0,14.4,9.0,Spokane Community College Leave,47.675928,-117.361559,39,Mission
4379,2205,1,1,34.4,10.8,Spokane Community College Leave,47.675928,-117.361559,39,Mission
4374,2209,1,0,34.0,9.5,Francis @ Division,47.715161,-117.411069,27,Hillyard
4369,221,1,0,35.1,12.1,Maple @ Indiana,47.67485,-117.435451,22,NW Blvd
4370,221,1,0,43.0,15.2,Maple @ Indiana,47.67485,-117.435451,23,Maple Ash
4364,2210,1,0,32.9,7.0,Valley Transit Center,47.653444,-117.263566,173,VTC Express
4364,2210,1,1,32.7,6.8,Valley Transit Center,47.653444,-117.263566,173,VTC Express
4389,2210,1,0,18.2,7.8,Valley Transit Center,47.653444,-117.263566,90,Sprague
4389,2210,1,1,17.3,5.3,Valley Transit Center,47.653444,-117.263566,90,Sprague
4391,2210,1,0,35.2,11.3,Valley Transit Center,47.653444,-117.263566,96,Pines Sullivan
4391,2210,1,1,35.1,10.7,Valley Transit Center,47.653444,-117.263566,96,Pines Sullivan
4392,2210,1,0,34.0,10.5,Valley Transit Center,47.653444,-117.263566,97,South Valley
4392,2210,1,1,35.1,11.2,Valley Transit Center,47.653444,-117.263566,97,South Valley
4393,2210,1,0,35.1,10.8,Valley Transit Center,47.653444,-117.263566,98,Liberty Lake via Sprague
4393,2210,1,1,34.0,10.0,Valley Transit Center,47.653444,-117.263566,98,Liberty Lake via Sprague
4391,2212,1,0,35.3,11.2,Sullivan @ Kiernan,47.691735,-117.196767,96,Pines Sullivan
4391,2213,1,0,35.2,11.3,Pines @ Broadway,47.664445,-117.23962,96,Pines Sullivan
4391,2214,1,1,35.1,10.7,Pines @ Sprague,47.657135,-117.239909,96,Pines Sullivan
4391,2216,1,1,35.1,11.0,Sullivan @ Marietta,47.68132,-117.196841,96,Pines Sullivan
4385,2217,1,0,63.0,17.0,Fairchild @ BX 101 Spaatz Rd,47.638911,-117.65253,61,Highway 2 via Brownes Addition
4369,222,1,0,35.1,12.1,Maple @ Knox,47.676671,-117.435477,22,NW Blvd
4370,222,1,0,43.0,15.2,Maple @ Knox,47.676671,-117.435477,23,Maple Ash
4385,2222,1,0,34.8,10.8,Highway 2 @ King Street (YOKES),47.642978,-117.590768,61,Highway 2 via Brownes Addition
4363,2223,1,1,30.0,0.0,Betz @ SR 904 (Cheney),47.507122,-117.564501,165,Cheney Express
4363,2225,1,0,30.0,0.0,K Street Station,47.483059,-117.582738,165,Cheney Express
4363,2225,1,1,30.0,0.0,K Street Station,47.483059,-117.582738,165,Cheney Express
4387,2225,1,0,47.5,15.4,K Street Station,47.483059,-117.582738,66,Cheney EWU
4387,2225,1,1,35.0,23.8,K Street Station,47.483059,-117.582738,66,Cheney EWU
4388,2225,1,0,32.0,10.8,K Street Station,47.483059,-117.582738,68,Cheney Local
4388,2225,1,1,33.2,9.1,K Street Station,47.483059,-117.582738,68,Cheney Local
4365,2226,1,1,21.3,8.3,Country Vista @ Lib Lk Rd,47.668221,-117.104587,174,Liberty Lake Express
4393,2226,1,1,34.5,9.8,Country Vista @ Lib Lk Rd,47.668221,-117.104587,98,Liberty Lake via Sprague
4393,2227,1,0,35.1,10.8,Barker @ Appleway,47.660726,-117.153625,98,Liberty Lake via Sprague
4391,2228,1,0,35.2,11.3,University @ 8th,47.649258,-117.261501,96,Pines Sullivan
4392,2228,1,0,34.0,10.5,University @ 8th,47.649258,-117.261501,97,South Valley
4390,2229,1,0,34.6,10.6,Mullan @ Mission,47.671561,-117.281422,94,East Central Millwood
4369,223,1,0,35.1,12.1,Northwest Blvd @ Maple,47.679461,-117.436324,22,NW Blvd
4390,2230,1,0,34.6,10.6,Argonne @ Montgomery,47.678628,-117.282675,94,East Central Millwood
4391,2231,1,1,35.0,10.7,Pines @ Mission,47.671606,-117.239816,96,Pines Sullivan
4369,224,1,0,35.1,12.1,Northwest Blvd @ Oak,47.680412,-117.438374,22,NW Blvd
4392,2241,1,1,35.1,11.2,Evergreen @ 16th,47.64232,-117.218284,97,South Valley
4390,2243,1,0,34.6,10.6,Park @ Sprague,47.656766,-117.303995,94,East Central Millwood
4383,2246,1,1,30.0,13.1,Perry @ 17th,47.63994,-117.389901,45,Regal
4367,2247,1,1,18.8,12.1,Plaza Zone 3,47.657845,-117.422661,20,SFCC
4368,2247,1,1,30.0,0.0,Plaza Zone 3,47.657845,-117.422661,21,West Broadway
4370,2247,1,1,32.3,8.3,Plaza Zone 3,47.657845,-117.422661,23,Maple Ash
4381,2247,1,1,60.0,0.0,Plaza Zone 3,47.657845,-117.422661,43,Lincoln 37th
4382,2247,1,0,19.1,12.2,Plaza Zone 3,47.657845,-117.422661,44,29th Avenue
4383,2247,1,0,29.5,14.3,Plaza Zone 3,47.657845,-117.422661,45,Regal
4390,2247,1,0,60.0,0.0,Plaza Zone 3,47.657845,-117.422661,94,East Central Millwood
4383,2249,1,0,29.5,14.3,3rd @ Cowley,47.653463,-117.407461,45,Regal
4390,2249,1,0,34.6,10.6,3rd @ Cowley,47.653463,-117.407461,94,East Central Millwood
4369,225,1,0,35.1,12.1,Northwest Blvd @ Cannon,47.681661,-117.441085,22,NW Blvd
4378,2253,1,1,18.1,9.3,Greene @ Jackson,47.680049,-117.363591,33,Wellesley
4379,2253,1,0,33.8,10.7,Greene @ Jackson,47.680049,-117.363591,39,Mission
4390,2258,1,1,33.6,9.5,5th @ Thor,47.651808,-117.360435,94,East Central Millwood
4369,226,1,0,35.1,12.1,Northwest Blvd @ Hemlock,47.683156,-117.444338,22,NW Blvd
4367,2264,1,1,33.7,10.6,Riverside @ Hemlock (Broadmoor Apt),47.65736,-117.444691,20,SFCC
4369,2265,1,0,35.1,12.1,Plaza Zone 7,47.65727,-117.422542,22,NW Blvd
4369,2265,1,1,49.1,20.8,Plaza Zone 7,47.65727,-117.422542,22,NW Blvd
4371,2265,1,0,18.1,7.8,Plaza Zone 7,47.65727,-117.422542,24,Monroe
4373,2265,1,1,35.4,11.2,Plaza Zone 7,47.65727,-117.422542,26,Lidgerwood
4374,2265,1,1,30.0,0.0,Plaza Zone 7,47.65727,-117.422542,27,Hillyard
4375,2265,1,1,34.7,10.8,Plaza Zone 7,47.65727,-117.422542,28,Nevada
4376,2265,1,1,57.0,6.7,Plaza Zone 7,47.65727,-117.422542,29,SCC
4382,2265,1,1,60.0,0.0,Plaza Zone 7,47.65727,-117.422542,44,29th Avenue
4369,227,1,0,35.1,12.1,Northwest Blvd @ Nettleton,47.684116,-117.446521,22,NW Blvd
4383,2271,1,1,30.0,13.1,Perry @ 9th,47.647219,-117.389809,45,Regal
4361,2277,1,0,14.7,5.3,Broadway @ Monroe,47.664298,-117.426288,1,Plaza Arena Shuttle
4371,2278,1,0,18.1,7.8,Monroe @ Rowan,47.707948,-117.425794,24,Monroe
4375,2279,1,0,33.9,10.9,Whitworth College Shelter,47.750825,-117.415437,28,Nevada
4375,2279,1,1,34.7,10.8,Whitworth College Shelter,47.750825,-117.415437,28,Nevada
4369,228,1,0,35.1,12.1,Northwest Blvd @ Fairview,47.685121,-117.448716,22,NW Blvd
4375,2280,1,0,33.9,10.9,Nevada and Magnesium,47.736679,-117.39527,28,Nevada
4382,2286,1,1,34.4,10.8,Grand @ 28th,47.629097,-117.401991,44,29th Avenue
4369,229,1,0,35.1,12.1,NW Blvd @ Alberta,47.685673,-117.449946,22,NW Blvd
4383,2290,1,0,29.5,14.3,Perry @ 9th Avenue,47.647627,-117.39006,45,Regal
4369,2293,1,0,35.1,12.1,Boone @ Spokane Transit Authority,47.668102,-117.430149,22,NW Blvd
4369,2296,1,1,33.5,9.3,Independence Drive @ Assembly (VA),47.703643,-117.475656,22,NW Blvd
4366,23,1,0,24.8,13.0,5th @ McClellan,47.651418,-117.414975,2,Southside Medical Shuttle
4369,230,1,0,35.1,12.1,NW Blvd @ Euclid,47.686416,-117.451626,22,NW Blvd
4369,2300,1,1,33.5,9.3,Rowan @ Driscoll,47.70875,-117.468871,22,NW Blvd
4374,2302,1,0,34.0,9.5,Crestline @ Francis,47.714759,-117.378558,27,Hillyard
4372,2303,1,1,17.3,7.2,Division @ Queen,47.703847,-117.411367,25,Division
4361,2307,1,0,14.7,5.3,Monroe @ Bridge,47.662242,-117.426474,1,Plaza Arena Shuttle
4368,2307,1,0,35.3,11.7,Monroe @ Bridge,47.662242,-117.426474,21,West Broadway
4369,2307,1,0,35.1,12.1,Monroe @ Bridge,47.662242,-117.426474,22,NW Blvd
4370,2307,1,0,43.0,15.2,Monroe @ Bridge,47.662242,-117.426474,23,Maple Ash
4371,2307,1,0,18.1,7.8,Monroe @ Bridge,47.662242,-117.426474,24,Monroe
4368,2308,1,1,34.6,10.6,Monroe @ Ide,47.662106,-117.426711,21,West Broadway
4369,2308,1,1,33.4,9.4,Monroe @ Ide,47.662106,-117.426711,22,NW Blvd
4370,2308,1,1,43.0,14.2,Monroe @ Ide,47.662106,-117.426711,23,Maple Ash
4371,2308,1,1,18.0,7.7,Monroe @ Ide,47.662106,-117.426711,24,Monroe
4367,2309,1,1,32.2,7.5,Riverside @ Monroe,47.657986,-117.426302,20,SFCC
4368,2309,1,1,34.6,10.6,Riverside @ Monroe,47.657986,-117.426302,21,West Broadway
4369,2309,1,1,29.9,0.2,Riverside @ Monroe,47.657986,-117.426302,22,NW Blvd
4370,2309,1,1,43.0,14.2,Riverside @ Monroe,47.657986,-117.426302,23,Maple Ash
4371,2309,1,1,18.0,7.7,Riverside @ Monroe,47.657986,-117.426302,24,Monroe
4372,2309,1,1,17.3,7.2,Riverside @ Monroe,47.657986,-117.426302,25,Division
4369,231,1,0,35.1,12.1,Northwest Blvd @ Audubon,47.688037,-117.455092,22,NW Blvd
4362,2310,1,0,23.5,7.2,Monroe @ Broadway,47.664456,-117.426508,124,North Express
4369,2310,1,0,35.1,12.1,Monroe @ Broadway,47.664456,-117.426508,22,NW Blvd
4371,2310,1,0,18.1,7.8,Monroe @ Broadway,47.664456,-117.426508,24,Monroe
4369,2311,1,0,35.1,12.1,Boone @ Maple,47.668066,-117.435252,22,NW Blvd
4371,2314,1,1,18.0,7.7,Francis @ Walnut,47.715377,-117.433454,24,Monroe
4374,2314,1,1,34.0,9.6,Francis @ Walnut,47.715377,-117.433454,27,Hillyard
4369,232,1,0,35.1,12.1,Northwest Blvd @ D Street,47.689313,-117.457896,22,NW Blvd
4362,2322,1,0,23.5,7.2,Wall @ Country Homes Blvd,47.735161,-117.421847,124,North Express
4362,2325,1,0,23.5,7.2,Monroe @ Wedgewood,47.721564,-117.425343,124,North Express
4362,2326,1,1,24.0,7.3,Wall @ Country Homes Bl (CHURCH),47.734247,-117.422047,124,North Express
4369,233,1,0,35.1,12.1,Northwest Blvd @ F Street,47.690554,-117.460648,22,NW Blvd
4371,2333,1,0,18.1,7.8,Francis @ Monroe,47.715241,-117.425714,24,Monroe
4374,2333,1,0,34.0,9.5,Francis @ Monroe,47.715241,-117.425714,27,Hillyard
4392,2336,1,0,34.0,10.5,University @ 6th,47.65144,-117.261496,97,South Valley
4361,2337,1,0,14.7,5.3,Wall @ Spokane Falls Blvd,47.659806,-117.421982,1,Plaza Arena Shuttle
4361,2339,1,0,14.7,5.3,Post @ Mallon,47.664986,-117.423472,1,Plaza Arena Shuttle
4369,234,1,0,35.1,12.1,G Street @ Northwest Blvd,47.691387,-117.462103,22,NW Blvd
4371,2341,1,0,18.1,7.8,Monroe @ Boone,47.667985,-117.426565,24,Monroe
4371,2342,1,0,18.1,7.8,Monroe @ Columbia,47.710602,-117.425807,24,Monroe
4371,2343,1,0,18.1,7.8,Monroe @ Dalke,47.713275,-117.425291,24,Monroe
4392,2344,1,0,34.0,10.5,University @ 10th,47.647673,-117.261479,97,South Valley
4392,2346,1,0,34.0,10.5,University @ 15th,47.643307,-117.26153,97,South Valley
4392,2347,1,0,34.0,10.5,University @ 16th,47.642338,-117.261533,97,South Valley
4392,2348,1,0,34.0,10.5,University @ 18th,47.640636,-117.261537,97,South Valley
4392,2349,1,0,34.0,10.5,University @ 20th,47.63887,-117.261542,97,South Valley
4369,235,1,0,35.1,12.1,G Street @ Garland,47.693506,-117.462236,22,NW Blvd
4392,2350,1,0,34.0,10.5,Universtiy @ 22nd,47.637077,-117.261541,97,South Valley
4392,2351,1,0,34.0,10.5,University @ 24th,47.635193,-117.261538,97,South Valley
4392,2352,1,0,34.0,10.5,University @ 26th,47.633364,-117.261556,97,South Valley
4392,2353,1,0,34.0,10.5,University @ 28th,47.631735,-117.261531,97,South Valley
4392,2354,1,0,34.0,10.5,University @ 30th,47.629882,-117.261524,97,South Valley
4392,2355,1,0,34.0,10.5,32nd @ Glenn,47.627854,-117.258558,97,South Valley
4392,2356,1,0,34.0,10.5,32nd @ Pierce,47.62785,-117.256156,97,South Valley
4392,2357,1,0,34.0,10.5,32nd @ Skipworth,47.627828,-117.253388,97,South Valley
4392,2358,1,0,34.0,10.5,Bowdish @ 32nd,47.627869,-117.250754,97,South Valley
4369,236,1,0,35.1,12.1,G Street @ LaCrosse,47.695309,-117.46229,22,NW Blvd
4369,237,1,0,35.1,12.1,G Street @ Longfellow,47.697093,-117.46233,22,NW Blvd
4392,2370,1,0,34.0,10.5,32nd @ Pines (U HIGH),47.627806,-117.239684,97,South Valley
4392,2371,1,0,34.0,10.5,32nd @Collins,47.627805,-117.235606,97,South Valley
4392,2372,1,0,34.0,10.5,32nd @ Woodlawn,47.627808,-117.231708,97,South Valley
4392,2373,1,0,34.0,10.5,32nd @ Clinton,47.627811,-117.227599,97,South Valley
4392,2374,1,0,34.0,10.5,32nd @ Clinton Mid,47.627808,-117.225643,97,South Valley
4392,2375,1,0,34.0,10.5,32nd @ Mamer,47.627784,-117.221164,97,South Valley
4392,2376,1,0,34.0,10.5,Evergreen @ 32nd,47.627974,-117.218076,97,South Valley
4392,2377,1,0,34.0,10.5,Evergreen @ 31st,47.629047,-117.218081,97,South Valley
4392,2378,1,0,34.0,10.5,Evergreen @ 30th,47.630351,-117.218076,97,South Valley
4392,2379,1,0,34.0,10.5,Evergreen @ 28th,47.631284,-117.218076,97,South Valley
4369,238,1,0,35.1,12.1,G Street @ Princeton,47.698878,-117.462305,22,NW Blvd
4392,2380,1,0,34.0,10.5,Evergreen @ 26th,47.633352,-117.218067,97,South Valley
4392,2381,1,0,34.0,10.5,Evergreen @ 24th,47.63507,-117.218074,97,South Valley
4392,2382,1,0,34.0,10.5,Evergreen @ 21st,47.636437,-117.218068,97,South Valley
4392,2383,1,0,34.0,10.5,Evergreen @ 20th,47.638695,-117.218059,97,South Valley
4392,2384,1,0,34.0,10.5,Evergreen @ 18th,47.640574,-117.218051,97,South Valley
4392,2385,1,0,34.0,10.5,16th @ 14210 E,47.642314,-117.212367,97,South Valley
4392,2386,1,0,34.0,10.5,16th @ Airpark,47.642316,-117.211403,97,South Valley
4392,2387,1,0,34.0,10.5,16th @ Adams,47.642317,-117.20757,97,South Valley
4392,2388,1,0,34.0,10.5,16th @ Burns,47.642327,-117.203353,97,South Valley
4392,2389,1,0,34.0,10.5,16th @ Progress,47.642324,-117.202034,97,South Valley
4369,239,1,0,35.1,12.1,G Street @ Wellesley,47.700671,-117.462305,22,NW Blvd
4392,2390,1,0,34.0,10.5,16th @ Newer,47.642327,-117.1988,97,South Valley
4392,2391,1,0,34.0,10.5,Sullivan @ 16th,47.642574,-117.196456,97,South Valley
4392,2392,1,0,34.0,10.5,Sullivan @ 14th,47.643743,-117.196451,97,South Valley
4392,2394,1,0,34.0,10.5,Sullivan @ 11th,47.646774,-117.196477,97,South Valley
4392,2395,1,0,34.0,10.5,Sullivan @ 9th,47.648356,-117.196512,97,South Valley
4392,2396,1,0,34.0,10.5,Sullivan @ Century Ct,47.650747,-117.196503,97,South Valley
4392,2397,1,0,34.0,10.5,Sullivan @ 4th,47.653464,-117.196493,97,South Valley
4392,2398,1,0,34.0,10.5,Sullivan @ 205 S,47.654424,-117.19649,97,South Valley
4391,2399,1,1,35.1,11.0,Indiana @ Hanson Cntr Signal Light,47.671473,-117.198147,96,Pines Sullivan
4392,2399,1,0,34.0,10.5,Indiana @ Hanson Cntr Signal Light,47.671473,-117.198147,97,South Valley
4366,24,1,0,24.8,13.0,5th @ Browne,47.651427,-117.413468,2,Southside Medical Shuttle
4369,240,1,0,35.1,12.1,Wellesley @ I Street,47.700861,-117.465216,22,NW Blvd
4391,2401,1,1,35.1,11.0,Indiana @ Valley Mall (Black Angus),47.676379,-117.208489,96,Pines Sullivan
4392,2401,1,0,34.0,10.5,Indiana @ Valley Mall (Black Angus),47.676379,-117.208489,97,South Valley
4392,2406,1,1,35.1,11.2,Sullivan @ 2nd,47.654608,-117.196735,97,South Valley
4392,2407,1,1,35.1,11.2,Sullivan @ 4th,47.653457,-117.19674,97,South Valley
4392,2408,1,1,35.1,11.2,Sullivan @ Century Court,47.65082,-117.196741,97,South Valley
4392,2409,1,1,35.1,11.2,Sullivan @ 8th,47.649814,-117.196756,97,South Valley
4369,241,1,0,35.1,12.1,Wellesley @ Warren,47.70086,-117.468139,22,NW Blvd
4392,2410,1,1,35.1,11.2,Sullivan @ 9th,47.648184,-117.196737,97,South Valley
4392,2411,1,1,35.1,11.2,Sullivan @ 12th,47.646172,-117.196719,97,South Valley
4392,2412,1,1,35.1,11.2,Sullivan @ 14th,47.643905,-117.19669,97,South Valley
4392,2413,1,1,35.1,11.2,Sullivan @ 16th,47.642547,-117.196696,97,South Valley
4392,2414,1,1,35.1,11.2,16th @ Newer,47.642488,-117.198533,97,South Valley
4392,2415,1,1,35.1,11.2,16th @ Progress,47.642486,-117.201807,97,South Valley
4392,2416,1,1,35.1,11.2,16th @ Burns,47.642481,-117.203577,97,South Valley
4392,2417,1,1,35.1,11.2,16th @ Adams,47.642487,-117.207263,97,South Valley
4392,2418,1,1,35.1,11.2,16th @ Air Park,47.642476,-117.211455,97,South Valley
4392,2419,1,1,35.1,11.2,16th @ E. 14204,47.64248,-117.214362,97,South Valley
4369,242,1,0,35.1,12.1,Wellesley @ Rustle,47.700887,-117.471605,22,NW Blvd
4392,2420,1,1,35.1,11.2,16th @ Bolivar,47.642484,-117.216517,97,South Valley
4392,2421,1,1,35.1,11.2,Evergreen @ 18th,47.640683,-117.21829,97,South Valley
4392,2422,1,1,35.1,11.2,Evergreen @ 20th,47.638884,-117.218298,97,South Valley
4392,2423,1,1,35.1,11.2,Evergreen @ 23rd,47.636437,-117.218307,97,South Valley
4392,2424,1,1,35.1,11.2,Evergreen @ 24th,47.63526,-117.218312,97,South Valley
4392,2425,1,1,35.1,11.2,Evergreen @ 26th,47.633439,-117.218304,97,South Valley
4392,2426,1,1,35.1,11.2,Evergreen @ 27th,47.632452,-117.218307,97,South Valley
4392,2427,1,1,35.1,11.2,Evergreen @ 30th,47.630304,-117.218319,97,South Valley
4392,2428,1,1,35.1,11.2,Evergreen @ 32nd,47.627942,-117.218283,97,South Valley
4392,2429,1,1,35.1,11.2,32nd @ Mamer,47.627947,-117.221256,97,South Valley
4369,243,1,0,35.1,12.1,Wellesley @ Assembly,47.700904,-117.474952,22,NW Blvd
4392,2430,1,1,35.1,11.2,32nd @ SR 27,47.627969,-117.223727,97,South Valley
4392,2431,1,1,35.1,11.2,32nd @ Clinton,47.627964,-117.22751,97,South Valley
4392,2432,1,1,35.1,11.2,32nd @ Woodlawn,47.627972,-117.231714,97,South Valley
4392,2433,1,1,35.1,11.2,32nd @ Collins,47.627959,-117.235751,97,South Valley
4392,2434,1,1,35.1,11.2,Pines @ 32nd (U HIGH),47.628001,-117.239689,97,South Valley
4371,2435,1,1,18.0,7.7,Monroe @ Dalke,47.713445,-117.425463,24,Monroe
4371,2436,1,1,18.0,7.7,Monroe @ Columbia,47.710747,-117.425979,24,Monroe
4362,2439,1,1,24.0,7.3,Monroe @ Broadway,47.664461,-117.426685,124,North Express
4369,2439,1,1,33.4,9.4,Monroe @ Broadway,47.664461,-117.426685,22,NW Blvd
4371,2439,1,1,18.0,7.7,Monroe @ Broadway,47.664461,-117.426685,24,Monroe
4392,2452,1,1,35.1,11.2,32nd @ Skipworth,47.627989,-117.253108,97,South Valley
4392,2453,1,1,35.1,11.2,32nd @ Pierce,47.628003,-117.255876,97,South Valley
4392,2454,1,1,35.1,11.2,32nd @ Glenn,47.628016,-117.25855,97,South Valley
4392,2455,1,1,35.1,11.2,32nd @ University,47.628029,-117.261266,97,South Valley
4392,2456,1,1,35.1,11.2,University @ 30th,47.629877,-117.261288,97,South Valley
4392,2457,1,1,35.1,11.2,Universtiy @ 28th,47.631652,-117.261297,97,South Valley
4392,2458,1,1,35.1,11.2,University @ 26th,47.63329,-117.261313,97,South Valley
4392,2459,1,1,35.1,11.2,University @ 24th,47.635098,-117.261294,97,South Valley
4392,2460,1,1,35.1,11.2,University @ 22nd,47.636904,-117.261296,97,South Valley
4392,2461,1,1,35.1,11.2,University @ 20th,47.638723,-117.261296,97,South Valley
4392,2462,1,1,35.1,11.2,University @ 18th,47.640557,-117.261303,97,South Valley
4391,2463,1,1,35.1,10.7,University @ 16th,47.642537,-117.261294,96,Pines Sullivan
4392,2463,1,1,35.1,11.2,University @ 16th,47.642537,-117.261294,97,South Valley
4391,2464,1,1,35.1,10.7,University @ 13th,47.645463,-117.261287,96,Pines Sullivan
4392,2464,1,1,35.1,11.2,University @ 13th,47.645463,-117.261287,97,South Valley
4391,2465,1,1,35.1,10.7,University @ 10th,47.64779,-117.261267,96,Pines Sullivan
4392,2465,1,1,35.1,11.2,University @ 10th,47.64779,-117.261267,97,South Valley
4391,2466,1,1,35.1,10.7,University @ 9th,47.648904,-117.261264,96,Pines Sullivan
4392,2466,1,1,35.1,11.2,University @ 9th,47.648904,-117.261264,97,South Valley
4391,2467,1,1,35.1,10.7,University @ 7th,47.650996,-117.261259,96,Pines Sullivan
4392,2467,1,1,35.1,11.2,University @ 7th,47.650996,-117.261259,97,South Valley
4392,2470,1,0,34.0,10.5,32nd @ University,47.627893,-117.261293,97,South Valley
4372,2471,1,0,18.4,8.4,Division @ Longfellow,47.697713,-117.411103,25,Division
4372,2474,1,1,17.3,7.2,Spokane Falls Blvd @ Washington,47.660177,-117.417828,25,Division
4372,2475,1,1,17.3,7.2,Spokane Falls Blvd @ Wall,47.660249,-117.421992,25,Division
4391,2478,1,0,35.2,11.3,University @ 10th,47.64722,-117.261427,96,Pines Sullivan
4391,2479,1,0,35.2,11.3,University @ 13th,47.645441,-117.261527,96,Pines Sullivan
4392,2479,1,0,34.0,10.5,University @ 13th,47.645441,-117.261527,97,South Valley
4369,248,1,1,33.5,9.3,Wellesley @ Gustavus,47.70075,-117.474383,22,NW Blvd
4391,2480,1,0,35.2,11.3,16th @ Pierce,47.64234,-117.255916,96,Pines Sullivan
4391,2481,1,0,35.2,11.3,16th @ Bowdish,47.642343,-117.250536,96,Pines Sullivan
4391,2482,1,0,35.2,11.3,16th @ Union,47.642353,-117.245118,96,Pines Sullivan
4391,2483,1,0,35.2,11.3,16th @ Pines,47.642356,-117.240056,96,Pines Sullivan
4391,2485,1,0,35.2,11.3,Pines @ 12th,47.646304,-117.23974,96,Pines Sullivan
4391,2486,1,0,35.2,11.3,Pines @ 10th,47.647907,-117.239748,96,Pines Sullivan
4391,2487,1,0,35.2,11.3,Pines @ 8th,47.649981,-117.239742,96,Pines Sullivan
4391,2488,1,0,35.2,11.3,Pines @ 6th,47.651629,-117.239724,96,Pines Sullivan
4391,2489,1,0,35.2,11.3,Pines @ 4th,47.653522,-117.239705,96,Pines Sullivan
