stop_id,service_id,direction_id,numroutes,TripsServingStop,stop_name,stop_lat,stop_lon
10117,A.334,1,2,128,Goose Hollow/SW Jefferson St MAX Station,45.518236,-122.694089
10118,A.334,0,2,128,Goose Hollow/SW Jefferson St MAX Station,45.517989,-122.693544
10120,A.334,0,2,128,Washington Park MAX Station,45.510653,-122.71634
10121,A.334,1,2,128,Washington Park MAX Station,45.510661,-122.717244
10572,A.334,0,1,61,Parkrose/Sumner TC MAX Station,45.559201,-122.56538
10573,A.334,1,1,61,Parkrose/Sumner TC MAX Station,45.558829,-122.565861
10574,A.334,0,1,61,Cascades MAX Station,45.57239,-122.55829
10575,A.334,1,1,61,Cascades MAX Station,45.572075,-122.5577
10576,A.334,0,1,61,Mt Hood Ave MAX Station,45.577359,-122.567151
10577,A.334,1,1,61,Mt Hood Ave MAX Station,45.576861,-122.567141
10579,A.334,0,1,61,Portland Int'l Airport MAX Station,45.587584,-122.5931
10579,A.334,1,1,61,Portland Int'l Airport MAX Station,45.587584,-122.5931
11498,A.334,0,1,73,Expo Center MAX Station,45.605354,-122.685706
11498,A.334,1,1,73,Expo Center MAX Station,45.605354,-122.685706
11499,A.334,1,1,73,Delta Park/Vanport MAX Station,45.596125,-122.685683
11500,A.334,1,1,73,Kenton/N Denver Ave MAX Station,45.5837,-122.685662
11501,A.334,1,1,73,N Lombard TC MAX Station,45.5764,-122.68216
11502,A.334,1,1,73,Rosa Parks MAX Station,45.56914,-122.682223
11503,A.334,1,1,73,N Killingsworth St MAX Station,45.562026,-122.682312
11504,A.334,1,1,73,N Prescott St MAX Station,45.555183,-122.68232
11505,A.334,1,1,73,Overlook Park MAX Station,45.548939,-122.681069
11506,A.334,1,1,73,Albina/Mississippi MAX Station,45.539408,-122.675231
11507,A.334,1,2,74,Interstate/Rose Quarter MAX Station,45.530019,-122.66758
11508,A.334,0,2,74,Interstate/Rose Quarter MAX Station,45.530354,-122.668085
11509,A.334,0,1,73,Albina/Mississippi MAX Station,45.539702,-122.675763
11510,A.334,0,1,73,Overlook Park MAX Station,45.548478,-122.680953
11511,A.334,0,1,73,N Prescott St MAX Station,45.55524,-122.682284
11512,A.334,0,1,73,N Killingsworth St MAX Station,45.56331,-122.682175
11513,A.334,0,1,73,Rosa Parks MAX Station,45.570606,-122.682083
11514,A.334,0,1,73,N Lombard TC MAX Station,45.577827,-122.682035
11515,A.334,0,1,73,Kenton/N Denver Ave MAX Station,45.58402,-122.686188
11516,A.334,0,1,73,Delta Park/Vanport MAX Station,45.59612,-122.685563
13123,A.334,0,2,130,SW 6th & Madison St MAX Station,45.515633,-122.680381
13124,A.334,0,1,69,SE Main St MAX Station,45.513986,-122.564467
13125,A.334,0,1,69,SE Division St MAX Station,45.503123,-122.566663
13126,A.334,0,1,69,SE Powell Blvd MAX Station,45.495503,-122.56617
13127,A.334,0,1,69,SE Holgate Blvd MAX Station,45.490868,-122.566315
13128,A.334,0,1,69,Lents/SE Foster Rd MAX Station,45.480188,-122.566871
13129,A.334,0,1,69,SE Flavel St MAX Station,45.467602,-122.566761
13130,A.334,0,1,69,SE Fuller Rd MAX Station,45.453138,-122.573578
13132,A.334,0,1,69,Clackamas Town Center TC MAX Station,45.435721,-122.567769
13132,A.334,1,1,69,Clackamas Town Center TC MAX Station,45.435721,-122.567769
13133,A.334,1,1,69,SE Fuller Rd MAX Station,45.453637,-122.573656
13134,A.334,1,1,69,SE Flavel St MAX Station,45.468068,-122.566542
13135,A.334,1,1,69,Lents/SE Foster Rd MAX Station,45.480686,-122.566745
13136,A.334,1,1,69,SE Holgate Blvd MAX Station,45.491369,-122.566229
13137,A.334,1,1,69,SE Powell Blvd MAX Station,45.495991,-122.566198
13138,A.334,1,1,69,SE Division St MAX Station,45.503608,-122.566584
13139,A.334,1,1,69,SE Main St MAX Station,45.514525,-122.564413
13449,A.334,1,1,59,Civic Drive MAX Station,45.508298,-122.441819
13450,A.334,0,1,70,Civic Drive MAX Station,45.507972,-122.441302
7601,A.334,1,2,130,Union Station/NW 5th & Glisan St MAX Stn,45.526732,-122.675604
7608,A.334,1,2,130,City Hall/SW 5th & Jefferson St MAX Stn,45.514914,-122.679742
7618,A.334,1,2,130,PSU/SW 5th & Mill St MAX Station,45.511645,-122.681551
7627,A.334,1,2,130,SW 5th & Oak St MAX Station,45.521573,-122.676178
7646,A.334,1,2,130,Pioneer Place/SW 5th Ave MAX Station,45.518255,-122.677934
7763,A.334,0,2,130,Union Station/NW 6th & Hoyt St MAX Stn,45.527222,-122.676517
7774,A.334,0,2,130,PSU/SW 6th & Montgomery MAX Station,45.511583,-122.682578
7777,A.334,0,2,130,Pioneer Courthouse/SW 6th Ave MAX Stn,45.518964,-122.678558
7787,A.334,0,2,130,SW 6th & Pine St MAX Station,45.522323,-122.676756
8333,A.334,0,2,128,Library/SW 9th Ave MAX Station,45.51916,-122.68162
8334,A.334,0,2,128,Pioneer Square South MAX Station,45.518496,-122.679145
8335,A.334,0,2,128,Mall/SW 4th Ave MAX Station,45.517942,-122.677088
8336,A.334,0,2,128,Yamhill District MAX Station,45.517153,-122.674172
8337,A.334,0,2,128,Oak/SW 1st Ave MAX Station,45.52028,-122.672146
8338,A.334,0,2,128,Skidmore Fountain MAX Station,45.523095,-122.671256
8339,A.334,0,2,128,Old Town/Chinatown MAX Station,45.52518,-122.671353
8340,A.334,0,3,195,Rose Quarter TC MAX Station,45.530057,-122.664917
8340,A.334,1,1,7,Rose Quarter TC MAX Station,45.530057,-122.664917
8341,A.334,0,3,195,Convention Center MAX Station,45.530052,-122.661908
8342,A.334,0,3,195,NE 7th Ave MAX Station,45.530055,-122.65774
8343,A.334,0,3,195,Lloyd Center/NE 11th Ave MAX Station,45.530067,-122.653638
8344,A.334,0,3,195,Hollywood/NE 42nd Ave TC MAX Station,45.532772,-122.620708
8345,A.334,0,3,195,NE 60th Ave MAX Station,45.528764,-122.602703
8346,A.334,0,3,195,NE 82nd Ave MAX Station,45.533221,-122.577794
8347,A.334,0,3,211,Gateway/NE 99th Ave TC MAX Station,45.530269,-122.563578
8347,A.334,1,2,16,Gateway/NE 99th Ave TC MAX Station,45.530269,-122.563578
8348,A.334,0,1,79,E 102nd Ave MAX Station,45.52258,-122.557314
8349,A.334,0,1,79,E 122nd Ave MAX Station,45.522454,-122.536784
8350,A.334,0,1,79,E 148th Ave MAX Station,45.522237,-122.509687
8351,A.334,0,1,79,E 162nd Ave MAX Station,45.522115,-122.495488
8352,A.334,0,1,79,E 172nd Ave MAX Station,45.522048,-122.485173
8353,A.334,0,1,79,E 181st Ave MAX Station,45.521932,-122.476143
8354,A.334,0,1,79,Rockwood/E 188th Ave MAX Station,45.520398,-122.470537
8355,A.334,0,1,79,Ruby Junction/E 197th Ave MAX Station,45.515577,-122.459174
8356,A.334,0,1,70,Gresham City Hall MAX Station,45.505687,-122.435826
8357,A.334,0,1,70,Gresham Central TC MAX Station,45.502473,-122.426643
8359,A.334,0,1,70,Cleveland Ave MAX Station,45.501772,-122.41845
8359,A.334,1,1,59,Cleveland Ave MAX Station,45.501772,-122.41845
8360,A.334,1,1,59,Gresham Central TC MAX Station,45.502705,-122.427348
8361,A.334,1,1,59,Gresham City Hall MAX Station,45.505981,-122.436285
8362,A.334,1,1,79,Ruby Junction/E 197th Ave MAX Station,45.516502,-122.461119
8363,A.334,1,1,79,Rockwood/E 188th Ave MAX Station,45.520723,-122.471093
8364,A.334,1,1,79,E 181st Ave MAX Station,45.522065,-122.478074
8365,A.334,1,1,79,E 172nd Ave MAX Station,45.52214,-122.48714
8366,A.334,1,1,79,E 162nd Ave MAX Station,45.522223,-122.497437
8367,A.334,1,1,79,E 148th Ave MAX Station,45.522344,-122.511614
8368,A.334,1,1,79,E 122nd Ave MAX Station,45.522548,-122.538743
8369,A.334,1,1,79,E 102nd Ave MAX Station,45.522691,-122.559244
8370,A.334,1,3,230,Gateway/NE 99th Ave TC MAX Station,45.530839,-122.563627
8371,A.334,1,3,195,NE 82nd Ave MAX Station,45.533478,-122.578437
8372,A.334,1,3,195,NE 60th Ave MAX Station,45.528491,-122.603342
8373,A.334,1,3,195,Hollywood/NE 42nd Ave TC MAX Station,45.532957,-122.621367
8374,A.334,1,3,195,Lloyd Center/NE 11th Ave MAX Station,45.530146,-122.654335
8375,A.334,1,3,195,NE 7th Ave MAX Station,45.53015,-122.658277
8376,A.334,1,3,195,Convention Center MAX Station,45.530138,-122.66254
8377,A.334,0,1,4,Rose Quarter TC MAX Station,45.530233,-122.665534
8377,A.334,1,3,195,Rose Quarter TC MAX Station,45.530233,-122.665534
8378,A.334,1,2,128,Old Town/Chinatown MAX Station,45.524695,-122.671467
8379,A.334,1,2,128,Skidmore Fountain MAX Station,45.522873,-122.67139
8380,A.334,1,2,128,Oak/ SW 1st Ave MAX Station,45.51986,-122.672523
8381,A.334,1,2,128,Morrison/SW 3rd Ave MAX Station,45.518181,-122.675386
8382,A.334,1,2,128,Mall/SW 5th Ave MAX Station,45.518701,-122.677402
8383,A.334,1,2,128,Pioneer Square North MAX Station,45.519253,-122.679475
8384,A.334,1,2,128,Galleria/SW 10th Ave MAX Station,45.51991,-122.681919
9299,A.334,0,2,130,NW 6th & Davis St MAX Station,45.524405,-122.676429
9303,A.334,1,2,130,NW 5th & Couch St MAX Station,45.523885,-122.675498
9624,A.334,1,2,128,Sunset TC MAX Station,45.510383,-122.781299
9757,A.334,1,2,128,JELD-WEN Field MAX Station,45.521833,-122.689816
9758,A.334,0,2,128,JELD-WEN Field MAX Station,45.521321,-122.689886
9759,A.334,0,2,128,Kings Hill/SW Salmon St MAX Station,45.520592,-122.691005
9818,A.334,1,1,83,Beaverton TC MAX Station,45.49133,-122.801723
9819,A.334,1,1,83,Beaverton Creek MAX Station,45.500584,-122.833325
9820,A.334,1,2,128,Kings Hill/SW Salmon St MAX Station,45.520207,-122.69132
9821,A.334,0,2,132,Beaverton TC MAX Station,45.491696,-122.8012
9821,A.334,1,1,45,Beaverton TC MAX Station,45.491696,-122.8012
9822,A.334,0,2,83,Beaverton Creek MAX Station,45.500249,-122.832785
9823,A.334,1,1,83,Beaverton Central MAX Station,45.490425,-122.807441
9824,A.334,0,2,83,Beaverton Central MAX Station,45.490501,-122.806766
9825,A.334,1,1,83,Millikan Way MAX Station,45.495421,-122.821806
9826,A.334,0,2,83,Millikan Way MAX Station,45.495102,-122.821238
9827,A.334,1,1,83,Merlo Rd/SW 158th Ave MAX Station,45.505399,-122.842424
9828,A.334,0,2,83,Merlo Rd/SW 158th Ave MAX Station,45.505058,-122.841872
9829,A.334,1,1,91,Elmonica/SW 170th Ave MAX Station,45.510134,-122.851732
9830,A.334,0,2,69,Elmonica/SW 170th Ave MAX Station,45.509777,-122.851193
9831,A.334,0,1,68,Willow Creek/SW 185th Ave TC MAX Station,45.517117,-122.869874
9832,A.334,1,1,89,Willow Creek/SW 185th Ave TC MAX Station,45.517375,-122.870518
9833,A.334,1,1,79,Quatama/NW 205th Ave MAX Station,45.523319,-122.889131
9834,A.334,0,1,68,Quatama/NW 205th Ave MAX Station,45.523082,-122.888511
9835,A.334,0,1,68,Orenco/NW 231st Ave MAX Station,45.530257,-122.915467
9836,A.334,1,1,79,Orenco/NW 231st Ave MAX Station,45.530298,-122.916198
9837,A.334,1,1,79,Fair Complex/Hillsboro Airport MAX Stn,45.526924,-122.946499
9838,A.334,0,1,68,Fair Complex/Hillsboro Airport MAX Stn,45.527041,-122.945808
9839,A.334,0,1,68,Hawthorn Farm MAX Station,45.530012,-122.93038
9840,A.334,1,1,79,Hawthorn Farm MAX Station,45.529921,-122.93112
9841,A.334,0,1,68,Washington/SE 12th Ave MAX Station,45.521102,-122.969152
9842,A.334,1,1,79,Washington/SE 12th Ave MAX Station,45.521231,-122.969867
9843,A.334,0,1,68,Tuality Hospital/SE 8th Ave MAX Station,45.521288,-122.978017
9844,A.334,1,1,79,Tuality Hospital/SE 8th Ave MAX Station,45.521315,-122.978728
9845,A.334,1,1,79,Hillsboro Central/SE 3rd TC MAX Station,45.521385,-122.985596
9846,A.334,0,1,68,Hillsboro Central/SE 3rd TC MAX Station,45.521357,-122.984926
9848,A.334,0,1,68,Hatfield Government Center MAX Station,45.522204,-122.991022
9848,A.334,1,1,79,Hatfield Government Center MAX Station,45.522204,-122.991022
9969,A.334,0,2,128,Sunset TC MAX Station,45.510098,-122.780757
10117,A.335,1,2,128,Goose Hollow/SW Jefferson St MAX Station,45.518236,-122.694089
10118,A.335,0,2,128,Goose Hollow/SW Jefferson St MAX Station,45.517989,-122.693544
10120,A.335,0,2,128,Washington Park MAX Station,45.510653,-122.71634
10121,A.335,1,2,128,Washington Park MAX Station,45.510661,-122.717244
10572,A.335,0,1,61,Parkrose/Sumner TC MAX Station,45.559201,-122.56538
10573,A.335,1,1,61,Parkrose/Sumner TC MAX Station,45.558829,-122.565861
10574,A.335,0,1,61,Cascades MAX Station,45.57239,-122.55829
10575,A.335,1,1,61,Cascades MAX Station,45.572075,-122.5577
10576,A.335,0,1,61,Mt Hood Ave MAX Station,45.577359,-122.567151
10577,A.335,1,1,61,Mt Hood Ave MAX Station,45.576861,-122.567141
10579,A.335,0,1,61,Portland Int'l Airport MAX Station,45.587584,-122.5931
10579,A.335,1,1,61,Portland Int'l Airport MAX Station,45.587584,-122.5931
11498,A.335,0,1,73,Expo Center MAX Station,45.605354,-122.685706
11498,A.335,1,1,73,Expo Center MAX Station,45.605354,-122.685706
11499,A.335,1,1,73,Delta Park/Vanport MAX Station,45.596125,-122.685683
11500,A.335,1,1,73,Kenton/N Denver Ave MAX Station,45.5837,-122.685662
11501,A.335,1,1,73,N Lombard TC MAX Station,45.5764,-122.68216
11502,A.335,1,1,73,Rosa Parks MAX Station,45.56914,-122.682223
11503,A.335,1,1,73,N Killingsworth St MAX Station,45.562026,-122.682312
11504,A.335,1,1,73,N Prescott St MAX Station,45.555183,-122.68232
11505,A.335,1,1,73,Overlook Park MAX Station,45.548939,-122.681069
11506,A.335,1,1,73,Albina/Mississippi MAX Station,45.539408,-122.675231
11507,A.335,1,2,74,Interstate/Rose Quarter MAX Station,45.530019,-122.66758
11508,A.335,0,2,74,Interstate/Rose Quarter MAX Station,45.530354,-122.668085
11509,A.335,0,1,73,Albina/Mississippi MAX Station,45.539702,-122.675763
11510,A.335,0,1,73,Overlook Park MAX Station,45.548478,-122.680953
11511,A.335,0,1,73,N Prescott St MAX Station,45.55524,-122.682284
11512,A.335,0,1,73,N Killingsworth St MAX Station,45.56331,-122.682175
11513,A.335,0,1,73,Rosa Parks MAX Station,45.570606,-122.682083
11514,A.335,0,1,73,N Lombard TC MAX Station,45.577827,-122.682035
11515,A.335,0,1,73,Kenton/N Denver Ave MAX Station,45.58402,-122.686188
11516,A.335,0,1,73,Delta Park/Vanport MAX Station,45.59612,-122.685563
13123,A.335,0,2,130,SW 6th & Madison St MAX Station,45.515633,-122.680381
13124,A.335,0,1,69,SE Main St MAX Station,45.513986,-122.564467
13125,A.335,0,1,69,SE Division St MAX Station,45.503123,-122.566663
13126,A.335,0,1,69,SE Powell Blvd MAX Station,45.495503,-122.56617
13127,A.335,0,1,69,SE Holgate Blvd MAX Station,45.490868,-122.566315
13128,A.335,0,1,69,Lents/SE Foster Rd MAX Station,45.480188,-122.566871
13129,A.335,0,1,69,SE Flavel St MAX Station,45.467602,-122.566761
13130,A.335,0,1,69,SE Fuller Rd MAX Station,45.453138,-122.573578
13132,A.335,0,1,69,Clackamas Town Center TC MAX Station,45.435721,-122.567769
13132,A.335,1,1,69,Clackamas Town Center TC MAX Station,45.435721,-122.567769
13133,A.335,1,1,69,SE Fuller Rd MAX Station,45.453637,-122.573656
13134,A.335,1,1,69,SE Flavel St MAX Station,45.468068,-122.566542
13135,A.335,1,1,69,Lents/SE Foster Rd MAX Station,45.480686,-122.566745
13136,A.335,1,1,69,SE Holgate Blvd MAX Station,45.491369,-122.566229
13137,A.335,1,1,69,SE Powell Blvd MAX Station,45.495991,-122.566198
13138,A.335,1,1,69,SE Division St MAX Station,45.503608,-122.566584
13139,A.335,1,1,69,SE Main St MAX Station,45.514525,-122.564413
13449,A.335,1,1,59,Civic Drive MAX Station,45.508298,-122.441819
13450,A.335,0,1,70,Civic Drive MAX Station,45.507972,-122.441302
7601,A.335,1,2,130,Union Station/NW 5th & Glisan St MAX Stn,45.526732,-122.675604
7608,A.335,1,2,130,City Hall/SW 5th & Jefferson St MAX Stn,45.514914,-122.679742
7618,A.335,1,2,130,PSU/SW 5th & Mill St MAX Station,45.511645,-122.681551
7627,A.335,1,2,130,SW 5th & Oak St MAX Station,45.521573,-122.676178
7646,A.335,1,2,130,Pioneer Place/SW 5th Ave MAX Station,45.518255,-122.677934
7763,A.335,0,2,130,Union Station/NW 6th & Hoyt St MAX Stn,45.527222,-122.676517
7774,A.335,0,2,130,PSU/SW 6th & Montgomery MAX Station,45.511583,-122.682578
7777,A.335,0,2,130,Pioneer Courthouse/SW 6th Ave MAX Stn,45.518964,-122.678558
7787,A.335,0,2,130,SW 6th & Pine St MAX Station,45.522323,-122.676756
8333,A.335,0,2,128,Library/SW 9th Ave MAX Station,45.51916,-122.68162
8334,A.335,0,2,128,Pioneer Square South MAX Station,45.518496,-122.679145
8335,A.335,0,2,128,Mall/SW 4th Ave MAX Station,45.517942,-122.677088
8336,A.335,0,2,128,Yamhill District MAX Station,45.517153,-122.674172
8337,A.335,0,2,128,Oak/SW 1st Ave MAX Station,45.52028,-122.672146
8338,A.335,0,2,128,Skidmore Fountain MAX Station,45.523095,-122.671256
8339,A.335,0,2,128,Old Town/Chinatown MAX Station,45.52518,-122.671353
8340,A.335,0,3,195,Rose Quarter TC MAX Station,45.530057,-122.664917
8340,A.335,1,1,7,Rose Quarter TC MAX Station,45.530057,-122.664917
8341,A.335,0,3,195,Convention Center MAX Station,45.530052,-122.661908
8342,A.335,0,3,195,NE 7th Ave MAX Station,45.530055,-122.65774
8343,A.335,0,3,195,Lloyd Center/NE 11th Ave MAX Station,45.530067,-122.653638
8344,A.335,0,3,195,Hollywood/NE 42nd Ave TC MAX Station,45.532772,-122.620708
8345,A.335,0,3,195,NE 60th Ave MAX Station,45.528764,-122.602703
8346,A.335,0,3,195,NE 82nd Ave MAX Station,45.533221,-122.577794
8347,A.335,0,3,211,Gateway/NE 99th Ave TC MAX Station,45.530269,-122.563578
8347,A.335,1,2,16,Gateway/NE 99th Ave TC MAX Station,45.530269,-122.563578
8348,A.335,0,1,79,E 102nd Ave MAX Station,45.52258,-122.557314
8349,A.335,0,1,79,E 122nd Ave MAX Station,45.522454,-122.536784
8350,A.335,0,1,79,E 148th Ave MAX Station,45.522237,-122.509687
8351,A.335,0,1,79,E 162nd Ave MAX Station,45.522115,-122.495488
8352,A.335,0,1,79,E 172nd Ave MAX Station,45.522048,-122.485173
8353,A.335,0,1,79,E 181st Ave MAX Station,45.521932,-122.476143
8354,A.335,0,1,79,Rockwood/E 188th Ave MAX Station,45.520398,-122.470537
8355,A.335,0,1,79,Ruby Junction/E 197th Ave MAX Station,45.515577,-122.459174
8356,A.335,0,1,70,Gresham City Hall MAX Station,45.505687,-122.435826
8357,A.335,0,1,70,Gresham Central TC MAX Station,45.502473,-122.426643
8359,A.335,0,1,70,Cleveland Ave MAX Station,45.501772,-122.41845
8359,A.335,1,1,59,Cleveland Ave MAX Station,45.501772,-122.41845
8360,A.335,1,1,59,Gresham Central TC MAX Station,45.502705,-122.427348
8361,A.335,1,1,59,Gresham City Hall MAX Station,45.505981,-122.436285
8362,A.335,1,1,79,Ruby Junction/E 197th Ave MAX Station,45.516502,-122.461119
8363,A.335,1,1,79,Rockwood/E 188th Ave MAX Station,45.520723,-122.471093
8364,A.335,1,1,79,E 181st Ave MAX Station,45.522065,-122.478074
8365,A.335,1,1,79,E 172nd Ave MAX Station,45.52214,-122.48714
8366,A.335,1,1,79,E 162nd Ave MAX Station,45.522223,-122.497437
8367,A.335,1,1,79,E 148th Ave MAX Station,45.522344,-122.511614
8368,A.335,1,1,79,E 122nd Ave MAX Station,45.522548,-122.538743
8369,A.335,1,1,79,E 102nd Ave MAX Station,45.522691,-122.559244
8370,A.335,1,3,230,Gateway/NE 99th Ave TC MAX Station,45.530839,-122.563627
8371,A.335,1,3,195,NE 82nd Ave MAX Station,45.533478,-122.578437
8372,A.335,1,3,195,NE 60th Ave MAX Station,45.528491,-122.603342
8373,A.335,1,3,195,Hollywood/NE 42nd Ave TC MAX Station,45.532957,-122.621367
8374,A.335,1,3,195,Lloyd Center/NE 11th Ave MAX Station,45.530146,-122.654335
8375,A.335,1,3,195,NE 7th Ave MAX Station,45.53015,-122.658277
8376,A.335,1,3,195,Convention Center MAX Station,45.530138,-122.66254
8377,A.335,0,1,4,Rose Quarter TC MAX Station,45.530233,-122.665534
8377,A.335,1,3,195,Rose Quarter TC MAX Station,45.530233,-122.665534
8378,A.335,1,2,128,Old Town/Chinatown MAX Station,45.524695,-122.671467
8379,A.335,1,2,128,Skidmore Fountain MAX Station,45.522873,-122.67139
8380,A.335,1,2,128,Oak/ SW 1st Ave MAX Station,45.51986,-122.672523
8381,A.335,1,2,128,Morrison/SW 3rd Ave MAX Station,45.518181,-122.675386
8382,A.335,1,2,128,Mall/SW 5th Ave MAX Station,45.518701,-122.677402
8383,A.335,1,2,128,Pioneer Square North MAX Station,45.519253,-122.679475
8384,A.335,1,2,128,Galleria/SW 10th Ave MAX Station,45.51991,-122.681919
9299,A.335,0,2,130,NW 6th & Davis St MAX Station,45.524405,-122.676429
9303,A.335,1,2,130,NW 5th & Couch St MAX Station,45.523885,-122.675498
9624,A.335,1,2,128,Sunset TC MAX Station,45.510383,-122.781299
9757,A.335,1,2,128,JELD-WEN Field MAX Station,45.521833,-122.689816
9758,A.335,0,2,128,JELD-WEN Field MAX Station,45.521321,-122.689886
9759,A.335,0,2,128,Kings Hill/SW Salmon St MAX Station,45.520592,-122.691005
9818,A.335,1,1,83,Beaverton TC MAX Station,45.49133,-122.801723
9819,A.335,1,1,83,Beaverton Creek MAX Station,45.500584,-122.833325
9820,A.335,1,2,128,Kings Hill/SW Salmon St MAX Station,45.520207,-122.69132
9821,A.335,0,2,132,Beaverton TC MAX Station,45.491696,-122.8012
9821,A.335,1,1,45,Beaverton TC MAX Station,45.491696,-122.8012
9822,A.335,0,2,83,Beaverton Creek MAX Station,45.500249,-122.832785
9823,A.335,1,1,83,Beaverton Central MAX Station,45.490425,-122.807441
9824,A.335,0,2,83,Beaverton Central MAX Station,45.490501,-122.806766
9825,A.335,1,1,83,Millikan Way MAX Station,45.495421,-122.821806
9826,A.335,0,2,83,Millikan Way MAX Station,45.495102,-122.821238
9827,A.335,1,1,83,Merlo Rd/SW 158th Ave MAX Station,45.505399,-122.842424
9828,A.335,0,2,83,Merlo Rd/SW 158th Ave MAX Station,45.505058,-122.841872
9829,A.335,1,1,91,Elmonica/SW 170th Ave MAX Station,45.510134,-122.851732
9830,A.335,0,2,69,Elmonica/SW 170th Ave MAX Station,45.509777,-122.851193
9831,A.335,0,1,68,Willow Creek/SW 185th Ave TC MAX Station,45.517117,-122.869874
9832,A.335,1,1,89,Willow Creek/SW 185th Ave TC MAX Station,45.517375,-122.870518
9833,A.335,1,1,79,Quatama/NW 205th Ave MAX Station,45.523319,-122.889131
9834,A.335,0,1,68,Quatama/NW 205th Ave MAX Station,45.523082,-122.888511
9835,A.335,0,1,68,Orenco/NW 231st Ave MAX Station,45.530257,-122.915467
9836,A.335,1,1,79,Orenco/NW 231st Ave MAX Station,45.530298,-122.916198
9837,A.335,1,1,79,Fair Complex/Hillsboro Airport MAX Stn,45.526924,-122.946499
9838,A.335,0,1,68,Fair Complex/Hillsboro Airport MAX Stn,45.527041,-122.945808
9839,A.335,0,1,68,Hawthorn Farm MAX Station,45.530012,-122.93038
9840,A.335,1,1,79,Hawthorn Farm MAX Station,45.529921,-122.93112
9841,A.335,0,1,68,Washington/SE 12th Ave MAX Station,45.521102,-122.969152
9842,A.335,1,1,79,Washington/SE 12th Ave MAX Station,45.521231,-122.969867
9843,A.335,0,1,68,Tuality Hospital/SE 8th Ave MAX Station,45.521288,-122.978017
9844,A.335,1,1,79,Tuality Hospital/SE 8th Ave MAX Station,45.521315,-122.978728
9845,A.335,1,1,79,Hillsboro Central/SE 3rd TC MAX Station,45.521385,-122.985596
9846,A.335,0,1,68,Hillsboro Central/SE 3rd TC MAX Station,45.521357,-122.984926
9848,A.335,0,1,68,Hatfield Government Center MAX Station,45.522204,-122.991022
9848,A.335,1,1,79,Hatfield Government Center MAX Station,45.522204,-122.991022
9969,A.335,0,2,128,Sunset TC MAX Station,45.510098,-122.780757
10117,A.336,1,2,128,Goose Hollow/SW Jefferson St MAX Station,45.518236,-122.694089
10118,A.336,0,2,128,Goose Hollow/SW Jefferson St MAX Station,45.517989,-122.693544
10120,A.336,0,2,128,Washington Park MAX Station,45.510653,-122.71634
10121,A.336,1,2,128,Washington Park MAX Station,45.510661,-122.717244
10572,A.336,0,1,61,Parkrose/Sumner TC MAX Station,45.559201,-122.56538
10573,A.336,1,1,61,Parkrose/Sumner TC MAX Station,45.558829,-122.565861
10574,A.336,0,1,61,Cascades MAX Station,45.57239,-122.55829
10575,A.336,1,1,61,Cascades MAX Station,45.572075,-122.5577
10576,A.336,0,1,61,Mt Hood Ave MAX Station,45.577359,-122.567151
10577,A.336,1,1,61,Mt Hood Ave MAX Station,45.576861,-122.567141
10579,A.336,0,1,61,Portland Int'l Airport MAX Station,45.587584,-122.5931
10579,A.336,1,1,61,Portland Int'l Airport MAX Station,45.587584,-122.5931
11498,A.336,0,1,73,Expo Center MAX Station,45.605354,-122.685706
11498,A.336,1,1,73,Expo Center MAX Station,45.605354,-122.685706
11499,A.336,1,1,73,Delta Park/Vanport MAX Station,45.596125,-122.685683
11500,A.336,1,1,73,Kenton/N Denver Ave MAX Station,45.5837,-122.685662
11501,A.336,1,1,73,N Lombard TC MAX Station,45.5764,-122.68216
11502,A.336,1,1,73,Rosa Parks MAX Station,45.56914,-122.682223
11503,A.336,1,1,73,N Killingsworth St MAX Station,45.562026,-122.682312
11504,A.336,1,1,73,N Prescott St MAX Station,45.555183,-122.68232
11505,A.336,1,1,73,Overlook Park MAX Station,45.548939,-122.681069
11506,A.336,1,1,73,Albina/Mississippi MAX Station,45.539408,-122.675231
11507,A.336,1,2,74,Interstate/Rose Quarter MAX Station,45.530019,-122.66758
11508,A.336,0,2,74,Interstate/Rose Quarter MAX Station,45.530354,-122.668085
11509,A.336,0,1,73,Albina/Mississippi MAX Station,45.539702,-122.675763
11510,A.336,0,1,73,Overlook Park MAX Station,45.548478,-122.680953
11511,A.336,0,1,73,N Prescott St MAX Station,45.55524,-122.682284
11512,A.336,0,1,73,N Killingsworth St MAX Station,45.56331,-122.682175
11513,A.336,0,1,73,Rosa Parks MAX Station,45.570606,-122.682083
11514,A.336,0,1,73,N Lombard TC MAX Station,45.577827,-122.682035
11515,A.336,0,1,73,Kenton/N Denver Ave MAX Station,45.58402,-122.686188
11516,A.336,0,1,73,Delta Park/Vanport MAX Station,45.59612,-122.685563
13123,A.336,0,2,130,SW 6th & Madison St MAX Station,45.515633,-122.680381
13124,A.336,0,1,69,SE Main St MAX Station,45.513986,-122.564467
13125,A.336,0,1,69,SE Division St MAX Station,45.503123,-122.566663
13126,A.336,0,1,69,SE Powell Blvd MAX Station,45.495503,-122.56617
13127,A.336,0,1,69,SE Holgate Blvd MAX Station,45.490868,-122.566315
13128,A.336,0,1,69,Lents/SE Foster Rd MAX Station,45.480188,-122.566871
13129,A.336,0,1,69,SE Flavel St MAX Station,45.467602,-122.566761
13130,A.336,0,1,69,SE Fuller Rd MAX Station,45.453138,-122.573578
13132,A.336,0,1,69,Clackamas Town Center TC MAX Station,45.435721,-122.567769
13132,A.336,1,1,69,Clackamas Town Center TC MAX Station,45.435721,-122.567769
13133,A.336,1,1,69,SE Fuller Rd MAX Station,45.453637,-122.573656
13134,A.336,1,1,69,SE Flavel St MAX Station,45.468068,-122.566542
13135,A.336,1,1,69,Lents/SE Foster Rd MAX Station,45.480686,-122.566745
13136,A.336,1,1,69,SE Holgate Blvd MAX Station,45.491369,-122.566229
13137,A.336,1,1,69,SE Powell Blvd MAX Station,45.495991,-122.566198
13138,A.336,1,1,69,SE Division St MAX Station,45.503608,-122.566584
13139,A.336,1,1,69,SE Main St MAX Station,45.514525,-122.564413
13449,A.336,1,1,59,Civic Drive MAX Station,45.508298,-122.441819
13450,A.336,0,1,70,Civic Drive MAX Station,45.507972,-122.441302
7601,A.336,1,2,130,Union Station/NW 5th & Glisan St MAX Stn,45.526732,-122.675604
7608,A.336,1,2,130,City Hall/SW 5th & Jefferson St MAX Stn,45.514914,-122.679742
7618,A.336,1,2,130,PSU/SW 5th & Mill St MAX Station,45.511645,-122.681551
7627,A.336,1,2,130,SW 5th & Oak St MAX Station,45.521573,-122.676178
7646,A.336,1,2,130,Pioneer Place/SW 5th Ave MAX Station,45.518255,-122.677934
7763,A.336,0,2,130,Union Station/NW 6th & Hoyt St MAX Stn,45.527222,-122.676517
7774,A.336,0,2,130,PSU/SW 6th & Montgomery MAX Station,45.511583,-122.682578
7777,A.336,0,2,130,Pioneer Courthouse/SW 6th Ave MAX Stn,45.518964,-122.678558
7787,A.336,0,2,130,SW 6th & Pine St MAX Station,45.522323,-122.676756
8333,A.336,0,2,128,Library/SW 9th Ave MAX Station,45.51916,-122.68162
8334,A.336,0,2,128,Pioneer Square South MAX Station,45.518496,-122.679145
8335,A.336,0,2,128,Mall/SW 4th Ave MAX Station,45.517942,-122.677088
8336,A.336,0,2,128,Yamhill District MAX Station,45.517153,-122.674172
8337,A.336,0,2,128,Oak/SW 1st Ave MAX Station,45.52028,-122.672146
8338,A.336,0,2,128,Skidmore Fountain MAX Station,45.523095,-122.671256
8339,A.336,0,2,128,Old Town/Chinatown MAX Station,45.52518,-122.671353
8340,A.336,0,3,195,Rose Quarter TC MAX Station,45.530057,-122.664917
8340,A.336,1,1,7,Rose Quarter TC MAX Station,45.530057,-122.664917
8341,A.336,0,3,195,Convention Center MAX Station,45.530052,-122.661908
8342,A.336,0,3,195,NE 7th Ave MAX Station,45.530055,-122.65774
8343,A.336,0,3,195,Lloyd Center/NE 11th Ave MAX Station,45.530067,-122.653638
8344,A.336,0,3,195,Hollywood/NE 42nd Ave TC MAX Station,45.532772,-122.620708
8345,A.336,0,3,195,NE 60th Ave MAX Station,45.528764,-122.602703
8346,A.336,0,3,195,NE 82nd Ave MAX Station,45.533221,-122.577794
8347,A.336,0,3,211,Gateway/NE 99th Ave TC MAX Station,45.530269,-122.563578
8347,A.336,1,2,16,Gateway/NE 99th Ave TC MAX Station,45.530269,-122.563578
8348,A.336,0,1,79,E 102nd Ave MAX Station,45.52258,-122.557314
8349,A.336,0,1,79,E 122nd Ave MAX Station,45.522454,-122.536784
8350,A.336,0,1,79,E 148th Ave MAX Station,45.522237,-122.509687
8351,A.336,0,1,79,E 162nd Ave MAX Station,45.522115,-122.495488
8352,A.336,0,1,79,E 172nd Ave MAX Station,45.522048,-122.485173
8353,A.336,0,1,79,E 181st Ave MAX Station,45.521932,-122.476143
8354,A.336,0,1,79,Rockwood/E 188th Ave MAX Station,45.520398,-122.470537
8355,A.336,0,1,79,Ruby Junction/E 197th Ave MAX Station,45.515577,-122.459174
8356,A.336,0,1,70,Gresham City Hall MAX Station,45.505687,-122.435826
8357,A.336,0,1,70,Gresham Central TC MAX Station,45.502473,-122.426643
8359,A.336,0,1,70,Cleveland Ave MAX Station,45.501772,-122.41845
8359,A.336,1,1,59,Cleveland Ave MAX Station,45.501772,-122.41845
8360,A.336,1,1,59,Gresham Central TC MAX Station,45.502705,-122.427348
8361,A.336,1,1,59,Gresham City Hall MAX Station,45.505981,-122.436285
8362,A.336,1,1,79,Ruby Junction/E 197th Ave MAX Station,45.516502,-122.461119
8363,A.336,1,1,79,Rockwood/E 188th Ave MAX Station,45.520723,-122.471093
8364,A.336,1,1,79,E 181st Ave MAX Station,45.522065,-122.478074
8365,A.336,1,1,79,E 172nd Ave MAX Station,45.52214,-122.48714
8366,A.336,1,1,79,E 162nd Ave MAX Station,45.522223,-122.497437
8367,A.336,1,1,79,E 148th Ave MAX Station,45.522344,-122.511614
8368,A.336,1,1,79,E 122nd Ave MAX Station,45.522548,-122.538743
8369,A.336,1,1,79,E 102nd Ave MAX Station,45.522691,-122.559244
8370,A.336,1,3,230,Gateway/NE 99th Ave TC MAX Station,45.530839,-122.563627
8371,A.336,1,3,195,NE 82nd Ave MAX Station,45.533478,-122.578437
8372,A.336,1,3,195,NE 60th Ave MAX Station,45.528491,-122.603342
8373,A.336,1,3,195,Hollywood/NE 42nd Ave TC MAX Station,45.532957,-122.621367
8374,A.336,1,3,195,Lloyd Center/NE 11th Ave MAX Station,45.530146,-122.654335
8375,A.336,1,3,195,NE 7th Ave MAX Station,45.53015,-122.658277
8376,A.336,1,3,195,Convention Center MAX Station,45.530138,-122.66254
8377,A.336,0,1,4,Rose Quarter TC MAX Station,45.530233,-122.665534
8377,A.336,1,3,195,Rose Quarter TC MAX Station,45.530233,-122.665534
8378,A.336,1,2,128,Old Town/Chinatown MAX Station,45.524695,-122.671467
8379,A.336,1,2,128,Skidmore Fountain MAX Station,45.522873,-122.67139
8380,A.336,1,2,128,Oak/ SW 1st Ave MAX Station,45.51986,-122.672523
8381,A.336,1,2,128,Morrison/SW 3rd Ave MAX Station,45.518181,-122.675386
8382,A.336,1,2,128,Mall/SW 5th Ave MAX Station,45.518701,-122.677402
8383,A.336,1,2,128,Pioneer Square North MAX Station,45.519253,-122.679475
8384,A.336,1,2,128,Galleria/SW 10th Ave MAX Station,45.51991,-122.681919
9299,A.336,0,2,130,NW 6th & Davis St MAX Station,45.524405,-122.676429
9303,A.336,1,2,130,NW 5th & Couch St MAX Station,45.523885,-122.675498
9624,A.336,1,2,128,Sunset TC MAX Station,45.510383,-122.781299
9757,A.336,1,2,128,JELD-WEN Field MAX Station,45.521833,-122.689816
9758,A.336,0,2,128,JELD-WEN Field MAX Station,45.521321,-122.689886
9759,A.336,0,2,128,Kings Hill/SW Salmon St MAX Station,45.520592,-122.691005
9818,A.336,1,1,83,Beaverton TC MAX Station,45.49133,-122.801723
9819,A.336,1,1,83,Beaverton Creek MAX Station,45.500584,-122.833325
9820,A.336,1,2,128,Kings Hill/SW Salmon St MAX Station,45.520207,-122.69132
9821,A.336,0,2,132,Beaverton TC MAX Station,45.491696,-122.8012
9821,A.336,1,1,45,Beaverton TC MAX Station,45.491696,-122.8012
9822,A.336,0,2,83,Beaverton Creek MAX Station,45.500249,-122.832785
9823,A.336,1,1,83,Beaverton Central MAX Station,45.490425,-122.807441
9824,A.336,0,2,83,Beaverton Central MAX Station,45.490501,-122.806766
9825,A.336,1,1,83,Millikan Way MAX Station,45.495421,-122.821806
9826,A.336,0,2,83,Millikan Way MAX Station,45.495102,-122.821238
9827,A.336,1,1,83,Merlo Rd/SW 158th Ave MAX Station,45.505399,-122.842424
9828,A.336,0,2,83,Merlo Rd/SW 158th Ave MAX Station,45.505058,-122.841872
9829,A.336,1,1,91,Elmonica/SW 170th Ave MAX Station,45.510134,-122.851732
9830,A.336,0,2,69,Elmonica/SW 170th Ave MAX Station,45.509777,-122.851193
9831,A.336,0,1,68,Willow Creek/SW 185th Ave TC MAX Station,45.517117,-122.869874
9832,A.336,1,1,89,Willow Creek/SW 185th Ave TC MAX Station,45.517375,-122.870518
9833,A.336,1,1,79,Quatama/NW 205th Ave MAX Station,45.523319,-122.889131
9834,A.336,0,1,68,Quatama/NW 205th Ave MAX Station,45.523082,-122.888511
9835,A.336,0,1,68,Orenco/NW 231st Ave MAX Station,45.530257,-122.915467
9836,A.336,1,1,79,Orenco/NW 231st Ave MAX Station,45.530298,-122.916198
9837,A.336,1,1,79,Fair Complex/Hillsboro Airport MAX Stn,45.526924,-122.946499
9838,A.336,0,1,68,Fair Complex/Hillsboro Airport MAX Stn,45.527041,-122.945808
9839,A.336,0,1,68,Hawthorn Farm MAX Station,45.530012,-122.93038
9840,A.336,1,1,79,Hawthorn Farm MAX Station,45.529921,-122.93112
9841,A.336,0,1,68,Washington/SE 12th Ave MAX Station,45.521102,-122.969152
9842,A.336,1,1,79,Washington/SE 12th Ave MAX Station,45.521231,-122.969867
9843,A.336,0,1,68,Tuality Hospital/SE 8th Ave MAX Station,45.521288,-122.978017
9844,A.336,1,1,79,Tuality Hospital/SE 8th Ave MAX Station,45.521315,-122.978728
9845,A.336,1,1,79,Hillsboro Central/SE 3rd TC MAX Station,45.521385,-122.985596
9846,A.336,0,1,68,Hillsboro Central/SE 3rd TC MAX Station,45.521357,-122.984926
9848,A.336,0,1,68,Hatfield Government Center MAX Station,45.522204,-122.991022
9848,A.336,1,1,79,Hatfield Government Center MAX Station,45.522204,-122.991022
9969,A.336,0,2,128,Sunset TC MAX Station,45.510098,-122.780757
10117,B.334,1,2,121,Goose Hollow/SW Jefferson St MAX Station,45.518236,-122.694089
10118,B.334,0,2,121,Goose Hollow/SW Jefferson St MAX Station,45.517989,-122.693544
10120,B.334,0,2,121,Washington Park MAX Station,45.510653,-122.71634
10121,B.334,1,2,121,Washington Park MAX Station,45.510661,-122.717244
10572,B.334,0,1,58,Parkrose/Sumner TC MAX Station,45.559201,-122.56538
10573,B.334,1,1,58,Parkrose/Sumner TC MAX Station,45.558829,-122.565861
10574,B.334,0,1,58,Cascades MAX Station,45.57239,-122.55829
10575,B.334,1,1,58,Cascades MAX Station,45.572075,-122.5577
10576,B.334,0,1,58,Mt Hood Ave MAX Station,45.577359,-122.567151
10577,B.334,1,1,58,Mt Hood Ave MAX Station,45.576861,-122.567141
10579,B.334,0,1,58,Portland Int'l Airport MAX Station,45.587584,-122.5931
10579,B.334,1,1,58,Portland Int'l Airport MAX Station,45.587584,-122.5931
11498,B.334,0,1,60,Expo Center MAX Station,45.605354,-122.685706
11498,B.334,1,1,60,Expo Center MAX Station,45.605354,-122.685706
11499,B.334,1,1,60,Delta Park/Vanport MAX Station,45.596125,-122.685683
11500,B.334,1,1,60,Kenton/N Denver Ave MAX Station,45.5837,-122.685662
11501,B.334,1,1,60,N Lombard TC MAX Station,45.5764,-122.68216
11502,B.334,1,1,60,Rosa Parks MAX Station,45.56914,-122.682223
11503,B.334,1,1,60,N Killingsworth St MAX Station,45.562026,-122.682312
11504,B.334,1,1,60,N Prescott St MAX Station,45.555183,-122.68232
11505,B.334,1,1,60,Overlook Park MAX Station,45.548939,-122.681069
11506,B.334,1,1,60,Albina/Mississippi MAX Station,45.539408,-122.675231
11507,B.334,1,1,60,Interstate/Rose Quarter MAX Station,45.530019,-122.66758
11508,B.334,0,1,60,Interstate/Rose Quarter MAX Station,45.530354,-122.668085
11509,B.334,0,1,60,Albina/Mississippi MAX Station,45.539702,-122.675763
11510,B.334,0,1,60,Overlook Park MAX Station,45.548478,-122.680953
11511,B.334,0,1,60,N Prescott St MAX Station,45.55524,-122.682284
11512,B.334,0,1,60,N Killingsworth St MAX Station,45.56331,-122.682175
11513,B.334,0,1,60,Rosa Parks MAX Station,45.570606,-122.682083
11514,B.334,0,1,60,N Lombard TC MAX Station,45.577827,-122.682035
11515,B.334,0,1,60,Kenton/N Denver Ave MAX Station,45.58402,-122.686188
11516,B.334,0,1,60,Delta Park/Vanport MAX Station,45.59612,-122.685563
13123,B.334,0,2,103,SW 6th & Madison St MAX Station,45.515633,-122.680381
13124,B.334,0,1,49,SE Main St MAX Station,45.513986,-122.564467
13125,B.334,0,1,49,SE Division St MAX Station,45.503123,-122.566663
13126,B.334,0,1,49,SE Powell Blvd MAX Station,45.495503,-122.56617
13127,B.334,0,1,49,SE Holgate Blvd MAX Station,45.490868,-122.566315
13128,B.334,0,1,49,Lents/SE Foster Rd MAX Station,45.480188,-122.566871
13129,B.334,0,1,49,SE Flavel St MAX Station,45.467602,-122.566761
13130,B.334,0,1,49,SE Fuller Rd MAX Station,45.453138,-122.573578
13132,B.334,0,1,49,Clackamas Town Center TC MAX Station,45.435721,-122.567769
13132,B.334,1,1,49,Clackamas Town Center TC MAX Station,45.435721,-122.567769
13133,B.334,1,1,49,SE Fuller Rd MAX Station,45.453637,-122.573656
13134,B.334,1,1,49,SE Flavel St MAX Station,45.468068,-122.566542
13135,B.334,1,1,49,Lents/SE Foster Rd MAX Station,45.480686,-122.566745
13136,B.334,1,1,49,SE Holgate Blvd MAX Station,45.491369,-122.566229
13137,B.334,1,1,49,SE Powell Blvd MAX Station,45.495991,-122.566198
13138,B.334,1,1,49,SE Division St MAX Station,45.503608,-122.566584
13139,B.334,1,1,49,SE Main St MAX Station,45.514525,-122.564413
13449,B.334,1,1,63,Civic Drive MAX Station,45.508298,-122.441819
13450,B.334,0,1,70,Civic Drive MAX Station,45.507972,-122.441302
7601,B.334,1,2,103,Union Station/NW 5th & Glisan St MAX Stn,45.526732,-122.675604
7608,B.334,1,2,103,City Hall/SW 5th & Jefferson St MAX Stn,45.514914,-122.679742
7618,B.334,1,2,103,PSU/SW 5th & Mill St MAX Station,45.511645,-122.681551
7627,B.334,1,2,103,SW 5th & Oak St MAX Station,45.521573,-122.676178
7646,B.334,1,2,103,Pioneer Place/SW 5th Ave MAX Station,45.518255,-122.677934
7763,B.334,0,2,103,Union Station/NW 6th & Hoyt St MAX Stn,45.527222,-122.676517
7774,B.334,0,2,103,PSU/SW 6th & Montgomery MAX Station,45.511583,-122.682578
7777,B.334,0,2,103,Pioneer Courthouse/SW 6th Ave MAX Stn,45.518964,-122.678558
7787,B.334,0,2,103,SW 6th & Pine St MAX Station,45.522323,-122.676756
8333,B.334,0,2,121,Library/SW 9th Ave MAX Station,45.51916,-122.68162
8334,B.334,0,2,121,Pioneer Square South MAX Station,45.518496,-122.679145
8335,B.334,0,2,121,Mall/SW 4th Ave MAX Station,45.517942,-122.677088
8336,B.334,0,2,121,Yamhill District MAX Station,45.517153,-122.674172
8337,B.334,0,2,121,Oak/SW 1st Ave MAX Station,45.52028,-122.672146
8338,B.334,0,2,121,Skidmore Fountain MAX Station,45.523095,-122.671256
8339,B.334,0,2,121,Old Town/Chinatown MAX Station,45.52518,-122.671353
8340,B.334,0,3,173,Rose Quarter TC MAX Station,45.530057,-122.664917
8340,B.334,1,1,4,Rose Quarter TC MAX Station,45.530057,-122.664917
8341,B.334,0,3,171,Convention Center MAX Station,45.530052,-122.661908
8342,B.334,0,3,171,NE 7th Ave MAX Station,45.530055,-122.65774
8343,B.334,0,3,171,Lloyd Center/NE 11th Ave MAX Station,45.530067,-122.653638
8344,B.334,0,3,171,Hollywood/NE 42nd Ave TC MAX Station,45.532772,-122.620708
8345,B.334,0,3,171,NE 60th Ave MAX Station,45.528764,-122.602703
8346,B.334,0,3,171,NE 82nd Ave MAX Station,45.533221,-122.577794
8347,B.334,0,3,183,Gateway/NE 99th Ave TC MAX Station,45.530269,-122.563578
8347,B.334,1,2,12,Gateway/NE 99th Ave TC MAX Station,45.530269,-122.563578
8348,B.334,0,1,76,E 102nd Ave MAX Station,45.52258,-122.557314
8349,B.334,0,1,76,E 122nd Ave MAX Station,45.522454,-122.536784
8350,B.334,0,1,76,E 148th Ave MAX Station,45.522237,-122.509687
8351,B.334,0,1,76,E 162nd Ave MAX Station,45.522115,-122.495488
8352,B.334,0,1,76,E 172nd Ave MAX Station,45.522048,-122.485173
8353,B.334,0,1,76,E 181st Ave MAX Station,45.521932,-122.476143
8354,B.334,0,1,76,Rockwood/E 188th Ave MAX Station,45.520398,-122.470537
8355,B.334,0,1,76,Ruby Junction/E 197th Ave MAX Station,45.515577,-122.459174
8356,B.334,0,1,70,Gresham City Hall MAX Station,45.505687,-122.435826
8357,B.334,0,1,70,Gresham Central TC MAX Station,45.502473,-122.426643
8359,B.334,0,1,70,Cleveland Ave MAX Station,45.501772,-122.41845
8359,B.334,1,1,63,Cleveland Ave MAX Station,45.501772,-122.41845
8360,B.334,1,1,63,Gresham Central TC MAX Station,45.502705,-122.427348
8361,B.334,1,1,63,Gresham City Hall MAX Station,45.505981,-122.436285
8362,B.334,1,1,76,Ruby Junction/E 197th Ave MAX Station,45.516502,-122.461119
8363,B.334,1,1,76,Rockwood/E 188th Ave MAX Station,45.520723,-122.471093
8364,B.334,1,1,76,E 181st Ave MAX Station,45.522065,-122.478074
8365,B.334,1,1,76,E 172nd Ave MAX Station,45.52214,-122.48714
8366,B.334,1,1,76,E 162nd Ave MAX Station,45.522223,-122.497437
8367,B.334,1,1,76,E 148th Ave MAX Station,45.522344,-122.511614
8368,B.334,1,1,76,E 122nd Ave MAX Station,45.522548,-122.538743
8369,B.334,1,1,76,E 102nd Ave MAX Station,45.522691,-122.559244
8370,B.334,1,3,197,Gateway/NE 99th Ave TC MAX Station,45.530839,-122.563627
8371,B.334,1,3,171,NE 82nd Ave MAX Station,45.533478,-122.578437
8372,B.334,1,3,171,NE 60th Ave MAX Station,45.528491,-122.603342
8373,B.334,1,3,171,Hollywood/NE 42nd Ave TC MAX Station,45.532957,-122.621367
8374,B.334,1,3,171,Lloyd Center/NE 11th Ave MAX Station,45.530146,-122.654335
8375,B.334,1,3,171,NE 7th Ave MAX Station,45.53015,-122.658277
8376,B.334,1,3,171,Convention Center MAX Station,45.530138,-122.66254
8377,B.334,0,1,3,Rose Quarter TC MAX Station,45.530233,-122.665534
8377,B.334,1,3,171,Rose Quarter TC MAX Station,45.530233,-122.665534
8378,B.334,1,2,121,Old Town/Chinatown MAX Station,45.524695,-122.671467
8379,B.334,1,2,121,Skidmore Fountain MAX Station,45.522873,-122.67139
8380,B.334,1,2,121,Oak/ SW 1st Ave MAX Station,45.51986,-122.672523
8381,B.334,1,2,121,Morrison/SW 3rd Ave MAX Station,45.518181,-122.675386
8382,B.334,1,2,121,Mall/SW 5th Ave MAX Station,45.518701,-122.677402
8383,B.334,1,2,121,Pioneer Square North MAX Station,45.519253,-122.679475
8384,B.334,1,2,121,Galleria/SW 10th Ave MAX Station,45.51991,-122.681919
9299,B.334,0,2,103,NW 6th & Davis St MAX Station,45.524405,-122.676429
9303,B.334,1,2,103,NW 5th & Couch St MAX Station,45.523885,-122.675498
9624,B.334,1,2,121,Sunset TC MAX Station,45.510383,-122.781299
9757,B.334,1,2,121,JELD-WEN Field MAX Station,45.521833,-122.689816
9758,B.334,0,2,121,JELD-WEN Field MAX Station,45.521321,-122.689886
9759,B.334,0,2,121,Kings Hill/SW Salmon St MAX Station,45.520592,-122.691005
9818,B.334,1,1,72,Beaverton TC MAX Station,45.49133,-122.801723
9819,B.334,1,1,72,Beaverton Creek MAX Station,45.500584,-122.833325
9820,B.334,1,2,121,Kings Hill/SW Salmon St MAX Station,45.520207,-122.69132
9821,B.334,0,2,121,Beaverton TC MAX Station,45.491696,-122.8012
9821,B.334,1,1,49,Beaverton TC MAX Station,45.491696,-122.8012
9822,B.334,0,2,72,Beaverton Creek MAX Station,45.500249,-122.832785
9823,B.334,1,1,72,Beaverton Central MAX Station,45.490425,-122.807441
9824,B.334,0,2,72,Beaverton Central MAX Station,45.490501,-122.806766
9825,B.334,1,1,72,Millikan Way MAX Station,45.495421,-122.821806
9826,B.334,0,2,72,Millikan Way MAX Station,45.495102,-122.821238
9827,B.334,1,1,72,Merlo Rd/SW 158th Ave MAX Station,45.505399,-122.842424
9828,B.334,0,2,72,Merlo Rd/SW 158th Ave MAX Station,45.505058,-122.841872
9829,B.334,1,1,79,Elmonica/SW 170th Ave MAX Station,45.510134,-122.851732
9830,B.334,0,2,73,Elmonica/SW 170th Ave MAX Station,45.509777,-122.851193
9831,B.334,0,1,65,Willow Creek/SW 185th Ave TC MAX Station,45.517117,-122.869874
9832,B.334,1,1,78,Willow Creek/SW 185th Ave TC MAX Station,45.517375,-122.870518
9833,B.334,1,1,69,Quatama/NW 205th Ave MAX Station,45.523319,-122.889131
9834,B.334,0,1,65,Quatama/NW 205th Ave MAX Station,45.523082,-122.888511
9835,B.334,0,1,65,Orenco/NW 231st Ave MAX Station,45.530257,-122.915467
9836,B.334,1,1,69,Orenco/NW 231st Ave MAX Station,45.530298,-122.916198
9837,B.334,1,1,69,Fair Complex/Hillsboro Airport MAX Stn,45.526924,-122.946499
9838,B.334,0,1,65,Fair Complex/Hillsboro Airport MAX Stn,45.527041,-122.945808
9839,B.334,0,1,65,Hawthorn Farm MAX Station,45.530012,-122.93038
9840,B.334,1,1,69,Hawthorn Farm MAX Station,45.529921,-122.93112
9841,B.334,0,1,65,Washington/SE 12th Ave MAX Station,45.521102,-122.969152
9842,B.334,1,1,69,Washington/SE 12th Ave MAX Station,45.521231,-122.969867
9843,B.334,0,1,65,Tuality Hospital/SE 8th Ave MAX Station,45.521288,-122.978017
9844,B.334,1,1,69,Tuality Hospital/SE 8th Ave MAX Station,45.521315,-122.978728
9845,B.334,1,1,69,Hillsboro Central/SE 3rd TC MAX Station,45.521385,-122.985596
9846,B.334,0,1,65,Hillsboro Central/SE 3rd TC MAX Station,45.521357,-122.984926
9848,B.334,0,1,65,Hatfield Government Center MAX Station,45.522204,-122.991022
9848,B.334,1,1,69,Hatfield Government Center MAX Station,45.522204,-122.991022
9969,B.334,0,2,121,Sunset TC MAX Station,45.510098,-122.780757
10117,B.335,1,2,121,Goose Hollow/SW Jefferson St MAX Station,45.518236,-122.694089
10118,B.335,0,2,121,Goose Hollow/SW Jefferson St MAX Station,45.517989,-122.693544
10120,B.335,0,2,121,Washington Park MAX Station,45.510653,-122.71634
10121,B.335,1,2,121,Washington Park MAX Station,45.510661,-122.717244
10572,B.335,0,1,58,Parkrose/Sumner TC MAX Station,45.559201,-122.56538
10573,B.335,1,1,58,Parkrose/Sumner TC MAX Station,45.558829,-122.565861
10574,B.335,0,1,58,Cascades MAX Station,45.57239,-122.55829
10575,B.335,1,1,58,Cascades MAX Station,45.572075,-122.5577
10576,B.335,0,1,58,Mt Hood Ave MAX Station,45.577359,-122.567151
10577,B.335,1,1,58,Mt Hood Ave MAX Station,45.576861,-122.567141
10579,B.335,0,1,58,Portland Int'l Airport MAX Station,45.587584,-122.5931
10579,B.335,1,1,58,Portland Int'l Airport MAX Station,45.587584,-122.5931
11498,B.335,0,1,60,Expo Center MAX Station,45.605354,-122.685706
11498,B.335,1,1,60,Expo Center MAX Station,45.605354,-122.685706
11499,B.335,1,1,60,Delta Park/Vanport MAX Station,45.596125,-122.685683
11500,B.335,1,1,60,Kenton/N Denver Ave MAX Station,45.5837,-122.685662
11501,B.335,1,1,60,N Lombard TC MAX Station,45.5764,-122.68216
11502,B.335,1,1,60,Rosa Parks MAX Station,45.56914,-122.682223
11503,B.335,1,1,60,N Killingsworth St MAX Station,45.562026,-122.682312
11504,B.335,1,1,60,N Prescott St MAX Station,45.555183,-122.68232
11505,B.335,1,1,60,Overlook Park MAX Station,45.548939,-122.681069
11506,B.335,1,1,60,Albina/Mississippi MAX Station,45.539408,-122.675231
11507,B.335,1,1,60,Interstate/Rose Quarter MAX Station,45.530019,-122.66758
11508,B.335,0,1,60,Interstate/Rose Quarter MAX Station,45.530354,-122.668085
11509,B.335,0,1,60,Albina/Mississippi MAX Station,45.539702,-122.675763
11510,B.335,0,1,60,Overlook Park MAX Station,45.548478,-122.680953
11511,B.335,0,1,60,N Prescott St MAX Station,45.55524,-122.682284
11512,B.335,0,1,60,N Killingsworth St MAX Station,45.56331,-122.682175
11513,B.335,0,1,60,Rosa Parks MAX Station,45.570606,-122.682083
11514,B.335,0,1,60,N Lombard TC MAX Station,45.577827,-122.682035
11515,B.335,0,1,60,Kenton/N Denver Ave MAX Station,45.58402,-122.686188
11516,B.335,0,1,60,Delta Park/Vanport MAX Station,45.59612,-122.685563
13123,B.335,0,2,103,SW 6th & Madison St MAX Station,45.515633,-122.680381
13124,B.335,0,1,49,SE Main St MAX Station,45.513986,-122.564467
13125,B.335,0,1,49,SE Division St MAX Station,45.503123,-122.566663
13126,B.335,0,1,49,SE Powell Blvd MAX Station,45.495503,-122.56617
13127,B.335,0,1,49,SE Holgate Blvd MAX Station,45.490868,-122.566315
13128,B.335,0,1,49,Lents/SE Foster Rd MAX Station,45.480188,-122.566871
13129,B.335,0,1,49,SE Flavel St MAX Station,45.467602,-122.566761
13130,B.335,0,1,49,SE Fuller Rd MAX Station,45.453138,-122.573578
13132,B.335,0,1,49,Clackamas Town Center TC MAX Station,45.435721,-122.567769
13132,B.335,1,1,49,Clackamas Town Center TC MAX Station,45.435721,-122.567769
13133,B.335,1,1,49,SE Fuller Rd MAX Station,45.453637,-122.573656
13134,B.335,1,1,49,SE Flavel St MAX Station,45.468068,-122.566542
13135,B.335,1,1,49,Lents/SE Foster Rd MAX Station,45.480686,-122.566745
13136,B.335,1,1,49,SE Holgate Blvd MAX Station,45.491369,-122.566229
13137,B.335,1,1,49,SE Powell Blvd MAX Station,45.495991,-122.566198
13138,B.335,1,1,49,SE Division St MAX Station,45.503608,-122.566584
13139,B.335,1,1,49,SE Main St MAX Station,45.514525,-122.564413
13449,B.335,1,1,63,Civic Drive MAX Station,45.508298,-122.441819
13450,B.335,0,1,70,Civic Drive MAX Station,45.507972,-122.441302
7601,B.335,1,2,103,Union Station/NW 5th & Glisan St MAX Stn,45.526732,-122.675604
7608,B.335,1,2,103,City Hall/SW 5th & Jefferson St MAX Stn,45.514914,-122.679742
7618,B.335,1,2,103,PSU/SW 5th & Mill St MAX Station,45.511645,-122.681551
7627,B.335,1,2,103,SW 5th & Oak St MAX Station,45.521573,-122.676178
7646,B.335,1,2,103,Pioneer Place/SW 5th Ave MAX Station,45.518255,-122.677934
7763,B.335,0,2,103,Union Station/NW 6th & Hoyt St MAX Stn,45.527222,-122.676517
7774,B.335,0,2,103,PSU/SW 6th & Montgomery MAX Station,45.511583,-122.682578
7777,B.335,0,2,103,Pioneer Courthouse/SW 6th Ave MAX Stn,45.518964,-122.678558
7787,B.335,0,2,103,SW 6th & Pine St MAX Station,45.522323,-122.676756
8333,B.335,0,2,121,Library/SW 9th Ave MAX Station,45.51916,-122.68162
8334,B.335,0,2,121,Pioneer Square South MAX Station,45.518496,-122.679145
8335,B.335,0,2,121,Mall/SW 4th Ave MAX Station,45.517942,-122.677088
8336,B.335,0,2,121,Yamhill District MAX Station,45.517153,-122.674172
8337,B.335,0,2,121,Oak/SW 1st Ave MAX Station,45.52028,-122.672146
8338,B.335,0,2,121,Skidmore Fountain MAX Station,45.523095,-122.671256
8339,B.335,0,2,121,Old Town/Chinatown MAX Station,45.52518,-122.671353
8340,B.335,0,3,173,Rose Quarter TC MAX Station,45.530057,-122.664917
8340,B.335,1,1,4,Rose Quarter TC MAX Station,45.530057,-122.664917
8341,B.335,0,3,171,Convention Center MAX Station,45.530052,-122.661908
8342,B.335,0,3,171,NE 7th Ave MAX Station,45.530055,-122.65774
8343,B.335,0,3,171,Lloyd Center/NE 11th Ave MAX Station,45.530067,-122.653638
8344,B.335,0,3,171,Hollywood/NE 42nd Ave TC MAX Station,45.532772,-122.620708
8345,B.335,0,3,171,NE 60th Ave MAX Station,45.528764,-122.602703
8346,B.335,0,3,171,NE 82nd Ave MAX Station,45.533221,-122.577794
8347,B.335,0,3,183,Gateway/NE 99th Ave TC MAX Station,45.530269,-122.563578
8347,B.335,1,2,12,Gateway/NE 99th Ave TC MAX Station,45.530269,-122.563578
8348,B.335,0,1,76,E 102nd Ave MAX Station,45.52258,-122.557314
8349,B.335,0,1,76,E 122nd Ave MAX Station,45.522454,-122.536784
8350,B.335,0,1,76,E 148th Ave MAX Station,45.522237,-122.509687
8351,B.335,0,1,76,E 162nd Ave MAX Station,45.522115,-122.495488
8352,B.335,0,1,76,E 172nd Ave MAX Station,45.522048,-122.485173
8353,B.335,0,1,76,E 181st Ave MAX Station,45.521932,-122.476143
8354,B.335,0,1,76,Rockwood/E 188th Ave MAX Station,45.520398,-122.470537
8355,B.335,0,1,76,Ruby Junction/E 197th Ave MAX Station,45.515577,-122.459174
8356,B.335,0,1,70,Gresham City Hall MAX Station,45.505687,-122.435826
8357,B.335,0,1,70,Gresham Central TC MAX Station,45.502473,-122.426643
8359,B.335,0,1,70,Cleveland Ave MAX Station,45.501772,-122.41845
8359,B.335,1,1,63,Cleveland Ave MAX Station,45.501772,-122.41845
8360,B.335,1,1,63,Gresham Central TC MAX Station,45.502705,-122.427348
8361,B.335,1,1,63,Gresham City Hall MAX Station,45.505981,-122.436285
8362,B.335,1,1,76,Ruby Junction/E 197th Ave MAX Station,45.516502,-122.461119
8363,B.335,1,1,76,Rockwood/E 188th Ave MAX Station,45.520723,-122.471093
8364,B.335,1,1,76,E 181st Ave MAX Station,45.522065,-122.478074
8365,B.335,1,1,76,E 172nd Ave MAX Station,45.52214,-122.48714
8366,B.335,1,1,76,E 162nd Ave MAX Station,45.522223,-122.497437
8367,B.335,1,1,76,E 148th Ave MAX Station,45.522344,-122.511614
8368,B.335,1,1,76,E 122nd Ave MAX Station,45.522548,-122.538743
8369,B.335,1,1,76,E 102nd Ave MAX Station,45.522691,-122.559244
8370,B.335,1,3,197,Gateway/NE 99th Ave TC MAX Station,45.530839,-122.563627
8371,B.335,1,3,171,NE 82nd Ave MAX Station,45.533478,-122.578437
8372,B.335,1,3,171,NE 60th Ave MAX Station,45.528491,-122.603342
8373,B.335,1,3,171,Hollywood/NE 42nd Ave TC MAX Station,45.532957,-122.621367
8374,B.335,1,3,171,Lloyd Center/NE 11th Ave MAX Station,45.530146,-122.654335
8375,B.335,1,3,171,NE 7th Ave MAX Station,45.53015,-122.658277
8376,B.335,1,3,171,Convention Center MAX Station,45.530138,-122.66254
8377,B.335,0,1,3,Rose Quarter TC MAX Station,45.530233,-122.665534
8377,B.335,1,3,171,Rose Quarter TC MAX Station,45.530233,-122.665534
8378,B.335,1,2,121,Old Town/Chinatown MAX Station,45.524695,-122.671467
8379,B.335,1,2,121,Skidmore Fountain MAX Station,45.522873,-122.67139
8380,B.335,1,2,121,Oak/ SW 1st Ave MAX Station,45.51986,-122.672523
8381,B.335,1,2,121,Morrison/SW 3rd Ave MAX Station,45.518181,-122.675386
8382,B.335,1,2,121,Mall/SW 5th Ave MAX Station,45.518701,-122.677402
8383,B.335,1,2,121,Pioneer Square North MAX Station,45.519253,-122.679475
8384,B.335,1,2,121,Galleria/SW 10th Ave MAX Station,45.51991,-122.681919
9299,B.335,0,2,103,NW 6th & Davis St MAX Station,45.524405,-122.676429
9303,B.335,1,2,103,NW 5th & Couch St MAX Station,45.523885,-122.675498
9624,B.335,1,2,121,Sunset TC MAX Station,45.510383,-122.781299
9757,B.335,1,2,121,JELD-WEN Field MAX Station,45.521833,-122.689816
9758,B.335,0,2,121,JELD-WEN Field MAX Station,45.521321,-122.689886
9759,B.335,0,2,121,Kings Hill/SW Salmon St MAX Station,45.520592,-122.691005
9818,B.335,1,1,72,Beaverton TC MAX Station,45.49133,-122.801723
9819,B.335,1,1,72,Beaverton Creek MAX Station,45.500584,-122.833325
9820,B.335,1,2,121,Kings Hill/SW Salmon St MAX Station,45.520207,-122.69132
9821,B.335,0,2,121,Beaverton TC MAX Station,45.491696,-122.8012
9821,B.335,1,1,49,Beaverton TC MAX Station,45.491696,-122.8012
9822,B.335,0,2,72,Beaverton Creek MAX Station,45.500249,-122.832785
9823,B.335,1,1,72,Beaverton Central MAX Station,45.490425,-122.807441
9824,B.335,0,2,72,Beaverton Central MAX Station,45.490501,-122.806766
9825,B.335,1,1,72,Millikan Way MAX Station,45.495421,-122.821806
9826,B.335,0,2,72,Millikan Way MAX Station,45.495102,-122.821238
9827,B.335,1,1,72,Merlo Rd/SW 158th Ave MAX Station,45.505399,-122.842424
9828,B.335,0,2,72,Merlo Rd/SW 158th Ave MAX Station,45.505058,-122.841872
9829,B.335,1,1,79,Elmonica/SW 170th Ave MAX Station,45.510134,-122.851732
9830,B.335,0,2,73,Elmonica/SW 170th Ave MAX Station,45.509777,-122.851193
9831,B.335,0,1,65,Willow Creek/SW 185th Ave TC MAX Station,45.517117,-122.869874
9832,B.335,1,1,78,Willow Creek/SW 185th Ave TC MAX Station,45.517375,-122.870518
9833,B.335,1,1,69,Quatama/NW 205th Ave MAX Station,45.523319,-122.889131
9834,B.335,0,1,65,Quatama/NW 205th Ave MAX Station,45.523082,-122.888511
9835,B.335,0,1,65,Orenco/NW 231st Ave MAX Station,45.530257,-122.915467
9836,B.335,1,1,69,Orenco/NW 231st Ave MAX Station,45.530298,-122.916198
9837,B.335,1,1,69,Fair Complex/Hillsboro Airport MAX Stn,45.526924,-122.946499
9838,B.335,0,1,65,Fair Complex/Hillsboro Airport MAX Stn,45.527041,-122.945808
9839,B.335,0,1,65,Hawthorn Farm MAX Station,45.530012,-122.93038
9840,B.335,1,1,69,Hawthorn Farm MAX Station,45.529921,-122.93112
9841,B.335,0,1,65,Washington/SE 12th Ave MAX Station,45.521102,-122.969152
9842,B.335,1,1,69,Washington/SE 12th Ave MAX Station,45.521231,-122.969867
9843,B.335,0,1,65,Tuality Hospital/SE 8th Ave MAX Station,45.521288,-122.978017
9844,B.335,1,1,69,Tuality Hospital/SE 8th Ave MAX Station,45.521315,-122.978728
9845,B.335,1,1,69,Hillsboro Central/SE 3rd TC MAX Station,45.521385,-122.985596
9846,B.335,0,1,65,Hillsboro Central/SE 3rd TC MAX Station,45.521357,-122.984926
9848,B.335,0,1,65,Hatfield Government Center MAX Station,45.522204,-122.991022
9848,B.335,1,1,69,Hatfield Government Center MAX Station,45.522204,-122.991022
9969,B.335,0,2,121,Sunset TC MAX Station,45.510098,-122.780757
10117,B.336,1,2,121,Goose Hollow/SW Jefferson St MAX Station,45.518236,-122.694089
10118,B.336,0,2,121,Goose Hollow/SW Jefferson St MAX Station,45.517989,-122.693544
10120,B.336,0,2,121,Washington Park MAX Station,45.510653,-122.71634
10121,B.336,1,2,121,Washington Park MAX Station,45.510661,-122.717244
10572,B.336,0,1,58,Parkrose/Sumner TC MAX Station,45.559201,-122.56538
10573,B.336,1,1,58,Parkrose/Sumner TC MAX Station,45.558829,-122.565861
10574,B.336,0,1,58,Cascades MAX Station,45.57239,-122.55829
10575,B.336,1,1,58,Cascades MAX Station,45.572075,-122.5577
10576,B.336,0,1,58,Mt Hood Ave MAX Station,45.577359,-122.567151
10577,B.336,1,1,58,Mt Hood Ave MAX Station,45.576861,-122.567141
10579,B.336,0,1,58,Portland Int'l Airport MAX Station,45.587584,-122.5931
10579,B.336,1,1,58,Portland Int'l Airport MAX Station,45.587584,-122.5931
11498,B.336,0,1,60,Expo Center MAX Station,45.605354,-122.685706
11498,B.336,1,1,60,Expo Center MAX Station,45.605354,-122.685706
11499,B.336,1,1,60,Delta Park/Vanport MAX Station,45.596125,-122.685683
11500,B.336,1,1,60,Kenton/N Denver Ave MAX Station,45.5837,-122.685662
11501,B.336,1,1,60,N Lombard TC MAX Station,45.5764,-122.68216
11502,B.336,1,1,60,Rosa Parks MAX Station,45.56914,-122.682223
11503,B.336,1,1,60,N Killingsworth St MAX Station,45.562026,-122.682312
11504,B.336,1,1,60,N Prescott St MAX Station,45.555183,-122.68232
11505,B.336,1,1,60,Overlook Park MAX Station,45.548939,-122.681069
11506,B.336,1,1,60,Albina/Mississippi MAX Station,45.539408,-122.675231
11507,B.336,1,1,60,Interstate/Rose Quarter MAX Station,45.530019,-122.66758
11508,B.336,0,1,60,Interstate/Rose Quarter MAX Station,45.530354,-122.668085
11509,B.336,0,1,60,Albina/Mississippi MAX Station,45.539702,-122.675763
11510,B.336,0,1,60,Overlook Park MAX Station,45.548478,-122.680953
11511,B.336,0,1,60,N Prescott St MAX Station,45.55524,-122.682284
11512,B.336,0,1,60,N Killingsworth St MAX Station,45.56331,-122.682175
11513,B.336,0,1,60,Rosa Parks MAX Station,45.570606,-122.682083
11514,B.336,0,1,60,N Lombard TC MAX Station,45.577827,-122.682035
11515,B.336,0,1,60,Kenton/N Denver Ave MAX Station,45.58402,-122.686188
11516,B.336,0,1,60,Delta Park/Vanport MAX Station,45.59612,-122.685563
13123,B.336,0,2,103,SW 6th & Madison St MAX Station,45.515633,-122.680381
13124,B.336,0,1,49,SE Main St MAX Station,45.513986,-122.564467
13125,B.336,0,1,49,SE Division St MAX Station,45.503123,-122.566663
13126,B.336,0,1,49,SE Powell Blvd MAX Station,45.495503,-122.56617
13127,B.336,0,1,49,SE Holgate Blvd MAX Station,45.490868,-122.566315
13128,B.336,0,1,49,Lents/SE Foster Rd MAX Station,45.480188,-122.566871
13129,B.336,0,1,49,SE Flavel St MAX Station,45.467602,-122.566761
13130,B.336,0,1,49,SE Fuller Rd MAX Station,45.453138,-122.573578
13132,B.336,0,1,49,Clackamas Town Center TC MAX Station,45.435721,-122.567769
13132,B.336,1,1,49,Clackamas Town Center TC MAX Station,45.435721,-122.567769
13133,B.336,1,1,49,SE Fuller Rd MAX Station,45.453637,-122.573656
13134,B.336,1,1,49,SE Flavel St MAX Station,45.468068,-122.566542
13135,B.336,1,1,49,Lents/SE Foster Rd MAX Station,45.480686,-122.566745
13136,B.336,1,1,49,SE Holgate Blvd MAX Station,45.491369,-122.566229
13137,B.336,1,1,49,SE Powell Blvd MAX Station,45.495991,-122.566198
13138,B.336,1,1,49,SE Division St MAX Station,45.503608,-122.566584
13139,B.336,1,1,49,SE Main St MAX Station,45.514525,-122.564413
13449,B.336,1,1,63,Civic Drive MAX Station,45.508298,-122.441819
13450,B.336,0,1,70,Civic Drive MAX Station,45.507972,-122.441302
7601,B.336,1,2,103,Union Station/NW 5th & Glisan St MAX Stn,45.526732,-122.675604
7608,B.336,1,2,103,City Hall/SW 5th & Jefferson St MAX Stn,45.514914,-122.679742
7618,B.336,1,2,103,PSU/SW 5th & Mill St MAX Station,45.511645,-122.681551
7627,B.336,1,2,103,SW 5th & Oak St MAX Station,45.521573,-122.676178
7646,B.336,1,2,103,Pioneer Place/SW 5th Ave MAX Station,45.518255,-122.677934
7763,B.336,0,2,103,Union Station/NW 6th & Hoyt St MAX Stn,45.527222,-122.676517
7774,B.336,0,2,103,PSU/SW 6th & Montgomery MAX Station,45.511583,-122.682578
7777,B.336,0,2,103,Pioneer Courthouse/SW 6th Ave MAX Stn,45.518964,-122.678558
7787,B.336,0,2,103,SW 6th & Pine St MAX Station,45.522323,-122.676756
8333,B.336,0,2,121,Library/SW 9th Ave MAX Station,45.51916,-122.68162
8334,B.336,0,2,121,Pioneer Square South MAX Station,45.518496,-122.679145
8335,B.336,0,2,121,Mall/SW 4th Ave MAX Station,45.517942,-122.677088
8336,B.336,0,2,121,Yamhill District MAX Station,45.517153,-122.674172
8337,B.336,0,2,121,Oak/SW 1st Ave MAX Station,45.52028,-122.672146
8338,B.336,0,2,121,Skidmore Fountain MAX Station,45.523095,-122.671256
8339,B.336,0,2,121,Old Town/Chinatown MAX Station,45.52518,-122.671353
8340,B.336,0,3,173,Rose Quarter TC MAX Station,45.530057,-122.664917
8340,B.336,1,1,4,Rose Quarter TC MAX Station,45.530057,-122.664917
8341,B.336,0,3,171,Convention Center MAX Station,45.530052,-122.661908
8342,B.336,0,3,171,NE 7th Ave MAX Station,45.530055,-122.65774
8343,B.336,0,3,171,Lloyd Center/NE 11th Ave MAX Station,45.530067,-122.653638
8344,B.336,0,3,171,Hollywood/NE 42nd Ave TC MAX Station,45.532772,-122.620708
8345,B.336,0,3,171,NE 60th Ave MAX Station,45.528764,-122.602703
8346,B.336,0,3,171,NE 82nd Ave MAX Station,45.533221,-122.577794
8347,B.336,0,3,183,Gateway/NE 99th Ave TC MAX Station,45.530269,-122.563578
8347,B.336,1,2,12,Gateway/NE 99th Ave TC MAX Station,45.530269,-122.563578
8348,B.336,0,1,76,E 102nd Ave MAX Station,45.52258,-122.557314
8349,B.336,0,1,76,E 122nd Ave MAX Station,45.522454,-122.536784
8350,B.336,0,1,76,E 148th Ave MAX Station,45.522237,-122.509687
8351,B.336,0,1,76,E 162nd Ave MAX Station,45.522115,-122.495488
8352,B.336,0,1,76,E 172nd Ave MAX Station,45.522048,-122.485173
8353,B.336,0,1,76,E 181st Ave MAX Station,45.521932,-122.476143
8354,B.336,0,1,76,Rockwood/E 188th Ave MAX Station,45.520398,-122.470537
8355,B.336,0,1,76,Ruby Junction/E 197th Ave MAX Station,45.515577,-122.459174
8356,B.336,0,1,70,Gresham City Hall MAX Station,45.505687,-122.435826
8357,B.336,0,1,70,Gresham Central TC MAX Station,45.502473,-122.426643
8359,B.336,0,1,70,Cleveland Ave MAX Station,45.501772,-122.41845
8359,B.336,1,1,63,Cleveland Ave MAX Station,45.501772,-122.41845
8360,B.336,1,1,63,Gresham Central TC MAX Station,45.502705,-122.427348
8361,B.336,1,1,63,Gresham City Hall MAX Station,45.505981,-122.436285
8362,B.336,1,1,76,Ruby Junction/E 197th Ave MAX Station,45.516502,-122.461119
8363,B.336,1,1,76,Rockwood/E 188th Ave MAX Station,45.520723,-122.471093
8364,B.336,1,1,76,E 181st Ave MAX Station,45.522065,-122.478074
8365,B.336,1,1,76,E 172nd Ave MAX Station,45.52214,-122.48714
8366,B.336,1,1,76,E 162nd Ave MAX Station,45.522223,-122.497437
8367,B.336,1,1,76,E 148th Ave MAX Station,45.522344,-122.511614
8368,B.336,1,1,76,E 122nd Ave MAX Station,45.522548,-122.538743
8369,B.336,1,1,76,E 102nd Ave MAX Station,45.522691,-122.559244
8370,B.336,1,3,197,Gateway/NE 99th Ave TC MAX Station,45.530839,-122.563627
8371,B.336,1,3,171,NE 82nd Ave MAX Station,45.533478,-122.578437
8372,B.336,1,3,171,NE 60th Ave MAX Station,45.528491,-122.603342
8373,B.336,1,3,171,Hollywood/NE 42nd Ave TC MAX Station,45.532957,-122.621367
8374,B.336,1,3,171,Lloyd Center/NE 11th Ave MAX Station,45.530146,-122.654335
8375,B.336,1,3,171,NE 7th Ave MAX Station,45.53015,-122.658277
8376,B.336,1,3,171,Convention Center MAX Station,45.530138,-122.66254
8377,B.336,0,1,3,Rose Quarter TC MAX Station,45.530233,-122.665534
8377,B.336,1,3,171,Rose Quarter TC MAX Station,45.530233,-122.665534
8378,B.336,1,2,121,Old Town/Chinatown MAX Station,45.524695,-122.671467
8379,B.336,1,2,121,Skidmore Fountain MAX Station,45.522873,-122.67139
8380,B.336,1,2,121,Oak/ SW 1st Ave MAX Station,45.51986,-122.672523
8381,B.336,1,2,121,Morrison/SW 3rd Ave MAX Station,45.518181,-122.675386
8382,B.336,1,2,121,Mall/SW 5th Ave MAX Station,45.518701,-122.677402
8383,B.336,1,2,121,Pioneer Square North MAX Station,45.519253,-122.679475
8384,B.336,1,2,121,Galleria/SW 10th Ave MAX Station,45.51991,-122.681919
9299,B.336,0,2,103,NW 6th & Davis St MAX Station,45.524405,-122.676429
9303,B.336,1,2,103,NW 5th & Couch St MAX Station,45.523885,-122.675498
9624,B.336,1,2,121,Sunset TC MAX Station,45.510383,-122.781299
9757,B.336,1,2,121,JELD-WEN Field MAX Station,45.521833,-122.689816
9758,B.336,0,2,121,JELD-WEN Field MAX Station,45.521321,-122.689886
9759,B.336,0,2,121,Kings Hill/SW Salmon St MAX Station,45.520592,-122.691005
9818,B.336,1,1,72,Beaverton TC MAX Station,45.49133,-122.801723
9819,B.336,1,1,72,Beaverton Creek MAX Station,45.500584,-122.833325
9820,B.336,1,2,121,Kings Hill/SW Salmon St MAX Station,45.520207,-122.69132
9821,B.336,0,2,121,Beaverton TC MAX Station,45.491696,-122.8012
9821,B.336,1,1,49,Beaverton TC MAX Station,45.491696,-122.8012
9822,B.336,0,2,72,Beaverton Creek MAX Station,45.500249,-122.832785
9823,B.336,1,1,72,Beaverton Central MAX Station,45.490425,-122.807441
9824,B.336,0,2,72,Beaverton Central MAX Station,45.490501,-122.806766
9825,B.336,1,1,72,Millikan Way MAX Station,45.495421,-122.821806
9826,B.336,0,2,72,Millikan Way MAX Station,45.495102,-122.821238
9827,B.336,1,1,72,Merlo Rd/SW 158th Ave MAX Station,45.505399,-122.842424
9828,B.336,0,2,72,Merlo Rd/SW 158th Ave MAX Station,45.505058,-122.841872
9829,B.336,1,1,79,Elmonica/SW 170th Ave MAX Station,45.510134,-122.851732
9830,B.336,0,2,73,Elmonica/SW 170th Ave MAX Station,45.509777,-122.851193
9831,B.336,0,1,65,Willow Creek/SW 185th Ave TC MAX Station,45.517117,-122.869874
9832,B.336,1,1,78,Willow Creek/SW 185th Ave TC MAX Station,45.517375,-122.870518
9833,B.336,1,1,69,Quatama/NW 205th Ave MAX Station,45.523319,-122.889131
9834,B.336,0,1,65,Quatama/NW 205th Ave MAX Station,45.523082,-122.888511
9835,B.336,0,1,65,Orenco/NW 231st Ave MAX Station,45.530257,-122.915467
9836,B.336,1,1,69,Orenco/NW 231st Ave MAX Station,45.530298,-122.916198
9837,B.336,1,1,69,Fair Complex/Hillsboro Airport MAX Stn,45.526924,-122.946499
9838,B.336,0,1,65,Fair Complex/Hillsboro Airport MAX Stn,45.527041,-122.945808
9839,B.336,0,1,65,Hawthorn Farm MAX Station,45.530012,-122.93038
9840,B.336,1,1,69,Hawthorn Farm MAX Station,45.529921,-122.93112
9841,B.336,0,1,65,Washington/SE 12th Ave MAX Station,45.521102,-122.969152
9842,B.336,1,1,69,Washington/SE 12th Ave MAX Station,45.521231,-122.969867
9843,B.336,0,1,65,Tuality Hospital/SE 8th Ave MAX Station,45.521288,-122.978017
9844,B.336,1,1,69,Tuality Hospital/SE 8th Ave MAX Station,45.521315,-122.978728
9845,B.336,1,1,69,Hillsboro Central/SE 3rd TC MAX Station,45.521385,-122.985596
9846,B.336,0,1,65,Hillsboro Central/SE 3rd TC MAX Station,45.521357,-122.984926
9848,B.336,0,1,65,Hatfield Government Center MAX Station,45.522204,-122.991022
9848,B.336,1,1,69,Hatfield Government Center MAX Station,45.522204,-122.991022
9969,B.336,0,2,121,Sunset TC MAX Station,45.510098,-122.780757
10117,C.334,1,2,107,Goose Hollow/SW Jefferson St MAX Station,45.518236,-122.694089
10118,C.334,0,2,107,Goose Hollow/SW Jefferson St MAX Station,45.517989,-122.693544
10120,C.334,0,2,107,Washington Park MAX Station,45.510653,-122.71634
10121,C.334,1,2,107,Washington Park MAX Station,45.510661,-122.717244
10572,C.334,0,1,54,Parkrose/Sumner TC MAX Station,45.559201,-122.56538
10573,C.334,1,1,54,Parkrose/Sumner TC MAX Station,45.558829,-122.565861
10574,C.334,0,1,54,Cascades MAX Station,45.57239,-122.55829
10575,C.334,1,1,54,Cascades MAX Station,45.572075,-122.5577
10576,C.334,0,1,54,Mt Hood Ave MAX Station,45.577359,-122.567151
10577,C.334,1,1,54,Mt Hood Ave MAX Station,45.576861,-122.567141
10579,C.334,0,1,54,Portland Int'l Airport MAX Station,45.587584,-122.5931
10579,C.334,1,1,54,Portland Int'l Airport MAX Station,45.587584,-122.5931
11498,C.334,0,1,55,Expo Center MAX Station,45.605354,-122.685706
11498,C.334,1,1,55,Expo Center MAX Station,45.605354,-122.685706
11499,C.334,1,1,55,Delta Park/Vanport MAX Station,45.596125,-122.685683
11500,C.334,1,1,55,Kenton/N Denver Ave MAX Station,45.5837,-122.685662
11501,C.334,1,1,55,N Lombard TC MAX Station,45.5764,-122.68216
11502,C.334,1,1,55,Rosa Parks MAX Station,45.56914,-122.682223
11503,C.334,1,1,55,N Killingsworth St MAX Station,45.562026,-122.682312
11504,C.334,1,1,55,N Prescott St MAX Station,45.555183,-122.68232
11505,C.334,1,1,55,Overlook Park MAX Station,45.548939,-122.681069
11506,C.334,1,1,55,Albina/Mississippi MAX Station,45.539408,-122.675231
11507,C.334,1,1,55,Interstate/Rose Quarter MAX Station,45.530019,-122.66758
11508,C.334,0,1,55,Interstate/Rose Quarter MAX Station,45.530354,-122.668085
11509,C.334,0,1,55,Albina/Mississippi MAX Station,45.539702,-122.675763
11510,C.334,0,1,55,Overlook Park MAX Station,45.548478,-122.680953
11511,C.334,0,1,55,N Prescott St MAX Station,45.55524,-122.682284
11512,C.334,0,1,55,N Killingsworth St MAX Station,45.56331,-122.682175
11513,C.334,0,1,55,Rosa Parks MAX Station,45.570606,-122.682083
11514,C.334,0,1,55,N Lombard TC MAX Station,45.577827,-122.682035
11515,C.334,0,1,55,Kenton/N Denver Ave MAX Station,45.58402,-122.686188
11516,C.334,0,1,55,Delta Park/Vanport MAX Station,45.59612,-122.685563
13123,C.334,0,2,94,SW 6th & Madison St MAX Station,45.515633,-122.680381
13124,C.334,0,1,45,SE Main St MAX Station,45.513986,-122.564467
13125,C.334,0,1,45,SE Division St MAX Station,45.503123,-122.566663
13126,C.334,0,1,45,SE Powell Blvd MAX Station,45.495503,-122.56617
13127,C.334,0,1,45,SE Holgate Blvd MAX Station,45.490868,-122.566315
13128,C.334,0,1,45,Lents/SE Foster Rd MAX Station,45.480188,-122.566871
13129,C.334,0,1,45,SE Flavel St MAX Station,45.467602,-122.566761
13130,C.334,0,1,45,SE Fuller Rd MAX Station,45.453138,-122.573578
13132,C.334,0,1,45,Clackamas Town Center TC MAX Station,45.435721,-122.567769
13132,C.334,1,1,45,Clackamas Town Center TC MAX Station,45.435721,-122.567769
13133,C.334,1,1,45,SE Fuller Rd MAX Station,45.453637,-122.573656
13134,C.334,1,1,45,SE Flavel St MAX Station,45.468068,-122.566542
13135,C.334,1,1,45,Lents/SE Foster Rd MAX Station,45.480686,-122.566745
13136,C.334,1,1,45,SE Holgate Blvd MAX Station,45.491369,-122.566229
13137,C.334,1,1,45,SE Powell Blvd MAX Station,45.495991,-122.566198
13138,C.334,1,1,45,SE Division St MAX Station,45.503608,-122.566584
13139,C.334,1,1,45,SE Main St MAX Station,45.514525,-122.564413
13449,C.334,1,1,53,Civic Drive MAX Station,45.508298,-122.441819
13450,C.334,0,1,59,Civic Drive MAX Station,45.507972,-122.441302
7601,C.334,1,2,94,Union Station/NW 5th & Glisan St MAX Stn,45.526732,-122.675604
7608,C.334,1,2,94,City Hall/SW 5th & Jefferson St MAX Stn,45.514914,-122.679742
7618,C.334,1,2,94,PSU/SW 5th & Mill St MAX Station,45.511645,-122.681551
7627,C.334,1,2,94,SW 5th & Oak St MAX Station,45.521573,-122.676178
7646,C.334,1,2,94,Pioneer Place/SW 5th Ave MAX Station,45.518255,-122.677934
7763,C.334,0,2,94,Union Station/NW 6th & Hoyt St MAX Stn,45.527222,-122.676517
7774,C.334,0,2,94,PSU/SW 6th & Montgomery MAX Station,45.511583,-122.682578
7777,C.334,0,2,94,Pioneer Courthouse/SW 6th Ave MAX Stn,45.518964,-122.678558
7787,C.334,0,2,94,SW 6th & Pine St MAX Station,45.522323,-122.676756
8333,C.334,0,2,107,Library/SW 9th Ave MAX Station,45.51916,-122.68162
8334,C.334,0,2,107,Pioneer Square South MAX Station,45.518496,-122.679145
8335,C.334,0,2,107,Mall/SW 4th Ave MAX Station,45.517942,-122.677088
8336,C.334,0,2,107,Yamhill District MAX Station,45.517153,-122.674172
8337,C.334,0,2,107,Oak/SW 1st Ave MAX Station,45.52028,-122.672146
8338,C.334,0,2,107,Skidmore Fountain MAX Station,45.523095,-122.671256
8339,C.334,0,2,107,Old Town/Chinatown MAX Station,45.52518,-122.671353
8340,C.334,0,3,157,Rose Quarter TC MAX Station,45.530057,-122.664917
8340,C.334,1,1,4,Rose Quarter TC MAX Station,45.530057,-122.664917
8341,C.334,0,3,155,Convention Center MAX Station,45.530052,-122.661908
8342,C.334,0,3,155,NE 7th Ave MAX Station,45.530055,-122.65774
8343,C.334,0,3,155,Lloyd Center/NE 11th Ave MAX Station,45.530067,-122.653638
8344,C.334,0,3,155,Hollywood/NE 42nd Ave TC MAX Station,45.532772,-122.620708
8345,C.334,0,3,155,NE 60th Ave MAX Station,45.528764,-122.602703
8346,C.334,0,3,155,NE 82nd Ave MAX Station,45.533221,-122.577794
8347,C.334,0,3,165,Gateway/NE 99th Ave TC MAX Station,45.530269,-122.563578
8347,C.334,1,2,10,Gateway/NE 99th Ave TC MAX Station,45.530269,-122.563578
8348,C.334,0,1,66,E 102nd Ave MAX Station,45.52258,-122.557314
8349,C.334,0,1,66,E 122nd Ave MAX Station,45.522454,-122.536784
8350,C.334,0,1,66,E 148th Ave MAX Station,45.522237,-122.509687
8351,C.334,0,1,66,E 162nd Ave MAX Station,45.522115,-122.495488
8352,C.334,0,1,66,E 172nd Ave MAX Station,45.522048,-122.485173
8353,C.334,0,1,66,E 181st Ave MAX Station,45.521932,-122.476143
8354,C.334,0,1,66,Rockwood/E 188th Ave MAX Station,45.520398,-122.470537
8355,C.334,0,1,66,Ruby Junction/E 197th Ave MAX Station,45.515577,-122.459174
8356,C.334,0,1,59,Gresham City Hall MAX Station,45.505687,-122.435826
8357,C.334,0,1,59,Gresham Central TC MAX Station,45.502473,-122.426643
8359,C.334,0,1,59,Cleveland Ave MAX Station,45.501772,-122.41845
8359,C.334,1,1,53,Cleveland Ave MAX Station,45.501772,-122.41845
8360,C.334,1,1,53,Gresham Central TC MAX Station,45.502705,-122.427348
8361,C.334,1,1,53,Gresham City Hall MAX Station,45.505981,-122.436285
8362,C.334,1,1,66,Ruby Junction/E 197th Ave MAX Station,45.516502,-122.461119
8363,C.334,1,1,66,Rockwood/E 188th Ave MAX Station,45.520723,-122.471093
8364,C.334,1,1,66,E 181st Ave MAX Station,45.522065,-122.478074
8365,C.334,1,1,66,E 172nd Ave MAX Station,45.52214,-122.48714
8366,C.334,1,1,66,E 162nd Ave MAX Station,45.522223,-122.497437
8367,C.334,1,1,66,E 148th Ave MAX Station,45.522344,-122.511614
8368,C.334,1,1,66,E 122nd Ave MAX Station,45.522548,-122.538743
8369,C.334,1,1,66,E 102nd Ave MAX Station,45.522691,-122.559244
8370,C.334,1,3,179,Gateway/NE 99th Ave TC MAX Station,45.530839,-122.563627
8371,C.334,1,3,155,NE 82nd Ave MAX Station,45.533478,-122.578437
8372,C.334,1,3,155,NE 60th Ave MAX Station,45.528491,-122.603342
8373,C.334,1,3,155,Hollywood/NE 42nd Ave TC MAX Station,45.532957,-122.621367
8374,C.334,1,3,155,Lloyd Center/NE 11th Ave MAX Station,45.530146,-122.654335
8375,C.334,1,3,155,NE 7th Ave MAX Station,45.53015,-122.658277
8376,C.334,1,3,155,Convention Center MAX Station,45.530138,-122.66254
8377,C.334,0,1,5,Rose Quarter TC MAX Station,45.530233,-122.665534
8377,C.334,1,3,155,Rose Quarter TC MAX Station,45.530233,-122.665534
8378,C.334,1,2,107,Old Town/Chinatown MAX Station,45.524695,-122.671467
8379,C.334,1,2,107,Skidmore Fountain MAX Station,45.522873,-122.67139
8380,C.334,1,2,107,Oak/ SW 1st Ave MAX Station,45.51986,-122.672523
8381,C.334,1,2,107,Morrison/SW 3rd Ave MAX Station,45.518181,-122.675386
8382,C.334,1,2,107,Mall/SW 5th Ave MAX Station,45.518701,-122.677402
8383,C.334,1,2,107,Pioneer Square North MAX Station,45.519253,-122.679475
8384,C.334,1,2,107,Galleria/SW 10th Ave MAX Station,45.51991,-122.681919
9299,C.334,0,2,94,NW 6th & Davis St MAX Station,45.524405,-122.676429
9303,C.334,1,2,94,NW 5th & Couch St MAX Station,45.523885,-122.675498
9624,C.334,1,2,107,Sunset TC MAX Station,45.510383,-122.781299
9757,C.334,1,2,107,JELD-WEN Field MAX Station,45.521833,-122.689816
9758,C.334,0,2,107,JELD-WEN Field MAX Station,45.521321,-122.689886
9759,C.334,0,2,107,Kings Hill/SW Salmon St MAX Station,45.520592,-122.691005
9818,C.334,1,1,62,Beaverton TC MAX Station,45.49133,-122.801723
9819,C.334,1,1,62,Beaverton Creek MAX Station,45.500584,-122.833325
9820,C.334,1,2,107,Kings Hill/SW Salmon St MAX Station,45.520207,-122.69132
9821,C.334,0,2,107,Beaverton TC MAX Station,45.491696,-122.8012
9821,C.334,1,1,45,Beaverton TC MAX Station,45.491696,-122.8012
9822,C.334,0,2,62,Beaverton Creek MAX Station,45.500249,-122.832785
9823,C.334,1,1,62,Beaverton Central MAX Station,45.490425,-122.807441
9824,C.334,0,2,62,Beaverton Central MAX Station,45.490501,-122.806766
9825,C.334,1,1,62,Millikan Way MAX Station,45.495421,-122.821806
9826,C.334,0,2,62,Millikan Way MAX Station,45.495102,-122.821238
9827,C.334,1,1,62,Merlo Rd/SW 158th Ave MAX Station,45.505399,-122.842424
9828,C.334,0,2,62,Merlo Rd/SW 158th Ave MAX Station,45.505058,-122.841872
9829,C.334,1,1,70,Elmonica/SW 170th Ave MAX Station,45.510134,-122.851732
9830,C.334,0,2,65,Elmonica/SW 170th Ave MAX Station,45.509777,-122.851193
9831,C.334,0,1,57,Willow Creek/SW 185th Ave TC MAX Station,45.517117,-122.869874
9832,C.334,1,1,70,Willow Creek/SW 185th Ave TC MAX Station,45.517375,-122.870518
9833,C.334,1,1,61,Quatama/NW 205th Ave MAX Station,45.523319,-122.889131
9834,C.334,0,1,57,Quatama/NW 205th Ave MAX Station,45.523082,-122.888511
9835,C.334,0,1,57,Orenco/NW 231st Ave MAX Station,45.530257,-122.915467
9836,C.334,1,1,61,Orenco/NW 231st Ave MAX Station,45.530298,-122.916198
9837,C.334,1,1,61,Fair Complex/Hillsboro Airport MAX Stn,45.526924,-122.946499
9838,C.334,0,1,57,Fair Complex/Hillsboro Airport MAX Stn,45.527041,-122.945808
9839,C.334,0,1,57,Hawthorn Farm MAX Station,45.530012,-122.93038
9840,C.334,1,1,61,Hawthorn Farm MAX Station,45.529921,-122.93112
9841,C.334,0,1,57,Washington/SE 12th Ave MAX Station,45.521102,-122.969152
9842,C.334,1,1,61,Washington/SE 12th Ave MAX Station,45.521231,-122.969867
9843,C.334,0,1,57,Tuality Hospital/SE 8th Ave MAX Station,45.521288,-122.978017
9844,C.334,1,1,61,Tuality Hospital/SE 8th Ave MAX Station,45.521315,-122.978728
9845,C.334,1,1,61,Hillsboro Central/SE 3rd TC MAX Station,45.521385,-122.985596
9846,C.334,0,1,57,Hillsboro Central/SE 3rd TC MAX Station,45.521357,-122.984926
9848,C.334,0,1,57,Hatfield Government Center MAX Station,45.522204,-122.991022
9848,C.334,1,1,61,Hatfield Government Center MAX Station,45.522204,-122.991022
9969,C.334,0,2,107,Sunset TC MAX Station,45.510098,-122.780757
10117,C.336,1,2,107,Goose Hollow/SW Jefferson St MAX Station,45.518236,-122.694089
10118,C.336,0,2,107,Goose Hollow/SW Jefferson St MAX Station,45.517989,-122.693544
10120,C.336,0,2,107,Washington Park MAX Station,45.510653,-122.71634
10121,C.336,1,2,107,Washington Park MAX Station,45.510661,-122.717244
10572,C.336,0,1,54,Parkrose/Sumner TC MAX Station,45.559201,-122.56538
10573,C.336,1,1,54,Parkrose/Sumner TC MAX Station,45.558829,-122.565861
10574,C.336,0,1,54,Cascades MAX Station,45.57239,-122.55829
10575,C.336,1,1,54,Cascades MAX Station,45.572075,-122.5577
10576,C.336,0,1,54,Mt Hood Ave MAX Station,45.577359,-122.567151
10577,C.336,1,1,54,Mt Hood Ave MAX Station,45.576861,-122.567141
10579,C.336,0,1,54,Portland Int'l Airport MAX Station,45.587584,-122.5931
10579,C.336,1,1,54,Portland Int'l Airport MAX Station,45.587584,-122.5931
11498,C.336,0,1,55,Expo Center MAX Station,45.605354,-122.685706
11498,C.336,1,1,55,Expo Center MAX Station,45.605354,-122.685706
11499,C.336,1,1,55,Delta Park/Vanport MAX Station,45.596125,-122.685683
11500,C.336,1,1,55,Kenton/N Denver Ave MAX Station,45.5837,-122.685662
11501,C.336,1,1,55,N Lombard TC MAX Station,45.5764,-122.68216
11502,C.336,1,1,55,Rosa Parks MAX Station,45.56914,-122.682223
11503,C.336,1,1,55,N Killingsworth St MAX Station,45.562026,-122.682312
11504,C.336,1,1,55,N Prescott St MAX Station,45.555183,-122.68232
11505,C.336,1,1,55,Overlook Park MAX Station,45.548939,-122.681069
11506,C.336,1,1,55,Albina/Mississippi MAX Station,45.539408,-122.675231
11507,C.336,1,1,55,Interstate/Rose Quarter MAX Station,45.530019,-122.66758
11508,C.336,0,1,55,Interstate/Rose Quarter MAX Station,45.530354,-122.668085
11509,C.336,0,1,55,Albina/Mississippi MAX Station,45.539702,-122.675763
11510,C.336,0,1,55,Overlook Park MAX Station,45.548478,-122.680953
11511,C.336,0,1,55,N Prescott St MAX Station,45.55524,-122.682284
11512,C.336,0,1,55,N Killingsworth St MAX Station,45.56331,-122.682175
11513,C.336,0,1,55,Rosa Parks MAX Station,45.570606,-122.682083
11514,C.336,0,1,55,N Lombard TC MAX Station,45.577827,-122.682035
11515,C.336,0,1,55,Kenton/N Denver Ave MAX Station,45.58402,-122.686188
11516,C.336,0,1,55,Delta Park/Vanport MAX Station,45.59612,-122.685563
13123,C.336,0,2,94,SW 6th & Madison St MAX Station,45.515633,-122.680381
13124,C.336,0,1,45,SE Main St MAX Station,45.513986,-122.564467
13125,C.336,0,1,45,SE Division St MAX Station,45.503123,-122.566663
13126,C.336,0,1,45,SE Powell Blvd MAX Station,45.495503,-122.56617
13127,C.336,0,1,45,SE Holgate Blvd MAX Station,45.490868,-122.566315
13128,C.336,0,1,45,Lents/SE Foster Rd MAX Station,45.480188,-122.566871
13129,C.336,0,1,45,SE Flavel St MAX Station,45.467602,-122.566761
13130,C.336,0,1,45,SE Fuller Rd MAX Station,45.453138,-122.573578
13132,C.336,0,1,45,Clackamas Town Center TC MAX Station,45.435721,-122.567769
13132,C.336,1,1,45,Clackamas Town Center TC MAX Station,45.435721,-122.567769
13133,C.336,1,1,45,SE Fuller Rd MAX Station,45.453637,-122.573656
13134,C.336,1,1,45,SE Flavel St MAX Station,45.468068,-122.566542
13135,C.336,1,1,45,Lents/SE Foster Rd MAX Station,45.480686,-122.566745
13136,C.336,1,1,45,SE Holgate Blvd MAX Station,45.491369,-122.566229
13137,C.336,1,1,45,SE Powell Blvd MAX Station,45.495991,-122.566198
13138,C.336,1,1,45,SE Division St MAX Station,45.503608,-122.566584
13139,C.336,1,1,45,SE Main St MAX Station,45.514525,-122.564413
13449,C.336,1,1,53,Civic Drive MAX Station,45.508298,-122.441819
13450,C.336,0,1,59,Civic Drive MAX Station,45.507972,-122.441302
7601,C.336,1,2,94,Union Station/NW 5th & Glisan St MAX Stn,45.526732,-122.675604
7608,C.336,1,2,94,City Hall/SW 5th & Jefferson St MAX Stn,45.514914,-122.679742
7618,C.336,1,2,94,PSU/SW 5th & Mill St MAX Station,45.511645,-122.681551
7627,C.336,1,2,94,SW 5th & Oak St MAX Station,45.521573,-122.676178
7646,C.336,1,2,94,Pioneer Place/SW 5th Ave MAX Station,45.518255,-122.677934
7763,C.336,0,2,94,Union Station/NW 6th & Hoyt St MAX Stn,45.527222,-122.676517
7774,C.336,0,2,94,PSU/SW 6th & Montgomery MAX Station,45.511583,-122.682578
7777,C.336,0,2,94,Pioneer Courthouse/SW 6th Ave MAX Stn,45.518964,-122.678558
7787,C.336,0,2,94,SW 6th & Pine St MAX Station,45.522323,-122.676756
8333,C.336,0,2,107,Library/SW 9th Ave MAX Station,45.51916,-122.68162
8334,C.336,0,2,107,Pioneer Square South MAX Station,45.518496,-122.679145
8335,C.336,0,2,107,Mall/SW 4th Ave MAX Station,45.517942,-122.677088
8336,C.336,0,2,107,Yamhill District MAX Station,45.517153,-122.674172
8337,C.336,0,2,107,Oak/SW 1st Ave MAX Station,45.52028,-122.672146
8338,C.336,0,2,107,Skidmore Fountain MAX Station,45.523095,-122.671256
8339,C.336,0,2,107,Old Town/Chinatown MAX Station,45.52518,-122.671353
8340,C.336,0,3,157,Rose Quarter TC MAX Station,45.530057,-122.664917
8340,C.336,1,1,4,Rose Quarter TC MAX Station,45.530057,-122.664917
8341,C.336,0,3,155,Convention Center MAX Station,45.530052,-122.661908
8342,C.336,0,3,155,NE 7th Ave MAX Station,45.530055,-122.65774
8343,C.336,0,3,155,Lloyd Center/NE 11th Ave MAX Station,45.530067,-122.653638
8344,C.336,0,3,155,Hollywood/NE 42nd Ave TC MAX Station,45.532772,-122.620708
8345,C.336,0,3,155,NE 60th Ave MAX Station,45.528764,-122.602703
8346,C.336,0,3,155,NE 82nd Ave MAX Station,45.533221,-122.577794
8347,C.336,0,3,165,Gateway/NE 99th Ave TC MAX Station,45.530269,-122.563578
8347,C.336,1,2,10,Gateway/NE 99th Ave TC MAX Station,45.530269,-122.563578
8348,C.336,0,1,66,E 102nd Ave MAX Station,45.52258,-122.557314
8349,C.336,0,1,66,E 122nd Ave MAX Station,45.522454,-122.536784
8350,C.336,0,1,66,E 148th Ave MAX Station,45.522237,-122.509687
8351,C.336,0,1,66,E 162nd Ave MAX Station,45.522115,-122.495488
8352,C.336,0,1,66,E 172nd Ave MAX Station,45.522048,-122.485173
8353,C.336,0,1,66,E 181st Ave MAX Station,45.521932,-122.476143
8354,C.336,0,1,66,Rockwood/E 188th Ave MAX Station,45.520398,-122.470537
8355,C.336,0,1,66,Ruby Junction/E 197th Ave MAX Station,45.515577,-122.459174
8356,C.336,0,1,59,Gresham City Hall MAX Station,45.505687,-122.435826
8357,C.336,0,1,59,Gresham Central TC MAX Station,45.502473,-122.426643
8359,C.336,0,1,59,Cleveland Ave MAX Station,45.501772,-122.41845
8359,C.336,1,1,53,Cleveland Ave MAX Station,45.501772,-122.41845
8360,C.336,1,1,53,Gresham Central TC MAX Station,45.502705,-122.427348
8361,C.336,1,1,53,Gresham City Hall MAX Station,45.505981,-122.436285
8362,C.336,1,1,66,Ruby Junction/E 197th Ave MAX Station,45.516502,-122.461119
8363,C.336,1,1,66,Rockwood/E 188th Ave MAX Station,45.520723,-122.471093
8364,C.336,1,1,66,E 181st Ave MAX Station,45.522065,-122.478074
8365,C.336,1,1,66,E 172nd Ave MAX Station,45.52214,-122.48714
8366,C.336,1,1,66,E 162nd Ave MAX Station,45.522223,-122.497437
8367,C.336,1,1,66,E 148th Ave MAX Station,45.522344,-122.511614
8368,C.336,1,1,66,E 122nd Ave MAX Station,45.522548,-122.538743
8369,C.336,1,1,66,E 102nd Ave MAX Station,45.522691,-122.559244
8370,C.336,1,3,179,Gateway/NE 99th Ave TC MAX Station,45.530839,-122.563627
8371,C.336,1,3,155,NE 82nd Ave MAX Station,45.533478,-122.578437
8372,C.336,1,3,155,NE 60th Ave MAX Station,45.528491,-122.603342
8373,C.336,1,3,155,Hollywood/NE 42nd Ave TC MAX Station,45.532957,-122.621367
8374,C.336,1,3,155,Lloyd Center/NE 11th Ave MAX Station,45.530146,-122.654335
8375,C.336,1,3,155,NE 7th Ave MAX Station,45.53015,-122.658277
8376,C.336,1,3,155,Convention Center MAX Station,45.530138,-122.66254
8377,C.336,0,1,5,Rose Quarter TC MAX Station,45.530233,-122.665534
8377,C.336,1,3,155,Rose Quarter TC MAX Station,45.530233,-122.665534
8378,C.336,1,2,107,Old Town/Chinatown MAX Station,45.524695,-122.671467
8379,C.336,1,2,107,Skidmore Fountain MAX Station,45.522873,-122.67139
8380,C.336,1,2,107,Oak/ SW 1st Ave MAX Station,45.51986,-122.672523
8381,C.336,1,2,107,Morrison/SW 3rd Ave MAX Station,45.518181,-122.675386
8382,C.336,1,2,107,Mall/SW 5th Ave MAX Station,45.518701,-122.677402
8383,C.336,1,2,107,Pioneer Square North MAX Station,45.519253,-122.679475
8384,C.336,1,2,107,Galleria/SW 10th Ave MAX Station,45.51991,-122.681919
9299,C.336,0,2,94,NW 6th & Davis St MAX Station,45.524405,-122.676429
9303,C.336,1,2,94,NW 5th & Couch St MAX Station,45.523885,-122.675498
9624,C.336,1,2,107,Sunset TC MAX Station,45.510383,-122.781299
9757,C.336,1,2,107,JELD-WEN Field MAX Station,45.521833,-122.689816
9758,C.336,0,2,107,JELD-WEN Field MAX Station,45.521321,-122.689886
9759,C.336,0,2,107,Kings Hill/SW Salmon St MAX Station,45.520592,-122.691005
9818,C.336,1,1,62,Beaverton TC MAX Station,45.49133,-122.801723
9819,C.336,1,1,62,Beaverton Creek MAX Station,45.500584,-122.833325
9820,C.336,1,2,107,Kings Hill/SW Salmon St MAX Station,45.520207,-122.69132
9821,C.336,0,2,107,Beaverton TC MAX Station,45.491696,-122.8012
9821,C.336,1,1,45,Beaverton TC MAX Station,45.491696,-122.8012
9822,C.336,0,2,62,Beaverton Creek MAX Station,45.500249,-122.832785
9823,C.336,1,1,62,Beaverton Central MAX Station,45.490425,-122.807441
9824,C.336,0,2,62,Beaverton Central MAX Station,45.490501,-122.806766
9825,C.336,1,1,62,Millikan Way MAX Station,45.495421,-122.821806
9826,C.336,0,2,62,Millikan Way MAX Station,45.495102,-122.821238
9827,C.336,1,1,62,Merlo Rd/SW 158th Ave MAX Station,45.505399,-122.842424
9828,C.336,0,2,62,Merlo Rd/SW 158th Ave MAX Station,45.505058,-122.841872
9829,C.336,1,1,70,Elmonica/SW 170th Ave MAX Station,45.510134,-122.851732
9830,C.336,0,2,65,Elmonica/SW 170th Ave MAX Station,45.509777,-122.851193
9831,C.336,0,1,57,Willow Creek/SW 185th Ave TC MAX Station,45.517117,-122.869874
9832,C.336,1,1,70,Willow Creek/SW 185th Ave TC MAX Station,45.517375,-122.870518
9833,C.336,1,1,61,Quatama/NW 205th Ave MAX Station,45.523319,-122.889131
9834,C.336,0,1,57,Quatama/NW 205th Ave MAX Station,45.523082,-122.888511
9835,C.336,0,1,57,Orenco/NW 231st Ave MAX Station,45.530257,-122.915467
9836,C.336,1,1,61,Orenco/NW 231st Ave MAX Station,45.530298,-122.916198
9837,C.336,1,1,61,Fair Complex/Hillsboro Airport MAX Stn,45.526924,-122.946499
9838,C.336,0,1,57,Fair Complex/Hillsboro Airport MAX Stn,45.527041,-122.945808
9839,C.336,0,1,57,Hawthorn Farm MAX Station,45.530012,-122.93038
9840,C.336,1,1,61,Hawthorn Farm MAX Station,45.529921,-122.93112
9841,C.336,0,1,57,Washington/SE 12th Ave MAX Station,45.521102,-122.969152
9842,C.336,1,1,61,Washington/SE 12th Ave MAX Station,45.521231,-122.969867
9843,C.336,0,1,57,Tuality Hospital/SE 8th Ave MAX Station,45.521288,-122.978017
9844,C.336,1,1,61,Tuality Hospital/SE 8th Ave MAX Station,45.521315,-122.978728
9845,C.336,1,1,61,Hillsboro Central/SE 3rd TC MAX Station,45.521385,-122.985596
9846,C.336,0,1,57,Hillsboro Central/SE 3rd TC MAX Station,45.521357,-122.984926
9848,C.336,0,1,57,Hatfield Government Center MAX Station,45.522204,-122.991022
9848,C.336,1,1,61,Hatfield Government Center MAX Station,45.522204,-122.991022
9969,C.336,0,2,107,Sunset TC MAX Station,45.510098,-122.780757
10117,p.334,1,2,23,Goose Hollow/SW Jefferson St MAX Station,45.518236,-122.694089
10118,p.334,0,2,23,Goose Hollow/SW Jefferson St MAX Station,45.517989,-122.693544
10120,p.334,0,2,23,Washington Park MAX Station,45.510653,-122.71634
10121,p.334,1,2,23,Washington Park MAX Station,45.510661,-122.717244
10572,p.334,0,1,8,Parkrose/Sumner TC MAX Station,45.559201,-122.56538
10573,p.334,1,1,8,Parkrose/Sumner TC MAX Station,45.558829,-122.565861
10574,p.334,0,1,8,Cascades MAX Station,45.57239,-122.55829
10575,p.334,1,1,8,Cascades MAX Station,45.572075,-122.5577
10576,p.334,0,1,8,Mt Hood Ave MAX Station,45.577359,-122.567151
10577,p.334,1,1,8,Mt Hood Ave MAX Station,45.576861,-122.567141
10579,p.334,0,1,8,Portland Int'l Airport MAX Station,45.587584,-122.5931
10579,p.334,1,1,8,Portland Int'l Airport MAX Station,45.587584,-122.5931
13449,p.334,1,1,14,Civic Drive MAX Station,45.508298,-122.441819
13450,p.334,0,1,16,Civic Drive MAX Station,45.507972,-122.441302
8333,p.334,0,2,23,Library/SW 9th Ave MAX Station,45.51916,-122.68162
8334,p.334,0,2,23,Pioneer Square South MAX Station,45.518496,-122.679145
8335,p.334,0,2,23,Mall/SW 4th Ave MAX Station,45.517942,-122.677088
8336,p.334,0,2,23,Yamhill District MAX Station,45.517153,-122.674172
8337,p.334,0,2,23,Oak/SW 1st Ave MAX Station,45.52028,-122.672146
8338,p.334,0,2,23,Skidmore Fountain MAX Station,45.523095,-122.671256
8339,p.334,0,2,23,Old Town/Chinatown MAX Station,45.52518,-122.671353
8340,p.334,0,2,23,Rose Quarter TC MAX Station,45.530057,-122.664917
8341,p.334,0,2,23,Convention Center MAX Station,45.530052,-122.661908
8342,p.334,0,2,23,NE 7th Ave MAX Station,45.530055,-122.65774
8343,p.334,0,2,23,Lloyd Center/NE 11th Ave MAX Station,45.530067,-122.653638
8344,p.334,0,2,23,Hollywood/NE 42nd Ave TC MAX Station,45.532772,-122.620708
8345,p.334,0,2,23,NE 60th Ave MAX Station,45.528764,-122.602703
8346,p.334,0,2,23,NE 82nd Ave MAX Station,45.533221,-122.577794
8347,p.334,0,2,23,Gateway/NE 99th Ave TC MAX Station,45.530269,-122.563578
8348,p.334,0,1,15,E 102nd Ave MAX Station,45.52258,-122.557314
8349,p.334,0,1,15,E 122nd Ave MAX Station,45.522454,-122.536784
8350,p.334,0,1,15,E 148th Ave MAX Station,45.522237,-122.509687
8351,p.334,0,1,15,E 162nd Ave MAX Station,45.522115,-122.495488
8352,p.334,0,1,15,E 172nd Ave MAX Station,45.522048,-122.485173
8353,p.334,0,1,15,E 181st Ave MAX Station,45.521932,-122.476143
8354,p.334,0,1,15,Rockwood/E 188th Ave MAX Station,45.520398,-122.470537
8355,p.334,0,1,15,Ruby Junction/E 197th Ave MAX Station,45.515577,-122.459174
8356,p.334,0,1,16,Gresham City Hall MAX Station,45.505687,-122.435826
8357,p.334,0,1,16,Gresham Central TC MAX Station,45.502473,-122.426643
8359,p.334,0,1,16,Cleveland Ave MAX Station,45.501772,-122.41845
8359,p.334,1,1,14,Cleveland Ave MAX Station,45.501772,-122.41845
8360,p.334,1,1,14,Gresham Central TC MAX Station,45.502705,-122.427348
8361,p.334,1,1,14,Gresham City Hall MAX Station,45.505981,-122.436285
8362,p.334,1,1,15,Ruby Junction/E 197th Ave MAX Station,45.516502,-122.461119
8363,p.334,1,1,15,Rockwood/E 188th Ave MAX Station,45.520723,-122.471093
8364,p.334,1,1,15,E 181st Ave MAX Station,45.522065,-122.478074
8365,p.334,1,1,15,E 172nd Ave MAX Station,45.52214,-122.48714
8366,p.334,1,1,15,E 162nd Ave MAX Station,45.522223,-122.497437
8367,p.334,1,1,15,E 148th Ave MAX Station,45.522344,-122.511614
8368,p.334,1,1,15,E 122nd Ave MAX Station,45.522548,-122.538743
8369,p.334,1,1,15,E 102nd Ave MAX Station,45.522691,-122.559244
8370,p.334,1,2,24,Gateway/NE 99th Ave TC MAX Station,45.530839,-122.563627
8371,p.334,1,2,23,NE 82nd Ave MAX Station,45.533478,-122.578437
8372,p.334,1,2,23,NE 60th Ave MAX Station,45.528491,-122.603342
8373,p.334,1,2,23,Hollywood/NE 42nd Ave TC MAX Station,45.532957,-122.621367
8374,p.334,1,2,23,Lloyd Center/NE 11th Ave MAX Station,45.530146,-122.654335
8375,p.334,1,2,23,NE 7th Ave MAX Station,45.53015,-122.658277
8376,p.334,1,2,23,Convention Center MAX Station,45.530138,-122.66254
8377,p.334,1,2,23,Rose Quarter TC MAX Station,45.530233,-122.665534
8378,p.334,1,2,23,Old Town/Chinatown MAX Station,45.524695,-122.671467
8379,p.334,1,2,23,Skidmore Fountain MAX Station,45.522873,-122.67139
8380,p.334,1,2,23,Oak/ SW 1st Ave MAX Station,45.51986,-122.672523
8381,p.334,1,2,23,Morrison/SW 3rd Ave MAX Station,45.518181,-122.675386
8382,p.334,1,2,23,Mall/SW 5th Ave MAX Station,45.518701,-122.677402
8383,p.334,1,2,23,Pioneer Square North MAX Station,45.519253,-122.679475
8384,p.334,1,2,23,Galleria/SW 10th Ave MAX Station,45.51991,-122.681919
9624,p.334,1,2,23,Sunset TC MAX Station,45.510383,-122.781299
9757,p.334,1,2,23,JELD-WEN Field MAX Station,45.521833,-122.689816
9758,p.334,0,2,23,JELD-WEN Field MAX Station,45.521321,-122.689886
9759,p.334,0,2,23,Kings Hill/SW Salmon St MAX Station,45.520592,-122.691005
9818,p.334,1,1,16,Beaverton TC MAX Station,45.49133,-122.801723
9819,p.334,1,1,16,Beaverton Creek MAX Station,45.500584,-122.833325
9820,p.334,1,2,23,Kings Hill/SW Salmon St MAX Station,45.520207,-122.69132
9821,p.334,0,2,23,Beaverton TC MAX Station,45.491696,-122.8012
9821,p.334,1,1,7,Beaverton TC MAX Station,45.491696,-122.8012
9822,p.334,0,2,16,Beaverton Creek MAX Station,45.500249,-122.832785
9823,p.334,1,1,16,Beaverton Central MAX Station,45.490425,-122.807441
9824,p.334,0,2,16,Beaverton Central MAX Station,45.490501,-122.806766
9825,p.334,1,1,16,Millikan Way MAX Station,45.495421,-122.821806
9826,p.334,0,2,16,Millikan Way MAX Station,45.495102,-122.821238
9827,p.334,1,1,16,Merlo Rd/SW 158th Ave MAX Station,45.505399,-122.842424
9828,p.334,0,2,16,Merlo Rd/SW 158th Ave MAX Station,45.505058,-122.841872
9829,p.334,1,1,18,Elmonica/SW 170th Ave MAX Station,45.510134,-122.851732
9830,p.334,0,1,17,Elmonica/SW 170th Ave MAX Station,45.509777,-122.851193
9831,p.334,0,1,17,Willow Creek/SW 185th Ave TC MAX Station,45.517117,-122.869874
9832,p.334,1,1,17,Willow Creek/SW 185th Ave TC MAX Station,45.517375,-122.870518
9833,p.334,1,1,17,Quatama/NW 205th Ave MAX Station,45.523319,-122.889131
9834,p.334,0,1,17,Quatama/NW 205th Ave MAX Station,45.523082,-122.888511
9835,p.334,0,1,17,Orenco/NW 231st Ave MAX Station,45.530257,-122.915467
9836,p.334,1,1,17,Orenco/NW 231st Ave MAX Station,45.530298,-122.916198
9837,p.334,1,1,17,Fair Complex/Hillsboro Airport MAX Stn,45.526924,-122.946499
9838,p.334,0,1,17,Fair Complex/Hillsboro Airport MAX Stn,45.527041,-122.945808
9839,p.334,0,1,17,Hawthorn Farm MAX Station,45.530012,-122.93038
9840,p.334,1,1,17,Hawthorn Farm MAX Station,45.529921,-122.93112
9841,p.334,0,1,17,Washington/SE 12th Ave MAX Station,45.521102,-122.969152
9842,p.334,1,1,17,Washington/SE 12th Ave MAX Station,45.521231,-122.969867
9843,p.334,0,1,17,Tuality Hospital/SE 8th Ave MAX Station,45.521288,-122.978017
9844,p.334,1,1,17,Tuality Hospital/SE 8th Ave MAX Station,45.521315,-122.978728
9845,p.334,1,1,17,Hillsboro Central/SE 3rd TC MAX Station,45.521385,-122.985596
9846,p.334,0,1,17,Hillsboro Central/SE 3rd TC MAX Station,45.521357,-122.984926
9848,p.334,0,1,17,Hatfield Government Center MAX Station,45.522204,-122.991022
9848,p.334,1,1,17,Hatfield Government Center MAX Station,45.522204,-122.991022
9969,p.334,0,2,23,Sunset TC MAX Station,45.510098,-122.780757
10117,P.334,1,2,25,Goose Hollow/SW Jefferson St MAX Station,45.518236,-122.694089
10118,P.334,0,2,25,Goose Hollow/SW Jefferson St MAX Station,45.517989,-122.693544
10120,P.334,0,2,25,Washington Park MAX Station,45.510653,-122.71634
10121,P.334,1,2,25,Washington Park MAX Station,45.510661,-122.717244
10572,P.334,0,1,8,Parkrose/Sumner TC MAX Station,45.559201,-122.56538
10573,P.334,1,1,8,Parkrose/Sumner TC MAX Station,45.558829,-122.565861
10574,P.334,0,1,8,Cascades MAX Station,45.57239,-122.55829
10575,P.334,1,1,8,Cascades MAX Station,45.572075,-122.5577
10576,P.334,0,1,8,Mt Hood Ave MAX Station,45.577359,-122.567151
10577,P.334,1,1,8,Mt Hood Ave MAX Station,45.576861,-122.567141
10579,P.334,0,1,8,Portland Int'l Airport MAX Station,45.587584,-122.5931
10579,P.334,1,1,8,Portland Int'l Airport MAX Station,45.587584,-122.5931
13449,P.334,1,1,16,Civic Drive MAX Station,45.508298,-122.441819
13450,P.334,0,1,18,Civic Drive MAX Station,45.507972,-122.441302
8333,P.334,0,2,25,Library/SW 9th Ave MAX Station,45.51916,-122.68162
8334,P.334,0,2,25,Pioneer Square South MAX Station,45.518496,-122.679145
8335,P.334,0,2,25,Mall/SW 4th Ave MAX Station,45.517942,-122.677088
8336,P.334,0,2,25,Yamhill District MAX Station,45.517153,-122.674172
8337,P.334,0,2,25,Oak/SW 1st Ave MAX Station,45.52028,-122.672146
8338,P.334,0,2,25,Skidmore Fountain MAX Station,45.523095,-122.671256
8339,P.334,0,2,25,Old Town/Chinatown MAX Station,45.52518,-122.671353
8340,P.334,0,2,25,Rose Quarter TC MAX Station,45.530057,-122.664917
8341,P.334,0,2,25,Convention Center MAX Station,45.530052,-122.661908
8342,P.334,0,2,25,NE 7th Ave MAX Station,45.530055,-122.65774
8343,P.334,0,2,25,Lloyd Center/NE 11th Ave MAX Station,45.530067,-122.653638
8344,P.334,0,2,25,Hollywood/NE 42nd Ave TC MAX Station,45.532772,-122.620708
8345,P.334,0,2,25,NE 60th Ave MAX Station,45.528764,-122.602703
8346,P.334,0,2,25,NE 82nd Ave MAX Station,45.533221,-122.577794
8347,P.334,0,2,25,Gateway/NE 99th Ave TC MAX Station,45.530269,-122.563578
8348,P.334,0,1,17,E 102nd Ave MAX Station,45.52258,-122.557314
8349,P.334,0,1,17,E 122nd Ave MAX Station,45.522454,-122.536784
8350,P.334,0,1,17,E 148th Ave MAX Station,45.522237,-122.509687
8351,P.334,0,1,17,E 162nd Ave MAX Station,45.522115,-122.495488
8352,P.334,0,1,17,E 172nd Ave MAX Station,45.522048,-122.485173
8353,P.334,0,1,17,E 181st Ave MAX Station,45.521932,-122.476143
8354,P.334,0,1,17,Rockwood/E 188th Ave MAX Station,45.520398,-122.470537
8355,P.334,0,1,17,Ruby Junction/E 197th Ave MAX Station,45.515577,-122.459174
8356,P.334,0,1,18,Gresham City Hall MAX Station,45.505687,-122.435826
8357,P.334,0,1,18,Gresham Central TC MAX Station,45.502473,-122.426643
8359,P.334,0,1,18,Cleveland Ave MAX Station,45.501772,-122.41845
8359,P.334,1,1,16,Cleveland Ave MAX Station,45.501772,-122.41845
8360,P.334,1,1,16,Gresham Central TC MAX Station,45.502705,-122.427348
8361,P.334,1,1,16,Gresham City Hall MAX Station,45.505981,-122.436285
8362,P.334,1,1,17,Ruby Junction/E 197th Ave MAX Station,45.516502,-122.461119
8363,P.334,1,1,17,Rockwood/E 188th Ave MAX Station,45.520723,-122.471093
8364,P.334,1,1,17,E 181st Ave MAX Station,45.522065,-122.478074
8365,P.334,1,1,17,E 172nd Ave MAX Station,45.52214,-122.48714
8366,P.334,1,1,17,E 162nd Ave MAX Station,45.522223,-122.497437
8367,P.334,1,1,17,E 148th Ave MAX Station,45.522344,-122.511614
8368,P.334,1,1,17,E 122nd Ave MAX Station,45.522548,-122.538743
8369,P.334,1,1,17,E 102nd Ave MAX Station,45.522691,-122.559244
8370,P.334,1,2,26,Gateway/NE 99th Ave TC MAX Station,45.530839,-122.563627
8371,P.334,1,2,25,NE 82nd Ave MAX Station,45.533478,-122.578437
8372,P.334,1,2,25,NE 60th Ave MAX Station,45.528491,-122.603342
8373,P.334,1,2,25,Hollywood/NE 42nd Ave TC MAX Station,45.532957,-122.621367
8374,P.334,1,2,25,Lloyd Center/NE 11th Ave MAX Station,45.530146,-122.654335
8375,P.334,1,2,25,NE 7th Ave MAX Station,45.53015,-122.658277
8376,P.334,1,2,25,Convention Center MAX Station,45.530138,-122.66254
8377,P.334,1,2,25,Rose Quarter TC MAX Station,45.530233,-122.665534
8378,P.334,1,2,25,Old Town/Chinatown MAX Station,45.524695,-122.671467
8379,P.334,1,2,25,Skidmore Fountain MAX Station,45.522873,-122.67139
8380,P.334,1,2,25,Oak/ SW 1st Ave MAX Station,45.51986,-122.672523
8381,P.334,1,2,25,Morrison/SW 3rd Ave MAX Station,45.518181,-122.675386
8382,P.334,1,2,25,Mall/SW 5th Ave MAX Station,45.518701,-122.677402
8383,P.334,1,2,25,Pioneer Square North MAX Station,45.519253,-122.679475
8384,P.334,1,2,25,Galleria/SW 10th Ave MAX Station,45.51991,-122.681919
9624,P.334,1,2,25,Sunset TC MAX Station,45.510383,-122.781299
9757,P.334,1,2,25,JELD-WEN Field MAX Station,45.521833,-122.689816
9758,P.334,0,2,25,JELD-WEN Field MAX Station,45.521321,-122.689886
9759,P.334,0,2,25,Kings Hill/SW Salmon St MAX Station,45.520592,-122.691005
9818,P.334,1,1,18,Beaverton TC MAX Station,45.49133,-122.801723
9819,P.334,1,1,18,Beaverton Creek MAX Station,45.500584,-122.833325
9820,P.334,1,2,25,Kings Hill/SW Salmon St MAX Station,45.520207,-122.69132
9821,P.334,0,2,25,Beaverton TC MAX Station,45.491696,-122.8012
9821,P.334,1,1,7,Beaverton TC MAX Station,45.491696,-122.8012
9822,P.334,0,2,18,Beaverton Creek MAX Station,45.500249,-122.832785
9823,P.334,1,1,18,Beaverton Central MAX Station,45.490425,-122.807441
9824,P.334,0,2,18,Beaverton Central MAX Station,45.490501,-122.806766
9825,P.334,1,1,18,Millikan Way MAX Station,45.495421,-122.821806
9826,P.334,0,2,18,Millikan Way MAX Station,45.495102,-122.821238
9827,P.334,1,1,18,Merlo Rd/SW 158th Ave MAX Station,45.505399,-122.842424
9828,P.334,0,2,18,Merlo Rd/SW 158th Ave MAX Station,45.505058,-122.841872
9829,P.334,1,1,20,Elmonica/SW 170th Ave MAX Station,45.510134,-122.851732
9830,P.334,0,1,19,Elmonica/SW 170th Ave MAX Station,45.509777,-122.851193
9831,P.334,0,1,19,Willow Creek/SW 185th Ave TC MAX Station,45.517117,-122.869874
9832,P.334,1,1,19,Willow Creek/SW 185th Ave TC MAX Station,45.517375,-122.870518
9833,P.334,1,1,19,Quatama/NW 205th Ave MAX Station,45.523319,-122.889131
9834,P.334,0,1,19,Quatama/NW 205th Ave MAX Station,45.523082,-122.888511
9835,P.334,0,1,19,Orenco/NW 231st Ave MAX Station,45.530257,-122.915467
9836,P.334,1,1,19,Orenco/NW 231st Ave MAX Station,45.530298,-122.916198
9837,P.334,1,1,19,Fair Complex/Hillsboro Airport MAX Stn,45.526924,-122.946499
9838,P.334,0,1,19,Fair Complex/Hillsboro Airport MAX Stn,45.527041,-122.945808
9839,P.334,0,1,19,Hawthorn Farm MAX Station,45.530012,-122.93038
9840,P.334,1,1,19,Hawthorn Farm MAX Station,45.529921,-122.93112
9841,P.334,0,1,19,Washington/SE 12th Ave MAX Station,45.521102,-122.969152
9842,P.334,1,1,19,Washington/SE 12th Ave MAX Station,45.521231,-122.969867
9843,P.334,0,1,19,Tuality Hospital/SE 8th Ave MAX Station,45.521288,-122.978017
9844,P.334,1,1,19,Tuality Hospital/SE 8th Ave MAX Station,45.521315,-122.978728
9845,P.334,1,1,19,Hillsboro Central/SE 3rd TC MAX Station,45.521385,-122.985596
9846,P.334,0,1,19,Hillsboro Central/SE 3rd TC MAX Station,45.521357,-122.984926
9848,P.334,0,1,19,Hatfield Government Center MAX Station,45.522204,-122.991022
9848,P.334,1,1,19,Hatfield Government Center MAX Station,45.522204,-122.991022
9969,P.334,0,2,25,Sunset TC MAX Station,45.510098,-122.780757
10117,p.335,1,2,23,Goose Hollow/SW Jefferson St MAX Station,45.518236,-122.694089
10118,p.335,0,2,23,Goose Hollow/SW Jefferson St MAX Station,45.517989,-122.693544
10120,p.335,0,2,23,Washington Park MAX Station,45.510653,-122.71634
10121,p.335,1,2,23,Washington Park MAX Station,45.510661,-122.717244
10572,p.335,0,1,8,Parkrose/Sumner TC MAX Station,45.559201,-122.56538
10573,p.335,1,1,8,Parkrose/Sumner TC MAX Station,45.558829,-122.565861
10574,p.335,0,1,8,Cascades MAX Station,45.57239,-122.55829
10575,p.335,1,1,8,Cascades MAX Station,45.572075,-122.5577
10576,p.335,0,1,8,Mt Hood Ave MAX Station,45.577359,-122.567151
10577,p.335,1,1,8,Mt Hood Ave MAX Station,45.576861,-122.567141
10579,p.335,0,1,8,Portland Int'l Airport MAX Station,45.587584,-122.5931
10579,p.335,1,1,8,Portland Int'l Airport MAX Station,45.587584,-122.5931
13449,p.335,1,1,14,Civic Drive MAX Station,45.508298,-122.441819
13450,p.335,0,1,16,Civic Drive MAX Station,45.507972,-122.441302
8333,p.335,0,2,23,Library/SW 9th Ave MAX Station,45.51916,-122.68162
8334,p.335,0,2,23,Pioneer Square South MAX Station,45.518496,-122.679145
8335,p.335,0,2,23,Mall/SW 4th Ave MAX Station,45.517942,-122.677088
8336,p.335,0,2,23,Yamhill District MAX Station,45.517153,-122.674172
8337,p.335,0,2,23,Oak/SW 1st Ave MAX Station,45.52028,-122.672146
8338,p.335,0,2,23,Skidmore Fountain MAX Station,45.523095,-122.671256
8339,p.335,0,2,23,Old Town/Chinatown MAX Station,45.52518,-122.671353
8340,p.335,0,2,23,Rose Quarter TC MAX Station,45.530057,-122.664917
8341,p.335,0,2,23,Convention Center MAX Station,45.530052,-122.661908
8342,p.335,0,2,23,NE 7th Ave MAX Station,45.530055,-122.65774
8343,p.335,0,2,23,Lloyd Center/NE 11th Ave MAX Station,45.530067,-122.653638
8344,p.335,0,2,23,Hollywood/NE 42nd Ave TC MAX Station,45.532772,-122.620708
8345,p.335,0,2,23,NE 60th Ave MAX Station,45.528764,-122.602703
8346,p.335,0,2,23,NE 82nd Ave MAX Station,45.533221,-122.577794
8347,p.335,0,2,23,Gateway/NE 99th Ave TC MAX Station,45.530269,-122.563578
8348,p.335,0,1,15,E 102nd Ave MAX Station,45.52258,-122.557314
8349,p.335,0,1,15,E 122nd Ave MAX Station,45.522454,-122.536784
8350,p.335,0,1,15,E 148th Ave MAX Station,45.522237,-122.509687
8351,p.335,0,1,15,E 162nd Ave MAX Station,45.522115,-122.495488
8352,p.335,0,1,15,E 172nd Ave MAX Station,45.522048,-122.485173
8353,p.335,0,1,15,E 181st Ave MAX Station,45.521932,-122.476143
8354,p.335,0,1,15,Rockwood/E 188th Ave MAX Station,45.520398,-122.470537
8355,p.335,0,1,15,Ruby Junction/E 197th Ave MAX Station,45.515577,-122.459174
8356,p.335,0,1,16,Gresham City Hall MAX Station,45.505687,-122.435826
8357,p.335,0,1,16,Gresham Central TC MAX Station,45.502473,-122.426643
8359,p.335,0,1,16,Cleveland Ave MAX Station,45.501772,-122.41845
8359,p.335,1,1,14,Cleveland Ave MAX Station,45.501772,-122.41845
8360,p.335,1,1,14,Gresham Central TC MAX Station,45.502705,-122.427348
8361,p.335,1,1,14,Gresham City Hall MAX Station,45.505981,-122.436285
8362,p.335,1,1,15,Ruby Junction/E 197th Ave MAX Station,45.516502,-122.461119
8363,p.335,1,1,15,Rockwood/E 188th Ave MAX Station,45.520723,-122.471093
8364,p.335,1,1,15,E 181st Ave MAX Station,45.522065,-122.478074
8365,p.335,1,1,15,E 172nd Ave MAX Station,45.52214,-122.48714
8366,p.335,1,1,15,E 162nd Ave MAX Station,45.522223,-122.497437
8367,p.335,1,1,15,E 148th Ave MAX Station,45.522344,-122.511614
8368,p.335,1,1,15,E 122nd Ave MAX Station,45.522548,-122.538743
8369,p.335,1,1,15,E 102nd Ave MAX Station,45.522691,-122.559244
8370,p.335,1,2,24,Gateway/NE 99th Ave TC MAX Station,45.530839,-122.563627
8371,p.335,1,2,23,NE 82nd Ave MAX Station,45.533478,-122.578437
8372,p.335,1,2,23,NE 60th Ave MAX Station,45.528491,-122.603342
8373,p.335,1,2,23,Hollywood/NE 42nd Ave TC MAX Station,45.532957,-122.621367
8374,p.335,1,2,23,Lloyd Center/NE 11th Ave MAX Station,45.530146,-122.654335
8375,p.335,1,2,23,NE 7th Ave MAX Station,45.53015,-122.658277
8376,p.335,1,2,23,Convention Center MAX Station,45.530138,-122.66254
8377,p.335,1,2,23,Rose Quarter TC MAX Station,45.530233,-122.665534
8378,p.335,1,2,23,Old Town/Chinatown MAX Station,45.524695,-122.671467
8379,p.335,1,2,23,Skidmore Fountain MAX Station,45.522873,-122.67139
8380,p.335,1,2,23,Oak/ SW 1st Ave MAX Station,45.51986,-122.672523
8381,p.335,1,2,23,Morrison/SW 3rd Ave MAX Station,45.518181,-122.675386
8382,p.335,1,2,23,Mall/SW 5th Ave MAX Station,45.518701,-122.677402
8383,p.335,1,2,23,Pioneer Square North MAX Station,45.519253,-122.679475
8384,p.335,1,2,23,Galleria/SW 10th Ave MAX Station,45.51991,-122.681919
9624,p.335,1,2,23,Sunset TC MAX Station,45.510383,-122.781299
9757,p.335,1,2,23,JELD-WEN Field MAX Station,45.521833,-122.689816
9758,p.335,0,2,23,JELD-WEN Field MAX Station,45.521321,-122.689886
9759,p.335,0,2,23,Kings Hill/SW Salmon St MAX Station,45.520592,-122.691005
9818,p.335,1,1,16,Beaverton TC MAX Station,45.49133,-122.801723
9819,p.335,1,1,16,Beaverton Creek MAX Station,45.500584,-122.833325
9820,p.335,1,2,23,Kings Hill/SW Salmon St MAX Station,45.520207,-122.69132
9821,p.335,0,2,23,Beaverton TC MAX Station,45.491696,-122.8012
9821,p.335,1,1,7,Beaverton TC MAX Station,45.491696,-122.8012
9822,p.335,0,2,16,Beaverton Creek MAX Station,45.500249,-122.832785
9823,p.335,1,1,16,Beaverton Central MAX Station,45.490425,-122.807441
9824,p.335,0,2,16,Beaverton Central MAX Station,45.490501,-122.806766
9825,p.335,1,1,16,Millikan Way MAX Station,45.495421,-122.821806
9826,p.335,0,2,16,Millikan Way MAX Station,45.495102,-122.821238
9827,p.335,1,1,16,Merlo Rd/SW 158th Ave MAX Station,45.505399,-122.842424
9828,p.335,0,2,16,Merlo Rd/SW 158th Ave MAX Station,45.505058,-122.841872
9829,p.335,1,1,18,Elmonica/SW 170th Ave MAX Station,45.510134,-122.851732
9830,p.335,0,1,17,Elmonica/SW 170th Ave MAX Station,45.509777,-122.851193
9831,p.335,0,1,17,Willow Creek/SW 185th Ave TC MAX Station,45.517117,-122.869874
9832,p.335,1,1,17,Willow Creek/SW 185th Ave TC MAX Station,45.517375,-122.870518
9833,p.335,1,1,17,Quatama/NW 205th Ave MAX Station,45.523319,-122.889131
9834,p.335,0,1,17,Quatama/NW 205th Ave MAX Station,45.523082,-122.888511
9835,p.335,0,1,17,Orenco/NW 231st Ave MAX Station,45.530257,-122.915467
9836,p.335,1,1,17,Orenco/NW 231st Ave MAX Station,45.530298,-122.916198
9837,p.335,1,1,17,Fair Complex/Hillsboro Airport MAX Stn,45.526924,-122.946499
9838,p.335,0,1,17,Fair Complex/Hillsboro Airport MAX Stn,45.527041,-122.945808
9839,p.335,0,1,17,Hawthorn Farm MAX Station,45.530012,-122.93038
9840,p.335,1,1,17,Hawthorn Farm MAX Station,45.529921,-122.93112
9841,p.335,0,1,17,Washington/SE 12th Ave MAX Station,45.521102,-122.969152
9842,p.335,1,1,17,Washington/SE 12th Ave MAX Station,45.521231,-122.969867
9843,p.335,0,1,17,Tuality Hospital/SE 8th Ave MAX Station,45.521288,-122.978017
9844,p.335,1,1,17,Tuality Hospital/SE 8th Ave MAX Station,45.521315,-122.978728
9845,p.335,1,1,17,Hillsboro Central/SE 3rd TC MAX Station,45.521385,-122.985596
9846,p.335,0,1,17,Hillsboro Central/SE 3rd TC MAX Station,45.521357,-122.984926
9848,p.335,0,1,17,Hatfield Government Center MAX Station,45.522204,-122.991022
9848,p.335,1,1,17,Hatfield Government Center MAX Station,45.522204,-122.991022
9969,p.335,0,2,23,Sunset TC MAX Station,45.510098,-122.780757
10117,P.335,1,2,25,Goose Hollow/SW Jefferson St MAX Station,45.518236,-122.694089
10118,P.335,0,2,25,Goose Hollow/SW Jefferson St MAX Station,45.517989,-122.693544
10120,P.335,0,2,25,Washington Park MAX Station,45.510653,-122.71634
10121,P.335,1,2,25,Washington Park MAX Station,45.510661,-122.717244
10572,P.335,0,1,8,Parkrose/Sumner TC MAX Station,45.559201,-122.56538
10573,P.335,1,1,8,Parkrose/Sumner TC MAX Station,45.558829,-122.565861
10574,P.335,0,1,8,Cascades MAX Station,45.57239,-122.55829
10575,P.335,1,1,8,Cascades MAX Station,45.572075,-122.5577
10576,P.335,0,1,8,Mt Hood Ave MAX Station,45.577359,-122.567151
10577,P.335,1,1,8,Mt Hood Ave MAX Station,45.576861,-122.567141
10579,P.335,0,1,8,Portland Int'l Airport MAX Station,45.587584,-122.5931
10579,P.335,1,1,8,Portland Int'l Airport MAX Station,45.587584,-122.5931
13449,P.335,1,1,16,Civic Drive MAX Station,45.508298,-122.441819
13450,P.335,0,1,18,Civic Drive MAX Station,45.507972,-122.441302
8333,P.335,0,2,25,Library/SW 9th Ave MAX Station,45.51916,-122.68162
8334,P.335,0,2,25,Pioneer Square South MAX Station,45.518496,-122.679145
8335,P.335,0,2,25,Mall/SW 4th Ave MAX Station,45.517942,-122.677088
8336,P.335,0,2,25,Yamhill District MAX Station,45.517153,-122.674172
8337,P.335,0,2,25,Oak/SW 1st Ave MAX Station,45.52028,-122.672146
8338,P.335,0,2,25,Skidmore Fountain MAX Station,45.523095,-122.671256
8339,P.335,0,2,25,Old Town/Chinatown MAX Station,45.52518,-122.671353
8340,P.335,0,2,25,Rose Quarter TC MAX Station,45.530057,-122.664917
8341,P.335,0,2,25,Convention Center MAX Station,45.530052,-122.661908
8342,P.335,0,2,25,NE 7th Ave MAX Station,45.530055,-122.65774
8343,P.335,0,2,25,Lloyd Center/NE 11th Ave MAX Station,45.530067,-122.653638
8344,P.335,0,2,25,Hollywood/NE 42nd Ave TC MAX Station,45.532772,-122.620708
8345,P.335,0,2,25,NE 60th Ave MAX Station,45.528764,-122.602703
8346,P.335,0,2,25,NE 82nd Ave MAX Station,45.533221,-122.577794
8347,P.335,0,2,25,Gateway/NE 99th Ave TC MAX Station,45.530269,-122.563578
8348,P.335,0,1,17,E 102nd Ave MAX Station,45.52258,-122.557314
8349,P.335,0,1,17,E 122nd Ave MAX Station,45.522454,-122.536784
8350,P.335,0,1,17,E 148th Ave MAX Station,45.522237,-122.509687
8351,P.335,0,1,17,E 162nd Ave MAX Station,45.522115,-122.495488
8352,P.335,0,1,17,E 172nd Ave MAX Station,45.522048,-122.485173
8353,P.335,0,1,17,E 181st Ave MAX Station,45.521932,-122.476143
8354,P.335,0,1,17,Rockwood/E 188th Ave MAX Station,45.520398,-122.470537
8355,P.335,0,1,17,Ruby Junction/E 197th Ave MAX Station,45.515577,-122.459174
8356,P.335,0,1,18,Gresham City Hall MAX Station,45.505687,-122.435826
8357,P.335,0,1,18,Gresham Central TC MAX Station,45.502473,-122.426643
8359,P.335,0,1,18,Cleveland Ave MAX Station,45.501772,-122.41845
8359,P.335,1,1,16,Cleveland Ave MAX Station,45.501772,-122.41845
8360,P.335,1,1,16,Gresham Central TC MAX Station,45.502705,-122.427348
8361,P.335,1,1,16,Gresham City Hall MAX Station,45.505981,-122.436285
8362,P.335,1,1,17,Ruby Junction/E 197th Ave MAX Station,45.516502,-122.461119
8363,P.335,1,1,17,Rockwood/E 188th Ave MAX Station,45.520723,-122.471093
8364,P.335,1,1,17,E 181st Ave MAX Station,45.522065,-122.478074
8365,P.335,1,1,17,E 172nd Ave MAX Station,45.52214,-122.48714
8366,P.335,1,1,17,E 162nd Ave MAX Station,45.522223,-122.497437
8367,P.335,1,1,17,E 148th Ave MAX Station,45.522344,-122.511614
8368,P.335,1,1,17,E 122nd Ave MAX Station,45.522548,-122.538743
8369,P.335,1,1,17,E 102nd Ave MAX Station,45.522691,-122.559244
8370,P.335,1,2,26,Gateway/NE 99th Ave TC MAX Station,45.530839,-122.563627
8371,P.335,1,2,25,NE 82nd Ave MAX Station,45.533478,-122.578437
8372,P.335,1,2,25,NE 60th Ave MAX Station,45.528491,-122.603342
8373,P.335,1,2,25,Hollywood/NE 42nd Ave TC MAX Station,45.532957,-122.621367
8374,P.335,1,2,25,Lloyd Center/NE 11th Ave MAX Station,45.530146,-122.654335
8375,P.335,1,2,25,NE 7th Ave MAX Station,45.53015,-122.658277
8376,P.335,1,2,25,Convention Center MAX Station,45.530138,-122.66254
8377,P.335,1,2,25,Rose Quarter TC MAX Station,45.530233,-122.665534
8378,P.335,1,2,25,Old Town/Chinatown MAX Station,45.524695,-122.671467
8379,P.335,1,2,25,Skidmore Fountain MAX Station,45.522873,-122.67139
8380,P.335,1,2,25,Oak/ SW 1st Ave MAX Station,45.51986,-122.672523
8381,P.335,1,2,25,Morrison/SW 3rd Ave MAX Station,45.518181,-122.675386
8382,P.335,1,2,25,Mall/SW 5th Ave MAX Station,45.518701,-122.677402
8383,P.335,1,2,25,Pioneer Square North MAX Station,45.519253,-122.679475
8384,P.335,1,2,25,Galleria/SW 10th Ave MAX Station,45.51991,-122.681919
9624,P.335,1,2,25,Sunset TC MAX Station,45.510383,-122.781299
9757,P.335,1,2,25,JELD-WEN Field MAX Station,45.521833,-122.689816
9758,P.335,0,2,25,JELD-WEN Field MAX Station,45.521321,-122.689886
9759,P.335,0,2,25,Kings Hill/SW Salmon St MAX Station,45.520592,-122.691005
9818,P.335,1,1,18,Beaverton TC MAX Station,45.49133,-122.801723
9819,P.335,1,1,18,Beaverton Creek MAX Station,45.500584,-122.833325
9820,P.335,1,2,25,Kings Hill/SW Salmon St MAX Station,45.520207,-122.69132
9821,P.335,0,2,25,Beaverton TC MAX Station,45.491696,-122.8012
9821,P.335,1,1,7,Beaverton TC MAX Station,45.491696,-122.8012
9822,P.335,0,2,18,Beaverton Creek MAX Station,45.500249,-122.832785
9823,P.335,1,1,18,Beaverton Central MAX Station,45.490425,-122.807441
9824,P.335,0,2,18,Beaverton Central MAX Station,45.490501,-122.806766
9825,P.335,1,1,18,Millikan Way MAX Station,45.495421,-122.821806
9826,P.335,0,2,18,Millikan Way MAX Station,45.495102,-122.821238
9827,P.335,1,1,18,Merlo Rd/SW 158th Ave MAX Station,45.505399,-122.842424
9828,P.335,0,2,18,Merlo Rd/SW 158th Ave MAX Station,45.505058,-122.841872
9829,P.335,1,1,20,Elmonica/SW 170th Ave MAX Station,45.510134,-122.851732
9830,P.335,0,1,19,Elmonica/SW 170th Ave MAX Station,45.509777,-122.851193
9831,P.335,0,1,19,Willow Creek/SW 185th Ave TC MAX Station,45.517117,-122.869874
9832,P.335,1,1,19,Willow Creek/SW 185th Ave TC MAX Station,45.517375,-122.870518
9833,P.335,1,1,19,Quatama/NW 205th Ave MAX Station,45.523319,-122.889131
9834,P.335,0,1,19,Quatama/NW 205th Ave MAX Station,45.523082,-122.888511
9835,P.335,0,1,19,Orenco/NW 231st Ave MAX Station,45.530257,-122.915467
9836,P.335,1,1,19,Orenco/NW 231st Ave MAX Station,45.530298,-122.916198
9837,P.335,1,1,19,Fair Complex/Hillsboro Airport MAX Stn,45.526924,-122.946499
9838,P.335,0,1,19,Fair Complex/Hillsboro Airport MAX Stn,45.527041,-122.945808
9839,P.335,0,1,19,Hawthorn Farm MAX Station,45.530012,-122.93038
9840,P.335,1,1,19,Hawthorn Farm MAX Station,45.529921,-122.93112
9841,P.335,0,1,19,Washington/SE 12th Ave MAX Station,45.521102,-122.969152
9842,P.335,1,1,19,Washington/SE 12th Ave MAX Station,45.521231,-122.969867
9843,P.335,0,1,19,Tuality Hospital/SE 8th Ave MAX Station,45.521288,-122.978017
9844,P.335,1,1,19,Tuality Hospital/SE 8th Ave MAX Station,45.521315,-122.978728
9845,P.335,1,1,19,Hillsboro Central/SE 3rd TC MAX Station,45.521385,-122.985596
9846,P.335,0,1,19,Hillsboro Central/SE 3rd TC MAX Station,45.521357,-122.984926
9848,P.335,0,1,19,Hatfield Government Center MAX Station,45.522204,-122.991022
9848,P.335,1,1,19,Hatfield Government Center MAX Station,45.522204,-122.991022
9969,P.335,0,2,25,Sunset TC MAX Station,45.510098,-122.780757
10117,p.336,1,2,23,Goose Hollow/SW Jefferson St MAX Station,45.518236,-122.694089
10118,p.336,0,2,23,Goose Hollow/SW Jefferson St MAX Station,45.517989,-122.693544
10120,p.336,0,2,23,Washington Park MAX Station,45.510653,-122.71634
10121,p.336,1,2,23,Washington Park MAX Station,45.510661,-122.717244
10572,p.336,0,1,8,Parkrose/Sumner TC MAX Station,45.559201,-122.56538
10573,p.336,1,1,8,Parkrose/Sumner TC MAX Station,45.558829,-122.565861
10574,p.336,0,1,8,Cascades MAX Station,45.57239,-122.55829
10575,p.336,1,1,8,Cascades MAX Station,45.572075,-122.5577
10576,p.336,0,1,8,Mt Hood Ave MAX Station,45.577359,-122.567151
10577,p.336,1,1,8,Mt Hood Ave MAX Station,45.576861,-122.567141
10579,p.336,0,1,8,Portland Int'l Airport MAX Station,45.587584,-122.5931
10579,p.336,1,1,8,Portland Int'l Airport MAX Station,45.587584,-122.5931
13449,p.336,1,1,14,Civic Drive MAX Station,45.508298,-122.441819
13450,p.336,0,1,16,Civic Drive MAX Station,45.507972,-122.441302
8333,p.336,0,2,23,Library/SW 9th Ave MAX Station,45.51916,-122.68162
8334,p.336,0,2,23,Pioneer Square South MAX Station,45.518496,-122.679145
8335,p.336,0,2,23,Mall/SW 4th Ave MAX Station,45.517942,-122.677088
8336,p.336,0,2,23,Yamhill District MAX Station,45.517153,-122.674172
8337,p.336,0,2,23,Oak/SW 1st Ave MAX Station,45.52028,-122.672146
8338,p.336,0,2,23,Skidmore Fountain MAX Station,45.523095,-122.671256
8339,p.336,0,2,23,Old Town/Chinatown MAX Station,45.52518,-122.671353
8340,p.336,0,2,23,Rose Quarter TC MAX Station,45.530057,-122.664917
8341,p.336,0,2,23,Convention Center MAX Station,45.530052,-122.661908
8342,p.336,0,2,23,NE 7th Ave MAX Station,45.530055,-122.65774
8343,p.336,0,2,23,Lloyd Center/NE 11th Ave MAX Station,45.530067,-122.653638
8344,p.336,0,2,23,Hollywood/NE 42nd Ave TC MAX Station,45.532772,-122.620708
8345,p.336,0,2,23,NE 60th Ave MAX Station,45.528764,-122.602703
8346,p.336,0,2,23,NE 82nd Ave MAX Station,45.533221,-122.577794
8347,p.336,0,2,23,Gateway/NE 99th Ave TC MAX Station,45.530269,-122.563578
8348,p.336,0,1,15,E 102nd Ave MAX Station,45.52258,-122.557314
8349,p.336,0,1,15,E 122nd Ave MAX Station,45.522454,-122.536784
8350,p.336,0,1,15,E 148th Ave MAX Station,45.522237,-122.509687
8351,p.336,0,1,15,E 162nd Ave MAX Station,45.522115,-122.495488
8352,p.336,0,1,15,E 172nd Ave MAX Station,45.522048,-122.485173
8353,p.336,0,1,15,E 181st Ave MAX Station,45.521932,-122.476143
8354,p.336,0,1,15,Rockwood/E 188th Ave MAX Station,45.520398,-122.470537
8355,p.336,0,1,15,Ruby Junction/E 197th Ave MAX Station,45.515577,-122.459174
8356,p.336,0,1,16,Gresham City Hall MAX Station,45.505687,-122.435826
8357,p.336,0,1,16,Gresham Central TC MAX Station,45.502473,-122.426643
8359,p.336,0,1,16,Cleveland Ave MAX Station,45.501772,-122.41845
8359,p.336,1,1,14,Cleveland Ave MAX Station,45.501772,-122.41845
8360,p.336,1,1,14,Gresham Central TC MAX Station,45.502705,-122.427348
8361,p.336,1,1,14,Gresham City Hall MAX Station,45.505981,-122.436285
8362,p.336,1,1,15,Ruby Junction/E 197th Ave MAX Station,45.516502,-122.461119
8363,p.336,1,1,15,Rockwood/E 188th Ave MAX Station,45.520723,-122.471093
8364,p.336,1,1,15,E 181st Ave MAX Station,45.522065,-122.478074
8365,p.336,1,1,15,E 172nd Ave MAX Station,45.52214,-122.48714
8366,p.336,1,1,15,E 162nd Ave MAX Station,45.522223,-122.497437
8367,p.336,1,1,15,E 148th Ave MAX Station,45.522344,-122.511614
8368,p.336,1,1,15,E 122nd Ave MAX Station,45.522548,-122.538743
8369,p.336,1,1,15,E 102nd Ave MAX Station,45.522691,-122.559244
8370,p.336,1,2,24,Gateway/NE 99th Ave TC MAX Station,45.530839,-122.563627
8371,p.336,1,2,23,NE 82nd Ave MAX Station,45.533478,-122.578437
8372,p.336,1,2,23,NE 60th Ave MAX Station,45.528491,-122.603342
8373,p.336,1,2,23,Hollywood/NE 42nd Ave TC MAX Station,45.532957,-122.621367
8374,p.336,1,2,23,Lloyd Center/NE 11th Ave MAX Station,45.530146,-122.654335
8375,p.336,1,2,23,NE 7th Ave MAX Station,45.53015,-122.658277
8376,p.336,1,2,23,Convention Center MAX Station,45.530138,-122.66254
8377,p.336,1,2,23,Rose Quarter TC MAX Station,45.530233,-122.665534
8378,p.336,1,2,23,Old Town/Chinatown MAX Station,45.524695,-122.671467
8379,p.336,1,2,23,Skidmore Fountain MAX Station,45.522873,-122.67139
8380,p.336,1,2,23,Oak/ SW 1st Ave MAX Station,45.51986,-122.672523
8381,p.336,1,2,23,Morrison/SW 3rd Ave MAX Station,45.518181,-122.675386
8382,p.336,1,2,23,Mall/SW 5th Ave MAX Station,45.518701,-122.677402
8383,p.336,1,2,23,Pioneer Square North MAX Station,45.519253,-122.679475
8384,p.336,1,2,23,Galleria/SW 10th Ave MAX Station,45.51991,-122.681919
9624,p.336,1,2,23,Sunset TC MAX Station,45.510383,-122.781299
9757,p.336,1,2,23,JELD-WEN Field MAX Station,45.521833,-122.689816
9758,p.336,0,2,23,JELD-WEN Field MAX Station,45.521321,-122.689886
9759,p.336,0,2,23,Kings Hill/SW Salmon St MAX Station,45.520592,-122.691005
9818,p.336,1,1,16,Beaverton TC MAX Station,45.49133,-122.801723
9819,p.336,1,1,16,Beaverton Creek MAX Station,45.500584,-122.833325
9820,p.336,1,2,23,Kings Hill/SW Salmon St MAX Station,45.520207,-122.69132
9821,p.336,0,2,23,Beaverton TC MAX Station,45.491696,-122.8012
9821,p.336,1,1,7,Beaverton TC MAX Station,45.491696,-122.8012
9822,p.336,0,2,16,Beaverton Creek MAX Station,45.500249,-122.832785
9823,p.336,1,1,16,Beaverton Central MAX Station,45.490425,-122.807441
9824,p.336,0,2,16,Beaverton Central MAX Station,45.490501,-122.806766
9825,p.336,1,1,16,Millikan Way MAX Station,45.495421,-122.821806
9826,p.336,0,2,16,Millikan Way MAX Station,45.495102,-122.821238
9827,p.336,1,1,16,Merlo Rd/SW 158th Ave MAX Station,45.505399,-122.842424
9828,p.336,0,2,16,Merlo Rd/SW 158th Ave MAX Station,45.505058,-122.841872
9829,p.336,1,1,18,Elmonica/SW 170th Ave MAX Station,45.510134,-122.851732
9830,p.336,0,1,17,Elmonica/SW 170th Ave MAX Station,45.509777,-122.851193
9831,p.336,0,1,17,Willow Creek/SW 185th Ave TC MAX Station,45.517117,-122.869874
9832,p.336,1,1,17,Willow Creek/SW 185th Ave TC MAX Station,45.517375,-122.870518
9833,p.336,1,1,17,Quatama/NW 205th Ave MAX Station,45.523319,-122.889131
9834,p.336,0,1,17,Quatama/NW 205th Ave MAX Station,45.523082,-122.888511
9835,p.336,0,1,17,Orenco/NW 231st Ave MAX Station,45.530257,-122.915467
9836,p.336,1,1,17,Orenco/NW 231st Ave MAX Station,45.530298,-122.916198
9837,p.336,1,1,17,Fair Complex/Hillsboro Airport MAX Stn,45.526924,-122.946499
9838,p.336,0,1,17,Fair Complex/Hillsboro Airport MAX Stn,45.527041,-122.945808
9839,p.336,0,1,17,Hawthorn Farm MAX Station,45.530012,-122.93038
9840,p.336,1,1,17,Hawthorn Farm MAX Station,45.529921,-122.93112
9841,p.336,0,1,17,Washington/SE 12th Ave MAX Station,45.521102,-122.969152
9842,p.336,1,1,17,Washington/SE 12th Ave MAX Station,45.521231,-122.969867
9843,p.336,0,1,17,Tuality Hospital/SE 8th Ave MAX Station,45.521288,-122.978017
9844,p.336,1,1,17,Tuality Hospital/SE 8th Ave MAX Station,45.521315,-122.978728
9845,p.336,1,1,17,Hillsboro Central/SE 3rd TC MAX Station,45.521385,-122.985596
9846,p.336,0,1,17,Hillsboro Central/SE 3rd TC MAX Station,45.521357,-122.984926
9848,p.336,0,1,17,Hatfield Government Center MAX Station,45.522204,-122.991022
9848,p.336,1,1,17,Hatfield Government Center MAX Station,45.522204,-122.991022
9969,p.336,0,2,23,Sunset TC MAX Station,45.510098,-122.780757
10117,P.336,1,2,25,Goose Hollow/SW Jefferson St MAX Station,45.518236,-122.694089
10118,P.336,0,2,25,Goose Hollow/SW Jefferson St MAX Station,45.517989,-122.693544
10120,P.336,0,2,25,Washington Park MAX Station,45.510653,-122.71634
10121,P.336,1,2,25,Washington Park MAX Station,45.510661,-122.717244
10572,P.336,0,1,8,Parkrose/Sumner TC MAX Station,45.559201,-122.56538
10573,P.336,1,1,8,Parkrose/Sumner TC MAX Station,45.558829,-122.565861
10574,P.336,0,1,8,Cascades MAX Station,45.57239,-122.55829
10575,P.336,1,1,8,Cascades MAX Station,45.572075,-122.5577
10576,P.336,0,1,8,Mt Hood Ave MAX Station,45.577359,-122.567151
10577,P.336,1,1,8,Mt Hood Ave MAX Station,45.576861,-122.567141
10579,P.336,0,1,8,Portland Int'l Airport MAX Station,45.587584,-122.5931
10579,P.336,1,1,8,Portland Int'l Airport MAX Station,45.587584,-122.5931
13449,P.336,1,1,16,Civic Drive MAX Station,45.508298,-122.441819
13450,P.336,0,1,18,Civic Drive MAX Station,45.507972,-122.441302
8333,P.336,0,2,25,Library/SW 9th Ave MAX Station,45.51916,-122.68162
8334,P.336,0,2,25,Pioneer Square South MAX Station,45.518496,-122.679145
8335,P.336,0,2,25,Mall/SW 4th Ave MAX Station,45.517942,-122.677088
8336,P.336,0,2,25,Yamhill District MAX Station,45.517153,-122.674172
8337,P.336,0,2,25,Oak/SW 1st Ave MAX Station,45.52028,-122.672146
8338,P.336,0,2,25,Skidmore Fountain MAX Station,45.523095,-122.671256
8339,P.336,0,2,25,Old Town/Chinatown MAX Station,45.52518,-122.671353
8340,P.336,0,2,25,Rose Quarter TC MAX Station,45.530057,-122.664917
8341,P.336,0,2,25,Convention Center MAX Station,45.530052,-122.661908
8342,P.336,0,2,25,NE 7th Ave MAX Station,45.530055,-122.65774
8343,P.336,0,2,25,Lloyd Center/NE 11th Ave MAX Station,45.530067,-122.653638
8344,P.336,0,2,25,Hollywood/NE 42nd Ave TC MAX Station,45.532772,-122.620708
8345,P.336,0,2,25,NE 60th Ave MAX Station,45.528764,-122.602703
8346,P.336,0,2,25,NE 82nd Ave MAX Station,45.533221,-122.577794
8347,P.336,0,2,25,Gateway/NE 99th Ave TC MAX Station,45.530269,-122.563578
8348,P.336,0,1,17,E 102nd Ave MAX Station,45.52258,-122.557314
8349,P.336,0,1,17,E 122nd Ave MAX Station,45.522454,-122.536784
8350,P.336,0,1,17,E 148th Ave MAX Station,45.522237,-122.509687
8351,P.336,0,1,17,E 162nd Ave MAX Station,45.522115,-122.495488
8352,P.336,0,1,17,E 172nd Ave MAX Station,45.522048,-122.485173
8353,P.336,0,1,17,E 181st Ave MAX Station,45.521932,-122.476143
8354,P.336,0,1,17,Rockwood/E 188th Ave MAX Station,45.520398,-122.470537
8355,P.336,0,1,17,Ruby Junction/E 197th Ave MAX Station,45.515577,-122.459174
8356,P.336,0,1,18,Gresham City Hall MAX Station,45.505687,-122.435826
8357,P.336,0,1,18,Gresham Central TC MAX Station,45.502473,-122.426643
8359,P.336,0,1,18,Cleveland Ave MAX Station,45.501772,-122.41845
8359,P.336,1,1,16,Cleveland Ave MAX Station,45.501772,-122.41845
8360,P.336,1,1,16,Gresham Central TC MAX Station,45.502705,-122.427348
8361,P.336,1,1,16,Gresham City Hall MAX Station,45.505981,-122.436285
8362,P.336,1,1,17,Ruby Junction/E 197th Ave MAX Station,45.516502,-122.461119
8363,P.336,1,1,17,Rockwood/E 188th Ave MAX Station,45.520723,-122.471093
8364,P.336,1,1,17,E 181st Ave MAX Station,45.522065,-122.478074
8365,P.336,1,1,17,E 172nd Ave MAX Station,45.52214,-122.48714
8366,P.336,1,1,17,E 162nd Ave MAX Station,45.522223,-122.497437
8367,P.336,1,1,17,E 148th Ave MAX Station,45.522344,-122.511614
8368,P.336,1,1,17,E 122nd Ave MAX Station,45.522548,-122.538743
8369,P.336,1,1,17,E 102nd Ave MAX Station,45.522691,-122.559244
8370,P.336,1,2,26,Gateway/NE 99th Ave TC MAX Station,45.530839,-122.563627
8371,P.336,1,2,25,NE 82nd Ave MAX Station,45.533478,-122.578437
8372,P.336,1,2,25,NE 60th Ave MAX Station,45.528491,-122.603342
8373,P.336,1,2,25,Hollywood/NE 42nd Ave TC MAX Station,45.532957,-122.621367
8374,P.336,1,2,25,Lloyd Center/NE 11th Ave MAX Station,45.530146,-122.654335
8375,P.336,1,2,25,NE 7th Ave MAX Station,45.53015,-122.658277
8376,P.336,1,2,25,Convention Center MAX Station,45.530138,-122.66254
8377,P.336,1,2,25,Rose Quarter TC MAX Station,45.530233,-122.665534
8378,P.336,1,2,25,Old Town/Chinatown MAX Station,45.524695,-122.671467
8379,P.336,1,2,25,Skidmore Fountain MAX Station,45.522873,-122.67139
8380,P.336,1,2,25,Oak/ SW 1st Ave MAX Station,45.51986,-122.672523
8381,P.336,1,2,25,Morrison/SW 3rd Ave MAX Station,45.518181,-122.675386
8382,P.336,1,2,25,Mall/SW 5th Ave MAX Station,45.518701,-122.677402
8383,P.336,1,2,25,Pioneer Square North MAX Station,45.519253,-122.679475
8384,P.336,1,2,25,Galleria/SW 10th Ave MAX Station,45.51991,-122.681919
9624,P.336,1,2,25,Sunset TC MAX Station,45.510383,-122.781299
9757,P.336,1,2,25,JELD-WEN Field MAX Station,45.521833,-122.689816
9758,P.336,0,2,25,JELD-WEN Field MAX Station,45.521321,-122.689886
9759,P.336,0,2,25,Kings Hill/SW Salmon St MAX Station,45.520592,-122.691005
9818,P.336,1,1,18,Beaverton TC MAX Station,45.49133,-122.801723
9819,P.336,1,1,18,Beaverton Creek MAX Station,45.500584,-122.833325
9820,P.336,1,2,25,Kings Hill/SW Salmon St MAX Station,45.520207,-122.69132
9821,P.336,0,2,25,Beaverton TC MAX Station,45.491696,-122.8012
9821,P.336,1,1,7,Beaverton TC MAX Station,45.491696,-122.8012
9822,P.336,0,2,18,Beaverton Creek MAX Station,45.500249,-122.832785
9823,P.336,1,1,18,Beaverton Central MAX Station,45.490425,-122.807441
9824,P.336,0,2,18,Beaverton Central MAX Station,45.490501,-122.806766
9825,P.336,1,1,18,Millikan Way MAX Station,45.495421,-122.821806
9826,P.336,0,2,18,Millikan Way MAX Station,45.495102,-122.821238
9827,P.336,1,1,18,Merlo Rd/SW 158th Ave MAX Station,45.505399,-122.842424
9828,P.336,0,2,18,Merlo Rd/SW 158th Ave MAX Station,45.505058,-122.841872
9829,P.336,1,1,20,Elmonica/SW 170th Ave MAX Station,45.510134,-122.851732
9830,P.336,0,1,19,Elmonica/SW 170th Ave MAX Station,45.509777,-122.851193
9831,P.336,0,1,19,Willow Creek/SW 185th Ave TC MAX Station,45.517117,-122.869874
9832,P.336,1,1,19,Willow Creek/SW 185th Ave TC MAX Station,45.517375,-122.870518
9833,P.336,1,1,19,Quatama/NW 205th Ave MAX Station,45.523319,-122.889131
9834,P.336,0,1,19,Quatama/NW 205th Ave MAX Station,45.523082,-122.888511
9835,P.336,0,1,19,Orenco/NW 231st Ave MAX Station,45.530257,-122.915467
9836,P.336,1,1,19,Orenco/NW 231st Ave MAX Station,45.530298,-122.916198
9837,P.336,1,1,19,Fair Complex/Hillsboro Airport MAX Stn,45.526924,-122.946499
9838,P.336,0,1,19,Fair Complex/Hillsboro Airport MAX Stn,45.527041,-122.945808
9839,P.336,0,1,19,Hawthorn Farm MAX Station,45.530012,-122.93038
9840,P.336,1,1,19,Hawthorn Farm MAX Station,45.529921,-122.93112
9841,P.336,0,1,19,Washington/SE 12th Ave MAX Station,45.521102,-122.969152
9842,P.336,1,1,19,Washington/SE 12th Ave MAX Station,45.521231,-122.969867
9843,P.336,0,1,19,Tuality Hospital/SE 8th Ave MAX Station,45.521288,-122.978017
9844,P.336,1,1,19,Tuality Hospital/SE 8th Ave MAX Station,45.521315,-122.978728
9845,P.336,1,1,19,Hillsboro Central/SE 3rd TC MAX Station,45.521385,-122.985596
9846,P.336,0,1,19,Hillsboro Central/SE 3rd TC MAX Station,45.521357,-122.984926
9848,P.336,0,1,19,Hatfield Government Center MAX Station,45.522204,-122.991022
9848,P.336,1,1,19,Hatfield Government Center MAX Station,45.522204,-122.991022
9969,P.336,0,2,25,Sunset TC MAX Station,45.510098,-122.780757
10751,S.335,1,1,73,NW Lovejoy & 18th,45.529925,-122.689587
10752,S.335,1,1,68,NW Lovejoy & 13th,45.529997,-122.684611
10753,S.335,1,1,68,NW 11th & Johnson,45.528742,-122.682374
10754,S.335,1,1,68,NW 11th & Glisan,45.526605,-122.682297
10755,S.335,1,1,68,NW 11th & Everett,45.525179,-122.682246
10756,S.335,1,1,68,NW 11th & Couch,45.523784,-122.682223
10759,S.335,1,1,68,SW 11th & Jefferson,45.516471,-122.685319
10760,S.335,1,1,68,SW 11th & Clay,45.515106,-122.686081
10762,S.335,1,1,68,SW 5th & Market,45.512922,-122.681042
10763,S.335,1,1,68,SW 5th & Montgomery,45.511708,-122.681315
10764,S.335,0,1,68,PSU Urban Center,45.51222,-122.682078
10765,S.335,0,1,68,SW 10th & Clay,45.514546,-122.684978
10766,S.335,0,1,68,SW Park & Mill,45.513054,-122.684553
10767,S.335,0,1,68,Central Library,45.519225,-122.682471
10768,S.335,0,1,68,SW 10th & Alder,45.520573,-122.681733
10769,S.335,0,1,68,SW 10th & Stark,45.521742,-122.681091
10770,S.335,0,1,68,NW 10th & Couch,45.523593,-122.681083
10771,S.335,0,1,68,NW 10th & Everett,45.525011,-122.681113
10772,S.335,0,1,68,NW 10th & Glisan,45.526446,-122.68118
10773,S.335,0,1,68,NW 10th & Johnson,45.528572,-122.68125
10775,S.335,0,1,68,NW Northrup & 14th,45.531503,-122.685357
10776,S.335,0,1,73,NW Northrup & 18th,45.531434,-122.689417
10777,S.335,0,1,73,NW Northrup & 21st,45.531346,-122.694455
10778,S.335,0,1,73,NW Northrup & 22nd,45.531308,-122.696445
11011,S.335,1,1,68,SW Park & Market,45.513704,-122.683913
12375,S.335,1,1,68,SW 3rd & Harrison,45.510203,-122.679598
12376,S.335,1,1,68,SW 1st & Harrison,45.50969,-122.677679
12377,S.335,1,1,68,SW Harrison Street,45.508792,-122.676574
12378,S.335,1,1,68,SW River Pkwy & Moody,45.507064,-122.673923
12379,S.335,0,1,68,SW River Pkwy & Moody,45.507139,-122.67414
12380,S.335,0,1,68,SW Harrison Street,45.50895,-122.676531
12381,S.335,0,1,68,SW 1st & Harrison,45.509761,-122.677878
12382,S.335,0,1,68,SW 3rd & Harrison,45.510277,-122.679813
12760,S.335,1,1,68,SW Moody & Gibbs,45.499396,-122.671825
12796,S.335,0,1,68,NW 12th & Northrup,45.531535,-122.68332
12880,S.335,1,1,68,SW Moody & Gaines,45.496182,-122.671942
12881,S.335,1,1,68,SW Lowell & Bond,45.493891,-122.671376
12882,S.335,1,1,68,SW Bond & Lane,45.495594,-122.670933
12883,S.335,0,1,68,OHSU Commons,45.498939,-122.670739
12883,S.335,1,1,68,OHSU Commons,45.498939,-122.670739
13302,S.335,1,1,68,SW 11th & Alder,45.521064,-122.682785
13604,S.335,0,1,68,NW 10th & Northrup,45.531438,-122.681366
3595,S.335,1,1,73,NW Lovejoy & 21st,45.529833,-122.694676
3596,S.335,1,1,73,NW Lovejoy & 22nd,45.529746,-122.69688
6493,S.335,0,1,68,Art Museum,45.516305,-122.683991
8989,S.335,0,1,73,NW 23rd & Marshall,45.530612,-122.698688
8989,S.335,1,1,73,NW 23rd & Marshall,45.530612,-122.698688
9633,S.335,1,1,68,SW 11th & Taylor,45.519059,-122.683873
10751,S.336,1,1,73,NW Lovejoy & 18th,45.529925,-122.689587
10752,S.336,1,1,68,NW Lovejoy & 13th,45.529997,-122.684611
10753,S.336,1,1,68,NW 11th & Johnson,45.528742,-122.682374
10754,S.336,1,1,68,NW 11th & Glisan,45.526605,-122.682297
10755,S.336,1,1,68,NW 11th & Everett,45.525179,-122.682246
10756,S.336,1,1,68,NW 11th & Couch,45.523784,-122.682223
10759,S.336,1,1,68,SW 11th & Jefferson,45.516471,-122.685319
10760,S.336,1,1,68,SW 11th & Clay,45.515106,-122.686081
10762,S.336,1,1,68,SW 5th & Market,45.512922,-122.681042
10763,S.336,1,1,68,SW 5th & Montgomery,45.511708,-122.681315
10764,S.336,0,1,68,PSU Urban Center,45.51222,-122.682078
10765,S.336,0,1,68,SW 10th & Clay,45.514546,-122.684978
10766,S.336,0,1,68,SW Park & Mill,45.513054,-122.684553
10767,S.336,0,1,68,Central Library,45.519225,-122.682471
10768,S.336,0,1,68,SW 10th & Alder,45.520573,-122.681733
10769,S.336,0,1,68,SW 10th & Stark,45.521742,-122.681091
10770,S.336,0,1,68,NW 10th & Couch,45.523593,-122.681083
10771,S.336,0,1,68,NW 10th & Everett,45.525011,-122.681113
10772,S.336,0,1,68,NW 10th & Glisan,45.526446,-122.68118
10773,S.336,0,1,68,NW 10th & Johnson,45.528572,-122.68125
10775,S.336,0,1,68,NW Northrup & 14th,45.531503,-122.685357
10776,S.336,0,1,73,NW Northrup & 18th,45.531434,-122.689417
10777,S.336,0,1,73,NW Northrup & 21st,45.531346,-122.694455
10778,S.336,0,1,73,NW Northrup & 22nd,45.531308,-122.696445
11011,S.336,1,1,68,SW Park & Market,45.513704,-122.683913
12375,S.336,1,1,68,SW 3rd & Harrison,45.510203,-122.679598
12376,S.336,1,1,68,SW 1st & Harrison,45.50969,-122.677679
12377,S.336,1,1,68,SW Harrison Street,45.508792,-122.676574
12378,S.336,1,1,68,SW River Pkwy & Moody,45.507064,-122.673923
12379,S.336,0,1,68,SW River Pkwy & Moody,45.507139,-122.67414
12380,S.336,0,1,68,SW Harrison Street,45.50895,-122.676531
12381,S.336,0,1,68,SW 1st & Harrison,45.509761,-122.677878
12382,S.336,0,1,68,SW 3rd & Harrison,45.510277,-122.679813
12760,S.336,1,1,68,SW Moody & Gibbs,45.499396,-122.671825
12796,S.336,0,1,68,NW 12th & Northrup,45.531535,-122.68332
12880,S.336,1,1,68,SW Moody & Gaines,45.496182,-122.671942
12881,S.336,1,1,68,SW Lowell & Bond,45.493891,-122.671376
12882,S.336,1,1,68,SW Bond & Lane,45.495594,-122.670933
12883,S.336,0,1,68,OHSU Commons,45.498939,-122.670739
12883,S.336,1,1,68,OHSU Commons,45.498939,-122.670739
13302,S.336,1,1,68,SW 11th & Alder,45.521064,-122.682785
13604,S.336,0,1,68,NW 10th & Northrup,45.531438,-122.681366
3595,S.336,1,1,73,NW Lovejoy & 21st,45.529833,-122.694676
3596,S.336,1,1,73,NW Lovejoy & 22nd,45.529746,-122.69688
6493,S.336,0,1,68,Art Museum,45.516305,-122.683991
8989,S.336,0,1,73,NW 23rd & Marshall,45.530612,-122.698688
8989,S.336,1,1,73,NW 23rd & Marshall,45.530612,-122.698688
9633,S.336,1,1,68,SW 11th & Taylor,45.519059,-122.683873
10751,U.336,1,1,61,NW Lovejoy & 18th,45.529925,-122.689587
10752,U.336,1,1,58,NW Lovejoy & 13th,45.529997,-122.684611
10753,U.336,1,1,58,NW 11th & Johnson,45.528742,-122.682374
10754,U.336,1,1,58,NW 11th & Glisan,45.526605,-122.682297
10755,U.336,1,1,58,NW 11th & Everett,45.525179,-122.682246
10756,U.336,1,1,58,NW 11th & Couch,45.523784,-122.682223
10759,U.336,1,1,58,SW 11th & Jefferson,45.516471,-122.685319
10760,U.336,1,1,58,SW 11th & Clay,45.515106,-122.686081
10762,U.336,1,1,58,SW 5th & Market,45.512922,-122.681042
10763,U.336,1,1,58,SW 5th & Montgomery,45.511708,-122.681315
10764,U.336,0,1,58,PSU Urban Center,45.51222,-122.682078
10765,U.336,0,1,58,SW 10th & Clay,45.514546,-122.684978
10766,U.336,0,1,58,SW Park & Mill,45.513054,-122.684553
10767,U.336,0,1,58,Central Library,45.519225,-122.682471
10768,U.336,0,1,58,SW 10th & Alder,45.520573,-122.681733
10769,U.336,0,1,58,SW 10th & Stark,45.521742,-122.681091
10770,U.336,0,1,58,NW 10th & Couch,45.523593,-122.681083
10771,U.336,0,1,58,NW 10th & Everett,45.525011,-122.681113
10772,U.336,0,1,58,NW 10th & Glisan,45.526446,-122.68118
10773,U.336,0,1,58,NW 10th & Johnson,45.528572,-122.68125
10775,U.336,0,1,58,NW Northrup & 14th,45.531503,-122.685357
10776,U.336,0,1,61,NW Northrup & 18th,45.531434,-122.689417
10777,U.336,0,1,61,NW Northrup & 21st,45.531346,-122.694455
10778,U.336,0,1,61,NW Northrup & 22nd,45.531308,-122.696445
11011,U.336,1,1,58,SW Park & Market,45.513704,-122.683913
12375,U.336,1,1,58,SW 3rd & Harrison,45.510203,-122.679598
12376,U.336,1,1,58,SW 1st & Harrison,45.50969,-122.677679
12377,U.336,1,1,58,SW Harrison Street,45.508792,-122.676574
12378,U.336,1,1,58,SW River Pkwy & Moody,45.507064,-122.673923
12379,U.336,0,1,58,SW River Pkwy & Moody,45.507139,-122.67414
12380,U.336,0,1,58,SW Harrison Street,45.50895,-122.676531
12381,U.336,0,1,58,SW 1st & Harrison,45.509761,-122.677878
12382,U.336,0,1,58,SW 3rd & Harrison,45.510277,-122.679813
12760,U.336,1,1,58,SW Moody & Gibbs,45.499396,-122.671825
12796,U.336,0,1,58,NW 12th & Northrup,45.531535,-122.68332
12880,U.336,1,1,58,SW Moody & Gaines,45.496182,-122.671942
12881,U.336,1,1,58,SW Lowell & Bond,45.493891,-122.671376
12882,U.336,1,1,58,SW Bond & Lane,45.495594,-122.670933
12883,U.336,0,1,58,OHSU Commons,45.498939,-122.670739
12883,U.336,1,1,58,OHSU Commons,45.498939,-122.670739
13302,U.336,1,1,58,SW 11th & Alder,45.521064,-122.682785
13604,U.336,0,1,58,NW 10th & Northrup,45.531438,-122.681366
3595,U.336,1,1,61,NW Lovejoy & 21st,45.529833,-122.694676
3596,U.336,1,1,61,NW Lovejoy & 22nd,45.529746,-122.69688
6493,U.336,0,1,58,Art Museum,45.516305,-122.683991
8989,U.336,0,1,61,NW 23rd & Marshall,45.530612,-122.698688
8989,U.336,1,1,61,NW 23rd & Marshall,45.530612,-122.698688
9633,U.336,1,1,58,SW 11th & Taylor,45.519059,-122.683873
13123,V.334,0,1,11,SW 6th & Madison St MAX Station,45.515633,-122.680381
7601,V.334,0,1,10,Union Station/NW 5th & Glisan St MAX Stn,45.526732,-122.675604
7601,V.334,1,1,11,Union Station/NW 5th & Glisan St MAX Stn,45.526732,-122.675604
7608,V.334,1,1,11,City Hall/SW 5th & Jefferson St MAX Stn,45.514914,-122.679742
7618,V.334,1,1,11,PSU/SW 5th & Mill St MAX Station,45.511645,-122.681551
7627,V.334,1,1,11,SW 5th & Oak St MAX Station,45.521573,-122.676178
7646,V.334,1,1,11,Pioneer Place/SW 5th Ave MAX Station,45.518255,-122.677934
7763,V.334,0,1,11,Union Station/NW 6th & Hoyt St MAX Stn,45.527222,-122.676517
7774,V.334,0,1,11,PSU/SW 6th & Montgomery MAX Station,45.511583,-122.682578
7777,V.334,0,1,11,Pioneer Courthouse/SW 6th Ave MAX Stn,45.518964,-122.678558
7787,V.334,0,1,11,SW 6th & Pine St MAX Station,45.522323,-122.676756
9299,V.334,0,1,11,NW 6th & Davis St MAX Station,45.524405,-122.676429
9303,V.334,1,1,11,NW 5th & Couch St MAX Station,45.523885,-122.675498
10751,W.335,1,1,80,NW Lovejoy & 18th,45.529925,-122.689587
10752,W.335,1,1,75,NW Lovejoy & 13th,45.529997,-122.684611
10753,W.335,1,1,75,NW 11th & Johnson,45.528742,-122.682374
10754,W.335,1,1,75,NW 11th & Glisan,45.526605,-122.682297
10755,W.335,1,1,75,NW 11th & Everett,45.525179,-122.682246
10756,W.335,1,1,75,NW 11th & Couch,45.523784,-122.682223
10759,W.335,1,1,75,SW 11th & Jefferson,45.516471,-122.685319
10760,W.335,1,1,75,SW 11th & Clay,45.515106,-122.686081
10762,W.335,1,1,75,SW 5th & Market,45.512922,-122.681042
10763,W.335,1,1,75,SW 5th & Montgomery,45.511708,-122.681315
10764,W.335,0,1,75,PSU Urban Center,45.51222,-122.682078
10765,W.335,0,1,75,SW 10th & Clay,45.514546,-122.684978
10766,W.335,0,1,75,SW Park & Mill,45.513054,-122.684553
10767,W.335,0,1,75,Central Library,45.519225,-122.682471
10768,W.335,0,1,75,SW 10th & Alder,45.520573,-122.681733
10769,W.335,0,1,75,SW 10th & Stark,45.521742,-122.681091
10770,W.335,0,1,75,NW 10th & Couch,45.523593,-122.681083
10771,W.335,0,1,75,NW 10th & Everett,45.525011,-122.681113
10772,W.335,0,1,75,NW 10th & Glisan,45.526446,-122.68118
10773,W.335,0,1,75,NW 10th & Johnson,45.528572,-122.68125
10775,W.335,0,1,75,NW Northrup & 14th,45.531503,-122.685357
10776,W.335,0,1,80,NW Northrup & 18th,45.531434,-122.689417
10777,W.335,0,1,80,NW Northrup & 21st,45.531346,-122.694455
10778,W.335,0,1,80,NW Northrup & 22nd,45.531308,-122.696445
11011,W.335,1,1,75,SW Park & Market,45.513704,-122.683913
12375,W.335,1,1,75,SW 3rd & Harrison,45.510203,-122.679598
12376,W.335,1,1,75,SW 1st & Harrison,45.50969,-122.677679
12377,W.335,1,1,75,SW Harrison Street,45.508792,-122.676574
12378,W.335,1,1,75,SW River Pkwy & Moody,45.507064,-122.673923
12379,W.335,0,1,75,SW River Pkwy & Moody,45.507139,-122.67414
12380,W.335,0,1,75,SW Harrison Street,45.50895,-122.676531
12381,W.335,0,1,75,SW 1st & Harrison,45.509761,-122.677878
12382,W.335,0,1,75,SW 3rd & Harrison,45.510277,-122.679813
12760,W.335,1,1,75,SW Moody & Gibbs,45.499396,-122.671825
12796,W.335,0,1,75,NW 12th & Northrup,45.531535,-122.68332
12880,W.335,1,1,75,SW Moody & Gaines,45.496182,-122.671942
12881,W.335,1,1,75,SW Lowell & Bond,45.493891,-122.671376
12882,W.335,1,1,75,SW Bond & Lane,45.495594,-122.670933
12883,W.335,0,1,75,OHSU Commons,45.498939,-122.670739
12883,W.335,1,1,75,OHSU Commons,45.498939,-122.670739
13302,W.335,1,1,75,SW 11th & Alder,45.521064,-122.682785
13604,W.335,0,1,75,NW 10th & Northrup,45.531438,-122.681366
3595,W.335,1,1,80,NW Lovejoy & 21st,45.529833,-122.694676
3596,W.335,1,1,80,NW Lovejoy & 22nd,45.529746,-122.69688
6493,W.335,0,1,75,Art Museum,45.516305,-122.683991
8989,W.335,0,1,80,NW 23rd & Marshall,45.530612,-122.698688
8989,W.335,1,1,80,NW 23rd & Marshall,45.530612,-122.698688
9633,W.335,1,1,75,SW 11th & Taylor,45.519059,-122.683873
10751,W.336,1,1,80,NW Lovejoy & 18th,45.529925,-122.689587
10752,W.336,1,1,75,NW Lovejoy & 13th,45.529997,-122.684611
10753,W.336,1,1,75,NW 11th & Johnson,45.528742,-122.682374
10754,W.336,1,1,75,NW 11th & Glisan,45.526605,-122.682297
10755,W.336,1,1,75,NW 11th & Everett,45.525179,-122.682246
10756,W.336,1,1,75,NW 11th & Couch,45.523784,-122.682223
10759,W.336,1,1,75,SW 11th & Jefferson,45.516471,-122.685319
10760,W.336,1,1,75,SW 11th & Clay,45.515106,-122.686081
10762,W.336,1,1,75,SW 5th & Market,45.512922,-122.681042
10763,W.336,1,1,75,SW 5th & Montgomery,45.511708,-122.681315
10764,W.336,0,1,75,PSU Urban Center,45.51222,-122.682078
10765,W.336,0,1,75,SW 10th & Clay,45.514546,-122.684978
10766,W.336,0,1,75,SW Park & Mill,45.513054,-122.684553
10767,W.336,0,1,75,Central Library,45.519225,-122.682471
10768,W.336,0,1,75,SW 10th & Alder,45.520573,-122.681733
10769,W.336,0,1,75,SW 10th & Stark,45.521742,-122.681091
10770,W.336,0,1,75,NW 10th & Couch,45.523593,-122.681083
10771,W.336,0,1,75,NW 10th & Everett,45.525011,-122.681113
10772,W.336,0,1,75,NW 10th & Glisan,45.526446,-122.68118
10773,W.336,0,1,75,NW 10th & Johnson,45.528572,-122.68125
10775,W.336,0,1,75,NW Northrup & 14th,45.531503,-122.685357
10776,W.336,0,1,80,NW Northrup & 18th,45.531434,-122.689417
10777,W.336,0,1,80,NW Northrup & 21st,45.531346,-122.694455
10778,W.336,0,1,80,NW Northrup & 22nd,45.531308,-122.696445
11011,W.336,1,1,75,SW Park & Market,45.513704,-122.683913
12375,W.336,1,1,75,SW 3rd & Harrison,45.510203,-122.679598
12376,W.336,1,1,75,SW 1st & Harrison,45.50969,-122.677679
12377,W.336,1,1,75,SW Harrison Street,45.508792,-122.676574
12378,W.336,1,1,75,SW River Pkwy & Moody,45.507064,-122.673923
12379,W.336,0,1,75,SW River Pkwy & Moody,45.507139,-122.67414
12380,W.336,0,1,75,SW Harrison Street,45.50895,-122.676531
12381,W.336,0,1,75,SW 1st & Harrison,45.509761,-122.677878
12382,W.336,0,1,75,SW 3rd & Harrison,45.510277,-122.679813
12760,W.336,1,1,75,SW Moody & Gibbs,45.499396,-122.671825
12796,W.336,0,1,75,NW 12th & Northrup,45.531535,-122.68332
12880,W.336,1,1,75,SW Moody & Gaines,45.496182,-122.671942
12881,W.336,1,1,75,SW Lowell & Bond,45.493891,-122.671376
12882,W.336,1,1,75,SW Bond & Lane,45.495594,-122.670933
12883,W.336,0,1,75,OHSU Commons,45.498939,-122.670739
12883,W.336,1,1,75,OHSU Commons,45.498939,-122.670739
13302,W.336,1,1,75,SW 11th & Alder,45.521064,-122.682785
13604,W.336,0,1,75,NW 10th & Northrup,45.531438,-122.681366
3595,W.336,1,1,80,NW Lovejoy & 21st,45.529833,-122.694676
3596,W.336,1,1,80,NW Lovejoy & 22nd,45.529746,-122.69688
6493,W.336,0,1,75,Art Museum,45.516305,-122.683991
8989,W.336,0,1,80,NW 23rd & Marshall,45.530612,-122.698688
8989,W.336,1,1,80,NW 23rd & Marshall,45.530612,-122.698688
9633,W.336,1,1,75,SW 11th & Taylor,45.519059,-122.683873
