stop_id,service_id,direction_id,numroutes,TripsServingStop,stop_name,stop_lat,stop_lon
10,1,0,1,15,14TH AV & LANGLEY WY,38.990479,-76.984519
10001,1,0,1,33,N FAIRFAX DR & N TAYLOR ST,38.882019,-77.112932
10002,1,0,2,52,N FAIRFAX DR & N TAYLOR ST,38.882277,-77.112528
10002,1,1,5,80,N FAIRFAX DR & N TAYLOR ST,38.882277,-77.112528
10003,1,0,2,46,N FAIRFAX DR & N VERMONT ST,38.881964,-77.114598
10003,1,1,1,13,N FAIRFAX DR & N VERMONT ST,38.881964,-77.114598
10004,1,0,2,52,N FAIRFAX DR & N VERMONT ST,38.882255,-77.114056
10004,1,1,5,80,N FAIRFAX DR & N VERMONT ST,38.882255,-77.114056
10007,1,1,2,36,QUAKER LA & 32ND RD,38.836394,-77.08495
10014,1,0,2,4,S 7TH RD & FLORIDA ST,38.85868,-77.118727
10014,1,1,2,63,S 7TH RD & FLORIDA ST,38.85868,-77.118727
10020,1,0,2,4,S DINWIDDIE ST & S 9TH ST,38.856672,-77.112826
10020,1,1,2,63,S DINWIDDIE ST & S 9TH ST,38.856672,-77.112826
10024,1,1,1,29,S JEFFERSON ST & COLUMBIA PI,38.852767,-77.120117
1003,1,0,1,15,CHILLUM RD & 16TH AV,38.956215,-76.98253
10049,1,1,1,31,TYSONS II-GALLERIA SC,38.922488,-77.220552
10055,1,1,1,29,FRONT OF GOODWIN HOUSE - JEFFERSON ST,38.850851,-77.118662
10056,1,1,3,47,N BEAUREGARD ST & FILLMORE AV,38.837125,-77.114242
10059,1,1,1,33,FILLMORE AV & N BEAUREGARD ST,38.837416,-77.114632
1007,1,1,1,14,CHILLUM RD & RIGGS RD,38.961717,-76.993534
101,1,0,1,15,38TH ST & PERRY ST,38.93774,-76.954178
101,1,1,2,37,38TH ST & PERRY ST,38.93774,-76.954178
1010,1,0,1,24,CHILLUM RD & EASTERN AV,38.956122,-76.990414
1011,1,1,1,14,CHILLUM RD & LONGFORD DR,38.954368,-76.979423
10111,1,0,1,18,TEMPLE HILL RD & CARLTON AVE,38.822164,-76.949824
1012,1,1,1,14,CHILLUM RD & 18TH AV,38.954943,-76.980515
10127,1,0,1,23,S FOUR MILE RUN DR & S GEORGE MASON DR,38.852474,-77.102871
10132,1,0,1,23,S FOUR MILE RUN DR & S WALTER REED DR,38.847311,-77.095375
10141,1,1,1,12,NORTHVIEW DR & ENFIELD DR,38.939296,-76.742067
102,1,0,2,37,38TH ST & PERRY ST,38.937696,-76.954474
102,1,1,1,15,38TH ST & PERRY ST,38.937696,-76.954474
1020,1,1,1,14,CHILLUM RD & EASTERN AV,38.964902,-77.00095
1023,1,1,1,16,CIPRIANO RD & 5TH ST,38.970667,-76.8587
1024,1,0,1,16,CIPRIANO RD & 3RD ST,38.972445,-76.857836
10245,1,0,1,16,PRINCESS GARDEN PW & ANNAPOLIS RD,38.962526,-76.863871
1025,1,1,1,16,CIPRIANO RD & WELLINGTON PL,38.975147,-76.855268
10254,1,0,1,16,LEESBURG TP & SPRING HILL RD,38.928302,-77.241337
10256,1,0,1,16,ORA GLEN DR & MORRISON DR,38.989175,-76.866884
10260,1,0,1,33,PATRIOT DR & FOREST GLEN CT,38.828548,-77.213093
10261,1,1,1,16,ORA GLEN DR & MORRISON DR,38.989186,-76.867307
10270,1,0,1,16,ORA GLEN DR & MANDAN RD,38.988868,-76.865101
10275,1,1,1,16,MANDAN RD & CANNING TE,38.990452,-76.864318
1029,1,0,1,16,CIPRIANO RD & HICKORY HILLS AV,38.97096,-76.858801
10291,1,0,2,74,W UNIVERSITY BV & AMHERST AV,39.040618,-77.048338
1030,1,1,1,16,CIPRIANO RD & 3RD ST,38.972725,-76.857387
10307,1,1,1,16,PRINCESS GARDEN PW & WOODBURN CT,38.973333,-76.865932
10319,1,0,1,16,GALLOWS RD & PRESCOTT LA,38.87826,-77.227714
10325,1,0,2,63,MARYLAND AV & 6TH ST,38.894422,-76.997221
10331,1,0,1,32,CHERRYWOOD LA & CHERRYWOOD CT,39.004904,-76.907625
10331,1,1,1,16,CHERRYWOOD LA & CHERRYWOOD CT,39.004904,-76.907625
1035,1,0,1,18,COLEBROOKE DR & FAIRLAWN ST,38.841145,-76.949125
10368,1,0,2,51,GALLOWS RD & ARLINGTON BV,38.864254,-77.228021
10368,1,1,2,47,GALLOWS RD & ARLINGTON BV,38.864254,-77.228021
1037,1,0,1,18,COLEBROOKE DR & 28TH PW,38.839416,-76.951638
10376,1,1,5,151,NAYLOR RD & 25TH ST SE,38.861248,-76.968983
1040,1,1,1,17,COLEBROOKE DR & 26TH AV,38.837917,-76.953767
1041,1,0,1,18,COLEBROOKE DR & 25TH AV,38.837101,-76.955035
10429,1,1,1,31,N GLEBE RD & N 24TH ST,38.900039,-77.125573
10433,1,1,1,31,N GLEBE RD & N 19TH ST,38.893054,-77.119568
10440,1,0,1,39,N GLEBE RD & WASHINGTON BV,38.884831,-77.116756
10440,1,1,1,31,N GLEBE RD & WASHINGTON BV,38.884831,-77.116756
10446,1,0,1,13,N GLEBE RD & WILSON BV,38.879622,-77.11349
10446,1,1,1,14,N GLEBE RD & WILSON BV,38.879622,-77.11349
10447,1,0,1,13,N GLEBE RD & N 7TH ST,38.878662,-77.112112
10447,1,1,1,14,N GLEBE RD & N 7TH ST,38.878662,-77.112112
1045,1,1,1,58,COLESVILLE RD & SPRING ST,38.998494,-77.026596
10451,1,0,1,33,N GLEBE RD & N 4TH ST,38.875528,-77.107653
10451,1,1,1,32,N GLEBE RD & N 4TH ST,38.875528,-77.107653
10453,1,0,1,33,N GLEBE RD & N 3RD RD,38.874697,-77.106491
10453,1,1,1,32,N GLEBE RD & N 3RD RD,38.874697,-77.106491
10455,1,0,1,17,N GLEBE RD & N PERSHING DR,38.873596,-77.105473
10458,1,0,1,33,N GLEBE RD & N CATHEDRAL LA,38.871831,-77.10217
10458,1,1,1,31,N GLEBE RD & N CATHEDRAL LA,38.871831,-77.10217
10459,1,0,1,33,N GLEBE RD & N CATHEDRAL LA,38.871431,-77.101939
10459,1,1,1,32,N GLEBE RD & N CATHEDRAL LA,38.871431,-77.101939
10476,1,1,2,37,SE MISSISSIPPI AVE & SE 10TH PL,38.839093,-76.991636
10481,1,0,1,33,N GLEBE RD & N 17TH ST,38.891501,-77.119475
10482,1,0,1,33,N GLEBE RD & N 19TH ST,38.89306,-77.119818
10483,1,1,1,31,N GLEBE RD & N WOODLEY ST,38.894885,-77.121394
10484,1,1,1,31,N GLEBE RD & N 21ST ST,38.895891,-77.122142
10488,1,0,1,33,N GLEBE RD & N 25TH ST,38.901571,-77.127079
10490,1,0,3,18,HIL MAR DR & DYNASTY DR,38.844826,-76.90399
105,1,1,1,15,38TH ST & RHODE ISLAND AV,38.939414,-76.955301
1050,1,0,1,58,COLESVILLE RD & SLIGO CREEK PW,39.007822,-77.019609
10506,1,1,1,31,S GLEBE RD & S OLD GLEBE RD,38.867619,-77.096342
1051,1,0,1,58,COLESVILLE RD & FRANKLIN AV,39.008505,-77.018531
10513,1,1,1,31,S GLEBE RD & S 14TH ST,38.857751,-77.090263
10515,1,1,1,31,S GLEBE RD & S 16TH ST,38.85611,-77.089105
10517,1,0,2,51,PENNSYLVANIA AVE & O ST,38.873207,-76.969629
10517,1,1,3,40,PENNSYLVANIA AVE & O ST,38.873207,-76.969629
10521,1,0,1,33,S GLEBE RD & S TROY ST,38.844305,-77.071506
1053,1,0,1,58,COLESVILLE RD & INDIAN SPRING DR,39.012248,-77.016719
10531,1,0,1,37,BRANCH AVE & CAMDEN ST,38.859563,-76.958995
10536,1,1,1,31,S GLEBE RD & S TROY ST,38.844541,-77.071468
10537,1,1,1,31,S GLEBE RD & S WAYNE ST,38.844182,-77.074678
10542,1,0,1,33,S GLEBE RD & S 16TH ST,38.856307,-77.089472
10543,1,0,1,33,S GLEBE RD & S 14TH ST,38.857762,-77.090544
10545,1,1,1,31,S GLEBE RD & COLUMBIA PI,38.861791,-77.091879
10546,1,1,1,31,S GLEBE RD & S 9TH ST,38.862958,-77.091991
1055,1,0,1,58,COLESVILLE RD & LANARK WY,39.018767,-77.013909
10565,1,1,3,72,GLEN CARLYN DR & VISTA DR,38.85263,-77.140597
10567,1,0,3,72,GLEN CARLYN DR & BELLEVIEW DR,38.853814,-77.140094
10569,1,1,3,72,GLEN CARLYN DR & ARGYLE DR,38.854762,-77.140153
10582,1,1,3,72,GLEN CARLYN DR & BELLEVIEW DR,38.853951,-77.14037
1059,1,0,1,58,COLESVILLE RD & CRESTMOOR DR,39.027807,-77.009261
10591,1,0,1,16,MAGARITY ROAD & KENNEDY DR,38.913982,-77.212555
106,1,1,1,11,38TH ST & BUNKER HILL RD,38.939406,-76.956066
1060,1,0,2,128,COLESVILLE RD & 16TH ST,38.992419,-77.035297
10604,1,1,1,17,GOSNELL RD & TYSPRING ST,38.921967,-77.238587
10633,1,0,1,16,ST BARNABAS RD & CAREYHURST DR,38.801853,-76.977796
1064,1,0,1,58,COLESVILLE RD & SPRING ST,38.998755,-77.026148
10643,1,0,1,16,GRIFFITH RD & PIMMIT DR,38.907663,-77.19799
10644,1,1,1,15,GRIFFITH RD & CHERRI DR,38.909025,-77.19875
10647,1,0,1,16,GRIFFITH RD & FISHER DR,38.914489,-77.202541
10648,1,1,1,15,GRIFFITH RD & LISLE AV,38.915497,-77.204794
1065,1,0,1,58,COLESVILLE RD & NOYES DR,38.999834,-77.025686
10650,1,1,1,15,GRIFFITH RD & PEABODY DR,38.914376,-77.2022
1067,1,1,1,58,COLESVILLE RD & ROWEN RD,39.00415,-77.023807
10689,1,0,1,17,N HENDERSON RD & N 3RD ST,38.871055,-77.11182
10692,1,0,1,33,HERITAGE DR & AMERICANA DR,38.832116,-77.210665
1072,1,1,1,58,COLESVILLE RD & INDIAN SPRING DR,39.012333,-77.017049
10746,1,1,1,31,WILLIAMSBURG BV & OLD DOMINION DR,38.910233,-77.138904
1078,1,0,1,58,COLESVILLE RD & SOUTHWOOD AV,39.025853,-77.010696
10782,1,0,1,39,HUNTINGTON AV & BISCAYNE DR,38.794846,-77.072351
10788,1,1,1,38,HUNTINGTON AV & FOLEY ST,38.791453,-77.066341
1079,1,1,1,58,COLESVILLE RD & CRESTMOOR DR,39.028106,-77.009345
10793,1,0,1,46,4TH ST & GALLOWAY ST NE,38.952636,-76.998808
10793,1,1,1,7,4TH ST & GALLOWAY ST NE,38.952636,-76.998808
10797,1,0,2,54,SE WHEELER RD & MISSISSIPPI AV,38.838652,-76.993469
10797,1,1,2,37,SE WHEELER RD & MISSISSIPPI AV,38.838652,-76.993469
108,1,0,1,12,38TH ST & SHEPHERD ST,38.940362,-76.956168
1080,1,0,1,4,13TH ST & M ST,38.90555,-77.029495
10875,1,0,1,40,ELVANS RD & STANTON RD,38.85409,-76.987001
10875,1,1,1,40,ELVANS RD & STANTON RD,38.85409,-76.987001
10890,1,1,1,33,PENTAGON CITY MALL (15TH & JOYCE STS),38.861497,-77.063318
10898,1,0,1,16,JERMANTOWN RD (AT&T BUILDING DRIVEWAY),38.875793,-77.303535
10899,1,0,1,13,HARRY S TRUMAN DR & WOODLAWN BV,38.874637,-76.826678
10899,1,1,1,14,HARRY S TRUMAN DR & WOODLAWN BV,38.874637,-76.826678
10902,1,1,1,16,JERMANTOWN RD & GAINSBOROUGH CT,38.861747,-77.327005
10903,1,0,1,16,JERMANTOWN RD & TREVOR HOUSE DR,38.875952,-77.297937
10912,1,0,1,13,MT LUBENTIA WY & DARIEN PL,38.879353,-76.820599
10914,1,1,1,16,JERMANTOWN RD & BORGE ST,38.875349,-77.30035
10915,1,1,1,14,MT LUBENTIA WY & DARIEN PL,38.879611,-76.820756
10919,1,1,1,14,MT LUBENTIA WY & DWYER PL,38.878649,-76.812542
10922,1,0,1,33,S KENMORE ST & S 19TH ST,38.853167,-77.087866
10922,1,1,1,32,S KENMORE ST & S 19TH ST,38.853167,-77.087866
10923,1,1,1,11,BRIGHTSEAT RD & LANDOVER RD,38.916991,-76.860476
10926,1,0,1,33,S KENMORE ST & S 22ND ST,38.849725,-77.08545
10926,1,1,1,31,S KENMORE ST & S 22ND ST,38.849725,-77.08545
10927,1,0,1,33,S KENMORE ST & S 24TH ST,38.848254,-77.084607
10927,1,1,1,31,S KENMORE ST & S 24TH ST,38.848254,-77.084607
10928,1,0,1,33,S KENMORE ST & S 24TH ST,38.848561,-77.084962
10928,1,1,1,32,S KENMORE ST & S 24TH ST,38.848561,-77.084962
10932,1,0,2,58,SE 53RD ST & SE E ST,38.882277,-76.926628
10933,1,0,2,58,SE 53RD ST & SE D ST,38.883225,-76.926421
10934,1,0,2,58,SE 53RD ST & SE C ST,38.884551,-76.926136
10936,1,0,2,58,SE 53RD ST & CENTRAL AV,38.887275,-76.925539
10941,1,1,1,38,HUNTINGTON AV & OLD RICHMOND HW,38.790374,-77.064622
10943,1,0,2,56,SE TEXAS AV & SE B ST,38.887398,-76.940292
10945,1,0,2,56,SE TEXAS AV & SE DUBOIS PL,38.885582,-76.940565
1096,1,0,1,30,RANDOLPH RD & TRIVOLI LAKE BV,39.065689,-77.034864
10970,1,1,1,31,ARLINGTON BV & ALLEN ST,38.866233,-77.200094
10972,1,1,1,31,ARLINGTON BV & GRAHAM RD,38.866463,-77.194672
10975,1,0,1,11,ARLINGTON BV & PERSHING DR,38.881682,-77.084092
10977,1,1,3,72,LAKE ST & KNOLLWOOD DR,38.850043,-77.138781
10982,1,0,1,33,N PERSHING DR & N GLEBE RD,38.873475,-77.104792
10982,1,1,1,32,N PERSHING DR & N GLEBE RD,38.873475,-77.104792
11,1,1,1,15,14TH AV & KANAWHA ST,38.98832,-76.983581
11055,1,1,1,17,LEESBURG TP & TYCO RD,38.930703,-77.241822
11059,1,1,5,64,N WASHINGTON ST & GREAT FALLS ST,38.883861,-77.169044
11060,1,0,4,52,N WASHINGTON ST & PARK AV,38.883061,-77.169972
11064,1,0,3,37,WASHINGTON ST & CAVALIER TR,38.879147,-77.17879
11065,1,1,3,35,WASHINGTON ST & WESTMORELAND RD,38.879197,-77.180863
11067,1,0,3,37,WASHINGTON ST & W MARSHALL ST,38.878778,-77.184761
11068,1,1,3,35,WASHINGTON ST & JACKSON ST,38.87889,-77.18628
111,1,0,1,12,38TH AV & VOLTA ST,38.944497,-76.956534
11140,1,1,3,35,WASHINGTON ST & HILLWOOD AV,38.880252,-77.174395
11145,1,1,5,64,N WASHINGTON ST & E COLUMBIA ST,38.885151,-77.166276
11146,1,1,5,64,N WASHINGTON ST & JEFFERSON ST,38.885546,-77.165187
11204,1,0,2,61,LINCOLNIA RD & QUANTRELL AV,38.818165,-77.136181
11204,1,1,2,33,LINCOLNIA RD & QUANTRELL AV,38.818165,-77.136181
11208,1,1,1,15,LISLE AV & WARE RD,38.914154,-77.207246
11211,1,0,1,16,LISLE AV & GRIFFITH RD,38.915451,-77.205073
11233,1,0,2,36,N LIVINGSTON ST & WILSON BV,38.873513,-77.140331
11262,1,0,1,33,MARTHA CUSTIS DR @ GUNSTON RD,38.840586,-77.083094
11262,1,1,1,33,MARTHA CUSTIS DR @ GUNSTON RD,38.840586,-77.083094
11270,1,0,1,33,3700 MARTHA CUSTIS DR @ GUNSTON RD,38.840608,-77.083288
11270,1,1,1,31,3700 MARTHA CUSTIS DR @ GUNSTON RD,38.840608,-77.083288
11272,1,0,1,33,MARTHA CUSTIS DR (PARC EAST APTS #1225),38.842214,-77.080498
11272,1,1,1,31,MARTHA CUSTIS DR (PARC EAST APTS #1225),38.842214,-77.080498
113,1,0,1,12,38TH ST & WINDOM RD,38.946912,-76.956734
11321,1,0,1,30,RANDOLPH RD & VITAL WY,39.075036,-77.004454
11326,1,0,2,54,SE 6TH ST & SE SOUTHERN AVE,38.82278,-76.999208
11326,1,1,2,35,SE 6TH ST & SE SOUTHERN AVE,38.82278,-76.999208
11342,1,0,1,15,MORGAN ST & BEAUREGARD ST,38.825186,-77.13267
11400,1,1,1,31,OLD DOMINION DR & KIRBY RD,38.920772,-77.15209
11401,1,0,2,51,GALLOWS RD & WILLOW OAKS CORPORATE DR,38.862903,-77.227438
11401,1,1,2,47,GALLOWS RD & WILLOW OAKS CORPORATE DR,38.862903,-77.227438
11411,1,1,1,39,WILSON BV & HERNDON ST,38.887272,-77.095391
11416,1,1,1,31,OLD DOMINION DR & N GLEBE RD,38.904687,-77.129432
11417,1,1,1,31,OLD DOMINION DR & N ROCK SPRING RD,38.907644,-77.132572
11420,1,1,1,31,OLD DOMINION DR & N DINWIDDIE ST,38.91054,-77.14009
11423,1,1,1,31,OLD DOMINION DR & FRANKLIN PARK RD,38.915492,-77.148398
11429,1,1,1,31,OLD DOMINION DR & LINWAY TE,38.924184,-77.161253
11431,1,1,1,31,OLD DOMINION DR & 6TH PL,38.926384,-77.165739
11435,1,0,1,33,OLD DOMINION DR & CORNER LA,38.931794,-77.17414
11444,1,0,1,33,OLD DOMINION DR & 6TH PL,38.926464,-77.165896
11448,1,1,1,31,OLD DOMINION DR & VALLEY AV,38.923762,-77.157563
11449,1,0,1,4,NW SHERMAN AV & NW LAMONT ST,38.930711,-77.026403
11451,1,0,1,4,NW SHERMAN AV & NW GIRARD ST,38.925729,-77.025658
11459,1,0,1,33,OLD DOMINION DR & N ROCK SPRING RD,38.907863,-77.132904
11460,1,0,1,33,OLD DOMINION DR & N 29TH ST,38.905394,-77.130983
11473,1,0,1,11,85TH AV & LONGFELLOW ST,38.959572,-76.87006
11498,1,1,1,11,85TH AV & LEGATION RD,38.960769,-76.869819
115,1,1,1,11,38TH ST & ALLISON ST,38.948038,-76.95664
11518,1,0,1,98,NW 9TH ST & NW F ST,38.897537,-77.024052
11519,1,1,1,16,N PARK DR & N 2ND ST,38.869987,-77.114501
11520,1,0,1,17,TERMINAL;N PARK DR & N 1ST ST,38.867649,-77.11591
11544,1,1,4,63,PATRICK HENRY DR & BROOK DR,38.866846,-77.148186
11548,1,0,2,36,PATRICK HENRY DR & WILLSTON DR,38.870924,-77.146501
11549,1,1,4,63,PATRICK HENRY DR & ARLINGTON BV,38.868085,-77.147288
11551,1,0,4,64,PATRICK HENRY DR & BROOK DR,38.867052,-77.14767
11554,1,0,1,15,PENDLETON ST & ROYAL ST,38.810279,-77.042579
11555,1,0,1,15,PENDLETON ST & ST ASAPH ST,38.810561,-77.044759
11558,1,0,2,66,PENDLETON ST & HENRY ST,38.811345,-77.049921
11562,1,0,2,63,PENDLETON ST & COLUMBUS ST,38.810931,-77.046709
11569,1,0,1,17,N PERSHING DR & N EDGEWOOD ST,38.880181,-77.091613
11570,1,1,1,16,N PERSHING DR & N GARFIELD ST,38.879643,-77.093088
11576,1,0,1,33,N PERSHING DR & N GLEBE RD,38.873804,-77.104943
11576,1,1,1,31,N PERSHING DR & N GLEBE RD,38.873804,-77.104943
11577,1,0,1,17,N PERSHING DR & N THOMAS ST,38.872623,-77.10683
11580,1,1,1,16,N PERSHING DR & N THOMAS ST,38.872826,-77.106785
11582,1,1,1,16,N PERSHING DR & N OAKLAND ST,38.875125,-77.102564
11584,1,1,1,16,N PERSHING DR & N JACKSON ST,38.87744,-77.097699
11586,1,1,1,16,N PERSHING DR & N EDGEWOOD ST,38.880441,-77.091405
11594,1,0,1,16,PIMMIT DR & LOS PUEBLOS LANE,38.900322,-77.205601
11598,1,1,1,15,PIMMIT DR & PAXTON RD,38.906388,-77.198818
116,1,0,1,12,38TH ST & ALLISON ST,38.948487,-76.956411
11625,1,1,1,38,POWHATAN ST & BASHFORD LA,38.818267,-77.047402
11748,1,1,1,58,W CEDAR LANE & CEDAR WAY,39.006217,-77.098678
11774,1,1,2,54,N GLEBE RD & N QUINCY ST,38.876478,-77.10858
11791,1,0,2,46,GREENBELT METRO DR & CHERRYWOOD LN,39.011067,-76.911011
11791,1,1,2,32,GREENBELT METRO DR & CHERRYWOOD LN,39.011067,-76.911011
11792,1,0,2,32,GREENBELT METRO DR & CHERRYWOOD LN,39.011067,-76.911011
11792,1,1,2,48,GREENBELT METRO DR & CHERRYWOOD LN,39.011067,-76.911011
11814,1,1,1,11,BALTIMORE AVE & SOUTH DR,39.023927,-76.923377
11817,1,0,1,15,11701 BELTSVILLE DR (GIANT GARDEN CTR),39.049505,-76.937768
11831,1,0,1,35,SEMINARY RD & N JORDAN ST,38.824981,-77.106872
11831,1,1,1,14,SEMINARY RD & N JORDAN ST,38.824981,-77.106872
11833,1,0,1,13,SEMINARY RD & N HOWARD ST,38.824328,-77.104851
11833,1,1,1,33,SEMINARY RD & N HOWARD ST,38.824328,-77.104851
11867,1,0,1,13,SEMINARY RD & KENMORE AV,38.828277,-77.11088
11867,1,1,1,33,SEMINARY RD & KENMORE AV,38.828277,-77.11088
11877,1,0,1,13,GEORGE MASON DR & SEMINARY RD AT SKYLINE,38.841735,-77.119848
11877,1,1,1,14,GEORGE MASON DR & SEMINARY RD AT SKYLINE,38.841735,-77.119848
11892,1,1,1,15,TUXEDO RD & 57TH PL,38.917448,-76.922099
11893,1,0,1,15,TUXEDO RD & 57TH PL,38.917519,-76.921447
11895,1,0,1,15,ARBOR ST & BELLEVIEW AV,38.918684,-76.916149
11909,1,0,1,33,S SHIRLINGTON RD & S FOUR MILE RUN DR,38.84376,-77.08559
11909,1,1,1,31,S SHIRLINGTON RD & S FOUR MILE RUN DR,38.84376,-77.08559
11910,1,0,1,33,S SHIRLINGTON RD & S KEMPER RD,38.844826,-77.084753
11910,1,1,1,32,S SHIRLINGTON RD & S KEMPER RD,38.844826,-77.084753
1193,1,0,1,29,CONNECTICUT AV & RANDOLPH RD,39.057123,-77.074032
11950,1,0,1,16,ORA GLEN DR & SOUTH ORA CT,38.990687,-76.87243
11961,1,0,1,14,KENILWORTH AV & EAST WEST HW,38.959802,-76.919781
11963,1,0,1,30,ADELPHI RD & 19TH AV,39.00985,-76.976299
11975,1,0,1,30,ADELPHI RD & FOX ST,39.00896,-76.974246
11981,1,0,1,56,NEW HAMPSHIRE AVE & NORTHAMPTON DR,39.006825,-76.980889
11984,1,1,2,36,S STAFFORD ST & S 32ND RD,38.836251,-77.085792
11986,1,0,2,36,S STAFFORD ST & S 33RD ST,38.83435,-77.086696
11987,1,1,1,13,S STAFFORD ST & S 34TH ST,38.833201,-77.08695
11988,1,0,1,13,S STAFFORD ST & S 35TH ST,38.830993,-77.086447
11989,1,1,1,13,S STAFFORD ST & S 36TH ST,38.829365,-77.087383
11991,1,1,1,13,S STAFFORD ST & S 35TH ST,38.831201,-77.086575
11992,1,0,1,13,S STAFFORD ST & S 34TH ST,38.833363,-77.086937
12,1,0,3,89,15TH AV & UNIVERSITY BV,38.984708,-76.981045
12003,1,1,1,31,ADELPHI RD & ERIE ST,39.00805,-76.972566
12012,1,0,2,23,N SYCAMORE ST & N 22ND RD,38.889818,-77.15624
12012,1,1,2,29,N SYCAMORE ST & N 22ND RD,38.889818,-77.15624
12017,1,0,2,4,SE 6TH ST & SE DARRINGTON ST,38.826249,-76.998487
12017,1,1,4,99,SE 6TH ST & SE DARRINGTON ST,38.826249,-76.998487
12030,1,1,1,14,TANEY AV & N VAN DORN ST,38.822046,-77.126103
12033,1,0,1,13,TANEY AV & PELHAM ST,38.820358,-77.123436
12036,1,0,1,13,TANEY AV & PAXTON ST,38.819146,-77.120947
12039,1,1,1,14,TANEY AV & NAYLOR ST,38.817957,-77.114877
12044,1,1,1,14,TANEY AV & N HOWARD ST,38.815957,-77.110882
12085,1,0,1,15,BELCREST RD & ADELPHI RD,38.973725,-76.950943
121,1,0,1,12,38TH AV & HAMILTON ST,38.952918,-76.954835
1210,1,0,1,17,COUNCIL DR & FOSTER ST,38.856866,-76.895162
12140,1,0,1,13,S UTAH ST & S 35TH ST,38.831623,-77.089236
12145,1,0,1,33,VALLEY DR & TENNESSEE AV,38.841726,-77.075181
12145,1,1,1,33,VALLEY DR & TENNESSEE AV,38.841726,-77.075181
1215,1,0,1,36,COUNTY RD & BELWOOD ST,38.859642,-76.898684
12154,1,0,1,13,AT FT. WARD TOWERS;VAN DORN & BRADDOCK,38.831563,-77.106653
12198,1,1,3,72,VISTA DR & LAKE ST,38.851391,-77.138265
122,1,1,1,11,38TH AV & HAMILTON ST,38.952855,-76.954998
12207,1,1,1,13,S WAKEFIELD ST & S 36TH ST,38.832313,-77.092009
12208,1,0,1,13,S WAKEFIELD ST & S 34TH ST,38.83398,-77.091366
12214,1,0,1,33,S WALTER REED DR & S 8TH ST,38.865641,-77.087554
12218,1,0,1,33,S WALTER REED DR & S 13TH ST,38.859809,-77.087203
12219,1,0,1,33,S WALTER REED DR & S 13TH RD,38.858853,-77.08749
12220,1,0,1,33,S WALTER REED DR & S 16TH RD,38.8558,-77.088324
12227,1,1,1,14,LARGO RD & KETTERING DR,38.884853,-76.813903
12231,1,1,1,32,S WALTER REED DR & S HIGHLAND ST,38.858875,-77.087729
12233,1,0,1,33,S WALTER REED DR & COLUMBIA PI,38.862876,-77.086949
12256,1,0,1,39,WASHINGTON BV & N LINCOLN ST,38.886012,-77.103025
12257,1,0,1,39,WASHINGTON BV & N NELSON ST,38.886006,-77.105616
12259,1,0,1,39,WASHINGTON BV & N STAFFORD ST,38.885521,-77.111118
12261,1,0,1,39,WASHINGTON BV & N UTAH ST,38.88545,-77.113829
12263,1,1,3,35,WASHINGTON BV & N GLEBE RD,38.885486,-77.117877
12264,1,1,3,35,WASHINGTON BLVD & BUCHANAN ST,38.88533,-77.1211
12267,1,0,3,37,WASHINGTON BV & N HARRISON ST,38.88442,-77.129965
12268,1,0,3,37,WASHINGTON BV & N INGLEWOOD ST,38.884028,-77.131832
12269,1,1,3,35,WASHINGTON BV & N JEFFERSON ST,38.883795,-77.133557
12270,1,1,3,35,WASHINGTON BV & N KENILWORTH ST,38.883406,-77.135515
12271,1,1,3,35,WASHINGTON BV & N PATRICK HENRY DR,38.883417,-77.137574
12276,1,1,3,35,WASHINGTON BV & N POTOMAC ST,38.887448,-77.149566
12285,1,0,1,15,WASHINGTON BV & N SYCAMORE ST,38.888168,-77.156443
12285,1,1,3,36,WASHINGTON BV & N SYCAMORE ST,38.888168,-77.156443
12286,1,1,3,35,WASHINGTON BV & N ROOSEVELT ST,38.887555,-77.154841
12289,1,0,3,37,WASHINGTON BV & N POWHATAN ST,38.887278,-77.148807
1229,1,0,2,32,S CRESCENT RD & GARDEN WY,39.001155,-76.875387
12290,1,0,3,37,WASHINGTON BV & N OHIO ST,38.887231,-77.147062
12291,1,0,3,37,WASHINGTON BV & N 18TH ST,38.886631,-77.144678
12293,1,0,3,37,WASHINGTON BV & N LONGFELLOW ST,38.884847,-77.140345
12294,1,0,3,37,WASHINGTON BV & N PATRICK HENRY DR,38.883184,-77.137443
12296,1,0,3,37,WASHINGTON BV & N KENSINGTON ST,38.883518,-77.134088
12299,1,0,3,37,WASHINGTON BV & N FREDERICK ST,38.884888,-77.12752
12301,1,0,3,37,WASHINGTON BV & N BUCHANAN ST,38.885217,-77.121341
12328,1,1,4,117,WASHINGTON ST & QUEEN ST,38.807511,-77.046569
12330,1,1,1,38,WASHINGTON ST & PENDLETON ST,38.810904,-77.045844
12334,1,0,3,102,WASHINGTON ST & WILKES ST,38.800113,-77.047919
12337,1,1,2,64,WASHINGTON ST & GREEN ST,38.795994,-77.049029
12341,1,1,4,117,WASHINGTON ST & PRINCE ST,38.803549,-77.047437
12345,1,0,2,63,WASHINGTON ST & GREEN ST,38.796326,-77.048712
124,1,0,1,15,JEFFERSON STREET;38TH AV & KENNEDY,38.95451,-76.953123
1243,1,0,1,11,CURTIS DR & BRANCH AV,38.847393,-76.951809
1243,1,1,1,10,CURTIS DR & BRANCH AV,38.847393,-76.951809
12439,1,1,2,55,WILSON BV & N QUINN ST,38.893885,-77.078992
12441,1,1,2,55,WILSON BV & N TROY ST,38.89246,-77.082274
12446,1,1,1,39,WILSON BV & N FILLMORE ST,38.888862,-77.093009
12448,1,0,2,36,WILSON BV & PEYTON RANDOLPH DR,38.87325,-77.149267
12450,1,0,1,30,ADELPHI RD & 26TH PL,38.993589,-76.959435
12451,1,0,1,18,METZEROTT RD & ADELPHI RD,39.002506,-76.965563
12457,1,0,2,36,WILSON BV & N ABINGDON ST,38.878983,-77.117662
12458,1,0,2,36,WILSON BV & N BUCHANAN ST,38.878597,-77.119216
12460,1,1,2,35,WILSON BV & N FREDERICK ST,38.877701,-77.123553
12461,1,0,2,36,WILSON BV & N HARRISON ST,38.876835,-77.12626
12462,1,0,2,36,WILSON BV & N JEFFERSON ST,38.876437,-77.127856
12463,1,0,2,36,WILSON BV & N KENSINGTON ST,38.875615,-77.131027
12468,1,1,2,35,WILSON BV & N LIVINGSTON ST,38.873686,-77.140434
12470,1,1,2,35,WILSON BV & N MCKINLEY RD,38.873439,-77.146812
12474,1,1,2,35,WILSON BV & N PATRICK HENRY DR,38.873182,-77.143538
12476,1,1,2,35,WILSON BV & N LIBERTY ST,38.874031,-77.138779
12477,1,1,2,35,WILSON BV & N LARRIMORE ST,38.874363,-77.136945
12480,1,1,2,35,WILSON BV & N KENSINGTON ST,38.875802,-77.130944
12482,1,1,2,35,WILSON BV & N HARRISON ST,38.876914,-77.126485
12483,1,0,2,36,WILSON BV & N EMERSON ST,38.877547,-77.123305
12484,1,1,2,35,WILSON BV & N GEORGE MASON DR,38.878276,-77.121248
12485,1,1,2,35,WILSON BV & N BUCHANAN ST,38.878651,-77.119627
12487,1,1,2,35,WILSON BV & N WAKEFIELD ST,38.879632,-77.115803
125,1,1,1,11,40TH AV & HAMILTON ST,38.95308,-76.950688
12500,1,0,2,56,CLARENDON BV & N WAYNE ST,38.890314,-77.086463
12540,1,0,1,16,OLD BRANCH AV & ALLENTOWN WY,38.801538,-76.904966
12540,1,1,1,16,OLD BRANCH AV & ALLENTOWN WY,38.801538,-76.904966
12582,1,0,1,15,23RD AV & CHAPMAN RD,38.981318,-76.971012
12586,1,0,2,12,SE ORANGE ST & SE OAKWOOD ST,38.84593,-77.001345
12586,1,1,2,27,SE ORANGE ST & SE OAKWOOD ST,38.84593,-77.001345
12587,1,0,2,12,SE ORANGE ST & SE 4TH ST,38.846741,-77.00391
12587,1,1,2,27,SE ORANGE ST & SE 4TH ST,38.846741,-77.00391
12589,1,0,2,12,SE 2ND ST & SE OAKWOOD ST,38.847719,-77.00549
12589,1,1,2,27,SE 2ND ST & SE OAKWOOD ST,38.847719,-77.00549
1259,1,1,2,35,DEAL DR & DUNSTER DR,38.818102,-76.993274
126,1,0,1,12,40TH AV & 39TH AV,38.953392,-76.950532
1260,1,1,2,35,DEAL DR & KENNEBEC ST,38.818966,-76.993677
12609,1,0,1,50,NW CONNECTICUT AV & NW CHESAPEAKE ST,38.9506,-77.06712
12610,1,1,1,50,NW CONNECTICUT AV & NW CHESAPEAKE ST,38.950912,-77.067567
1262,1,1,2,35,DEAL DR & MARCY AV,38.817615,-76.993017
12645,1,1,1,31,METZEROTT RD & ADELPHI RD,39.002087,-76.964712
12664,1,1,1,23,S GEORGE MASON DR & COLUMBIA PI,38.859607,-77.101824
12666,1,0,1,23,S GEORGE MASON DR & S 6TH ST,38.863635,-77.104124
12671,1,0,1,23,S GEORGE MASON DR & COLUMBIA PI,38.859396,-77.102017
12676,1,0,1,17,N GEORGE MASON DR & N PERSHING DR,38.871845,-77.107808
12677,1,1,1,15,CHEVERLY AVE & ARBOR ST,38.919758,-76.914361
127,1,0,1,12,40TH AV & JEFFERSON ST,38.954645,-76.949844
12701,1,0,2,114,NW 14TH ST & NW I ST,38.901314,-77.031965
12701,1,1,2,114,NW 14TH ST & NW I ST,38.901314,-77.031965
12704,1,0,2,56,N RANDOLPH ST & WILSON BV,38.880614,-77.109247
12704,1,1,3,67,N RANDOLPH ST & WILSON BV,38.880614,-77.109247
1271,1,1,1,58,DEMOCRACY BV & OLD GEORGETOWN RD,39.024519,-77.126596
12710,1,0,1,17,BWTN DRWYS;N BARTON ST & N PERSHING DR,38.88114,-77.087288
1273,1,0,1,55,DEMOCRACY BV & BELLS MILL RD,39.023168,-77.130119
1274,1,0,1,55,DEMOCRACY BV & FERNWOOD RD,39.022195,-77.133958
12765,1,1,1,31,ANDERSON RD & CHAIN BRIDGE RD,38.925869,-77.204607
12769,1,1,1,15,MAGARITY RD & TILLMAN DR,38.920827,-77.200645
12772,1,1,1,15,MAGARITY RD & GRIFFITH RD,38.917391,-77.206499
12774,1,0,1,16,PIMMIT DR & MATERA ST,38.901544,-77.204883
12775,1,0,1,16,IDYLWOOD TOWERS (2311 IDYL LANE),38.896847,-77.206563
12778,1,1,1,15,IDYL LANE & IDYLWOOD RD,38.896913,-77.206418
12779,1,1,1,15,PIMMIT DR (FAIRFAX TOWERS),38.900771,-77.205227
12786,1,1,1,16,GALLOWS RD & GATEHOUSE RD,38.868466,-77.227673
12790,1,0,1,16,GALLOWS RD & BRIGHT MEADOWS LA,38.890805,-77.225571
128,1,0,1,15,40TH AV & JEFFERSON ST,38.954675,-76.950052
12835,1,0,2,48,FILLMORE AVE & DOMAIN PL,38.838019,-77.115451
12937,1,1,1,15,IDYLWOOD RD & CARTBRIDGE RD,38.89842,-77.202844
1294,1,0,3,38,HUNGERFORD DR & N WASHINGTON ST,39.091757,-77.153035
1295,1,0,1,14,DISTRICT HGTS PW & BRETON DR,38.860431,-76.889895
1296,1,0,1,16,DOCTORS HOSPITAL BUS STOP,38.981623,-76.865471
1296,1,1,1,16,DOCTORS HOSPITAL BUS STOP,38.981623,-76.865471
12972,1,0,1,13,LARGO DR WEST & LOTTSFORD RD,38.895652,-76.843615
12972,1,1,1,14,LARGO DR WEST & LOTTSFORD RD,38.895652,-76.843615
13013,1,0,1,11,AUTH WY & BRANCH AVE,38.826178,-76.923514
13015,1,0,1,11,AUTH PL & AUTH RD,38.822892,-76.918692
13032,1,0,1,50,13TH & BRENTWOOD RD NE,38.920882,-76.989302
13046,1,1,1,43,EAST CAPITOL ST NE & 57TH PL NE,38.889881,-76.920289
13070,1,1,1,38,29TH ST & PENNSYLVANIA AVE  NW,38.909406,-77.057999
13080,1,1,1,42,1ST ST & NEW YORK AVE  NW,38.906473,-77.011907
131,1,0,1,12,40TH AV & MADISON ST,38.958144,-76.950109
13168,1,1,1,18,ADDISON RD & RONALD RD,38.872456,-76.894747
13170,1,0,1,17,ADDISON RD & PINE GROVE RD,38.869831,-76.893753
13184,1,0,1,14,ROLLINS AVE & ROLLINS LANE,38.866172,-76.908131
13185,1,1,1,14,BROOKE RD & ROLLINS AVE,38.867948,-76.908378
13186,1,0,1,14,BROOKE RD & ROLLINS AVE,38.867531,-76.908208
13188,1,0,1,14,BROOKE AVE & CAMPBELL AVE,38.870296,-76.909648
13189,1,0,1,14,BROOKE AVE & OAKFORD RD,38.872732,-76.910849
13190,1,1,1,14,BROOKE AVE & OAKFORD RD,38.872741,-76.910585
13193,1,0,1,14,BROOKE RD & HIGHVIEW PLACE,38.87504,-76.913665
13198,1,1,1,14,SUFFOLK AVE & BEND ST,38.8834,-76.910675
13199,1,0,1,14,SUFFOLK AVE & BEND ST,38.882677,-76.91119
13249,1,0,1,16,GALLOWS RD & COTTAGE ST,38.886963,-77.227261
13294,1,0,1,14,CHERRYWOOD LA & GREENBELT RD,38.998062,-76.91168
13294,1,1,1,16,CHERRYWOOD LA & GREENBELT RD,38.998062,-76.91168
13346,1,0,1,8,S EADS ST & 15TH ST,38.860618,-77.053814
13346,1,1,2,42,S EADS ST & 15TH ST,38.860618,-77.053814
13418,1,0,2,56,NE KENILWORTH TE & NE HAYES ST,38.901081,-76.947735
13424,1,0,1,17,ARLINGTON BLVD & PICKETT RD,38.86478,-77.271518
13433,1,0,1,33,S CRYSTAL DR & S 23RD ST,38.853172,-77.050436
13439,1,1,1,31,S CRYSTAL DR & S 20TH ST,38.856244,-77.050532
13449,1,0,2,31,FAIR OAKS MALL (AT SEARS ENTRANCE),38.863892,-77.361178
13449,1,1,2,32,FAIR OAKS MALL (AT SEARS ENTRANCE),38.863892,-77.361178
13451,1,0,2,58,TERMINAL/FITCH ST BETWEEN 52 & 53RD ST,38.88086,-76.927298
13455,1,1,1,16,HANOVER PW & MANDAN RD,38.997705,-76.865362
13469,1,1,1,58,OLD COLUMBIA PI & INDUSTRIAL PWKY,39.056791,-76.971187
13471,1,1,1,58,OLD COLUMBIA PIKE & E RANDOLPH RD,39.062362,-76.966666
13474,1,0,1,58,OLD COLUMBIA PI & RUXTON RD/ST MARKS CH,39.064908,-76.964755
13475,1,1,1,58,OLD COLUMBIA PI & MUSGROVE RD,39.068015,-76.962552
13477,1,1,1,58,OLD COLUMBIA PI & FALLING CREEK RD,39.070358,-76.961113
13478,1,0,1,58,OLD COLUMBIA PI & FALLING CREEK RD,39.070698,-76.960762
13479,1,0,1,58,OLD COLUMBIA PI & FAIRLAND RD,39.076447,-76.957388
13480,1,1,1,58,OLD COLUMBIA PI & FAIRLAND RD,39.076784,-76.957422
13481,1,1,1,58,OLD COLUMBIA PI & MARTELLO DR,39.082084,-76.953464
135,1,0,1,12,42ND AV & OGLETHORPE ST,38.959621,-76.946444
13532,1,0,1,39,SW I ST & SW MAKEMIE PL,38.879213,-77.019105
13533,1,1,1,39,SW I ST & SW MAKEMIE PL,38.879369,-77.018768
136,1,0,1,12,42ND AV & OLIVER ST,38.961114,-76.946326
1366,1,1,1,16,SOUTHWAY AT #7 COURT SOUTHWAY,38.997829,-76.878032
1368,1,1,1,15,EDGEWOOD RD & 49TH AV,39.015925,-76.924314
13703,1,1,1,9,9TH ST NW & I ST NW,38.90087,-77.02395
1371,1,0,1,14,EDGEWOOD RD & 49TH AV,39.01609,-76.924378
1372,1,0,1,14,EDGEWOOD RD & RHODE ISLAND AV,39.016123,-76.921306
1376,1,0,1,11,EDMONSTON RD & 51ST ST,38.943538,-76.931846
13760,1,0,1,40,12TH PL SE & ROBINSON PL SE,38.850495,-76.986288
13760,1,1,1,40,12TH PL SE & ROBINSON PL SE,38.850495,-76.986288
1377,1,0,1,11,EDMONSTON RD & BUCHANAN ST,38.945048,-76.929597
138,1,0,1,12,42ND AV & QUEENSBURY RD,38.963455,-76.946161
1381,1,0,1,11,EDMONSTON RD & FARRAGUT ST,38.950014,-76.925783
1382,1,0,1,11,EDMONSTON RD & GALLATIN ST,38.950989,-76.924796
1383,1,0,1,11,EDMONSTON RD & HAMILTON ST,38.951896,-76.923764
1384,1,1,1,15,EDMONSTON RD & RADCLIFFE DR,38.976419,-76.91367
13849,1,0,1,35,KENILWORTH AV & ALDEN PL  NE,38.891213,-76.957549
13852,1,0,1,35,33RD ST & BLAINE ST  NE,38.891882,-76.96018
13861,1,1,2,76,NW I ST & NW 17TH ST,38.901324,-77.039454
1387,1,1,1,15,EDMONSTON RD & BRYN MAWR RD,38.983607,-76.91015
13871,1,0,1,13,N HOWARD & IMBODEN ST,38.818056,-77.106277
13872,1,1,1,14,N HOWARD & IMBODEN ST,38.81813,-77.106733
1388,1,1,1,15,EDMONSTON RD & CHARLTON AV,38.986043,-76.909485
13895,1,0,4,58,NEW JERSEY AVE SE & M ST SE,38.876599,-77.004772
13895,1,1,2,42,NEW JERSEY AVE SE & M ST SE,38.876599,-77.004772
13903,1,1,1,100,31ST PL & SOUTH DAKOTA AVE,38.923466,-76.962704
13925,1,0,1,21,BWI AIRPORT STOP 2,39.18132,-76.668939
13925,1,1,1,21,BWI AIRPORT STOP 2,39.18132,-76.668939
1393,1,0,1,14,EDMONSTON RD & EDMONSTON CT,38.999993,-76.898724
1394,1,1,1,15,EDMONSTON RD & SPRINGHILL CT,39.00121,-76.89801
13955,1,0,1,11,SE 12TH ST & SE M ST,38.876133,-76.99021
1398,1,0,1,11,EDMONSTON RD & UPSHUR ST,38.942519,-76.933098
140,1,1,1,26,57TH AV & ANNAPOLIS RD,38.939598,-76.917729
1402,1,1,1,11,EDMONSTON RD & DECATUR ST,38.947657,-76.927595
1407,1,0,1,14,EDMONSTON RD & RADCLIFFE DR,38.97609,-76.913653
1408,1,0,1,14,EDMONSTON RD & KNOXVILLE DR,38.979957,-76.912917
141,1,0,1,26,57TH AV & ANNAPOLIS RD,38.940266,-76.917652
141,1,1,1,26,57TH AV & ANNAPOLIS RD,38.940266,-76.917652
1410,1,0,1,14,EDMONSTON RD & BRYN MAWR RD,38.983185,-76.910192
1413,1,1,1,15,EDMONSTON RD & PONTIAC ST,38.990397,-76.906633
1415,1,0,1,14,EDMONSTON RD & SPRINGHILL CT,39.001169,-76.89782
1416,1,1,1,15,EDMONSTON RD & SPRINGHILL DR,39.003654,-76.897859
1420,1,0,1,26,EMERSON ST & 58TH AV,38.947166,-76.913089
1420,1,1,1,26,EMERSON ST & 58TH AV,38.947166,-76.913089
14209,1,0,1,16,GALLOWS RD & IDYLWOOD RD,38.8958,-77.225144
14224,1,1,1,16,GALLOWS BRANCH & OLD GALLOWS RDS,38.908882,-77.222796
14227,1,1,1,16,GALLOWS RD & MADRON LA,38.904939,-77.222473
14228,1,0,1,16,GALLOWS RD & MADRON LA,38.904413,-77.222873
14238,1,1,1,16,GALLOWS RD & RAILROAD ST,38.898288,-77.224247
14239,1,1,1,16,GALLOWS RD & ELM PL,38.89594,-77.2248
1425,1,1,1,38,9TH ST NW & M ST NW,38.905673,-77.024053
1427,1,1,1,32,ETHAN ALLEN AV & ELM AV,38.976161,-76.996646
14274,1,0,1,55,ROCKVILLE PIKE & CENTER DR,38.997078,-77.096817
14277,1,1,1,38,9TH ST NW & MASSACHUSETTS AVE NW,38.90316,-77.024091
1429,1,0,1,31,ETHAN ALLEN AV & JACKSON AV,38.977948,-77.001791
14328,1,0,2,49,JONES BRANCH DR & PARK RUN DR,38.931909,-77.227511
14396,1,0,1,33,WALTER REED DR & 6TH ST,38.867504,-77.087886
144,1,0,1,26,57TH AV & EMERSON ST,38.947451,-76.915181
144,1,1,1,26,57TH AV & EMERSON ST,38.947451,-76.915181
14480,1,0,2,114,NW 14TH ST & NW IRVING ST,38.92847,-77.032736
14480,1,1,2,114,NW 14TH ST & NW IRVING ST,38.92847,-77.032736
14483,1,0,1,11,BRANCH AVE & 32ND AVE,38.844206,-76.950487
14483,1,1,1,17,BRANCH AVE & 32ND AVE,38.844206,-76.950487
14484,1,0,1,18,BRANCH AVE & BONITA ST,38.844247,-76.950001
14484,1,1,1,10,BRANCH AVE & BONITA ST,38.844247,-76.950001
14490,1,1,1,15,RIVER RD & KENILWORTH AVE,38.96745,-76.919679
14492,1,0,1,14,RIVER RD & RIVERTECH COURT,38.969771,-76.926534
14494,1,0,1,14,RIVER RD AT AMERICAN PHYSICS BUILDING,38.972202,-76.928312
14506,1,0,1,21,BWI AIRPORT STOP 1,39.181608,-76.669386
14506,1,1,1,21,BWI AIRPORT STOP 1,39.181608,-76.669386
14507,1,0,1,21,BWI BUSINESS DISTRICT LIGHT RAIL STATION,39.191489,-76.673028
14507,1,1,1,21,BWI BUSINESS DISTRICT LIGHT RAIL STATION,39.191489,-76.673028
14510,1,0,1,40,NE D ST & 15TH ST,38.894737,-76.983826
14511,1,0,1,40,NE D ST & 17TH ST,38.89474,-76.981006
14513,1,1,1,40,NE C ST & NE 18TH ST,38.893454,-76.978806
14514,1,0,1,40,NE C ST BETWEEN 18TH ST & 19TH ST   .,38.893189,-76.977511
14516,1,0,1,40,NE C ST & NE 17TH PL,38.893189,-76.979617
14517,1,1,1,40,C ST & 15TH ST NE,38.893463,-76.983309
14519,1,1,1,40,C ST & 13TH ST NE,38.893633,-76.988123
14520,1,1,1,40,C ST & 11TH ST NE,38.893649,-76.991369
14521,1,1,1,40,C ST & 9TH ST NE,38.893643,-76.99358
14522,1,1,3,99,NE 8TH ST & NE C ST,38.893715,-76.995062
14523,1,0,2,4,SE 6TH ST & SE GALVESTON ST,38.824778,-76.999257
14523,1,1,4,99,SE 6TH ST & SE GALVESTON ST,38.824778,-76.999257
14530,1,0,1,32,3RD & M STRS SW,38.876859,-77.015117
14530,1,1,1,39,3RD & M STRS SW,38.876859,-77.015117
14531,1,1,2,42,SE I ST & SE 11TH ST,38.879345,-76.991249
14536,1,0,1,16,FORESTVILLE RD & STEWART RD,38.838356,-76.87584
14536,1,1,2,19,FORESTVILLE RD & STEWART RD,38.838356,-76.87584
14538,1,1,1,18,FORESTVILLE RD & RENA RD,38.828776,-76.878612
14543,1,1,2,104,NE BLADENSBURG RD & NE EARL PL,38.927727,-76.962237
14557,1,0,2,75,NW H ST & 18TH ST,38.900135,-77.041868
14564,1,0,1,34,WESTERN AV & ALLAN RD,38.951285,-77.098017
14565,1,0,1,34,WESTERN AV & LEROY PL,38.953313,-77.095426
14567,1,1,1,34,NW WESTERN AV & NW ELLICOTT ST,38.95356,-77.094873
14572,1,0,1,57,NW 14TH ST & NW F ST,38.897269,-77.031105
14572,1,1,1,57,NW 14TH ST & NW F ST,38.897269,-77.031105
14592,1,1,1,40,NE K ST & NE 2ND ST,38.90259,-77.003373
14616,1,0,2,75,NW H ST & NW 17TH ST,38.900143,-77.040161
14618,1,1,1,11,BALTIMORE AV & UNIVERSITY BV,39.00087,-76.931327
14619,1,0,1,12,BALTIMORE AV & UNIVERSITY BV,39.000914,-76.931058
14620,1,1,1,100,NE 31ST PL & NE BANNEKER DR,38.924143,-76.960873
14621,1,1,1,100,NE 31ST PL & NE FT LINCOLN DR,38.924208,-76.959784
14624,1,1,2,74,SE NAYLOR RD & SE R ST,38.869683,-76.972338
14625,1,1,1,43,SW OVERLOOK AV & SW BEYER RD,38.824449,-77.017454
14626,1,1,1,43,SW CHESAPEAKE ST & SW OVERLOOK AVE,38.827874,-77.017449
14631,1,0,2,48,SE BARNABY ST & SE 9TH ST,38.8325,-76.990826
14632,1,1,2,48,SE 8TH ST & SE YUMA ST,38.832174,-76.994714
14650,1,1,2,64,CAMPUS DR & PRESIDENTIAL DR,38.985136,-76.953104
14657,1,1,1,45,TOLEDO TE & TOLEDO RD,38.970029,-76.960969
14658,1,0,1,15,BELCREST RD & TOLEDO RD,38.969949,-76.953265
14659,1,0,1,16,BOCK RD & ST BARNABAS RD,38.80088,-76.979023
14661,1,1,1,35,NW HARVARD ST & NW ADAMS MILL RD,38.92788,-77.042861
14681,1,1,3,35,N SYCAMORE ST & WASHINGTON BV,38.88764,-77.158269
14682,1,0,2,23,N SYCAMORE ST & WASHINGTON BV,38.887919,-77.156189
14682,1,1,2,29,N SYCAMORE ST & WASHINGTON BV,38.887919,-77.156189
14683,1,0,1,30,OXON HILL RD & FELKER AV,38.802439,-76.995422
14688,1,1,1,17,GOSNELL RD & WALL ST,38.919813,-77.23897
14691,1,1,1,14,PLUM ORCHARD DR & CHERRY HILL RD,39.052442,-76.953504
14697,1,0,1,17,SUITLAND RD & MARIANNE DR,38.825575,-76.891779
14774,1,0,1,54,NW NEW HAMPSHIRE AVE & NW WEBSTER ST,38.944092,-77.01843
14779,1,1,1,53,NW NEW HAMPSHIRE AVE & NW WEBSTER ST,38.944322,-77.018497
14794,1,0,1,12,SE 22ND ST & SE SOUTHERN AVE,38.844713,-76.972354
14794,1,1,1,38,SE 22ND ST & SE SOUTHERN AVE,38.844713,-76.972354
14801,1,0,1,12,1924 SE SAVANNAH ST,38.84653,-76.976757
14802,1,0,3,112,SE SAVANNAH ST & SE 18TH ST,38.846212,-76.978338
14808,1,1,2,31,NE WEST VIRGINIA AV & NE MONTANA AV,38.916437,-76.978937
1484,1,0,1,31,FENTON ST & SILVER SPRING AV,38.99117,-77.024084
14840,1,0,1,50,NW CONNECTICUT AVE & NW CATHEDRAL AVE,38.927875,-77.053911
1490,1,0,1,31,FENTON ST & THAYER AV,38.992762,-77.024154
14910,1,0,1,33,S 26TH RD & S GLEBE RD,38.845437,-77.077578
1492,1,0,1,31,FENTON ST & SLIGO AV,38.989975,-77.024066
14926,1,0,2,57,KANSAS AV NW & ALLISON ST NW,38.944862,-77.023616
14927,1,1,2,58,NW KANSAS AV & NW 8TH ST,38.945465,-77.023407
1493,1,0,1,31,FENTON ST & PHILADELPHIA AV,38.988492,-77.023846
14930,1,0,1,54,NW NEW HAMPSHIRE AV & NW TAYLOR ST,38.940834,-77.020821
14931,1,0,1,54,NW NEW HAMPSHIRE AV & NW SHEPHERD ST,38.93965,-77.021694
14933,1,1,1,53,NW NEW HAMPSHIRE AV & NW RANDOLPH ST,38.938343,-77.022959
14935,1,1,1,51,NW ROCK CREEK CHURCH RD & NW UPSHUR ST,38.941911,-77.013689
14936,1,1,1,51,NW ROCK CREEK CHURCH RD & NW SHEPHERD ST,38.940201,-77.015066
14937,1,0,1,52,NW ROCK CREEK CHURCH RD & NW 3RD ST,38.939642,-77.015296
14939,1,1,1,51,NW ROCK CREEK CHURCH RD & NW 4TH ST,38.938488,-77.016799
14941,1,0,1,52,NW ROCK CREEK CHURCH RD & NW WARDER ST,38.936953,-77.021527
14943,1,1,1,51,NW QUINCY ST & NW 5TH ST,38.937841,-77.018865
14944,1,1,1,51,NW QUINCY ST & NW 7TH ST,38.937754,-77.021748
14948,1,1,1,14,HILL RD & HILL OAKS RD,38.900237,-76.883738
14970,1,0,1,11,SHERIFF RD & GLEN WILLOW DR,38.907008,-76.903693
15053,1,0,1,14,WALKER MILL RD & WEBER DR,38.865301,-76.906898
15054,1,0,1,14,WALKER MILL RD & SCOTT KEY DR,38.863744,-76.903069
1515,1,0,1,18,FISHER RD & DAMIAN DR,38.810326,-76.951901
1516,1,0,1,18,FISHER RD & TEMPLE BV,38.811835,-76.950286
1517,1,0,1,18,FISHER RD & FISHER DR,38.8126,-76.948495
1518,1,0,1,18,FISHER RD & HOLTON LA,38.813425,-76.946584
1519,1,1,1,17,FISHER RD & ST MORITZ DR,38.809062,-76.953354
1521,1,1,1,17,FISHER RD & TEMPLE BV,38.812014,-76.950237
1543,1,0,3,38,FREDERICK RD & INDIANOLA DR,39.112753,-77.161944
1549,1,0,1,18,GATEWAY BV & MARLBORO PI,38.854222,-76.898859
1550,1,0,1,14,GATEWAY BV & RAMBLEWOOD DR,38.857631,-76.888735
1552,1,1,1,18,GATEWAY BV & BLAZER DR,38.855707,-76.896109
1553,1,1,1,18,GATEWAY BV & COUNTY RD,38.854781,-76.898981
1554,1,0,1,99,GEORGIA AV & BLAIR RD,38.985212,-77.026511
1558,1,0,6,115,GEORGIA AV & ELLSWORTH DR,38.995154,-77.027002
1563,1,0,6,115,GEORGIA AV & HIGHLAND DR,39.004189,-77.036726
1564,1,0,6,115,GEORGIA AV & GRACE CHURCH RD,39.005074,-77.037677
1565,1,0,6,115,GEORGIA AV & LUZERNE AV,39.006984,-77.039291
1566,1,0,6,115,GEORGIA AV & SEMINARY PL,39.009456,-77.040379
157,1,1,1,11,85TH AV & LONGFELLOW ST,38.959613,-76.86976
1570,1,1,5,108,GEORGIA AV & BELVEDERE BV,39.019247,-77.044133
1571,1,0,6,115,GEORGIA AV & AUGUST DR,39.021178,-77.044502
1572,1,1,5,108,GEORGIA AV & DEXTER AV,39.021976,-77.045122
1573,1,0,6,115,GEORGIA AV & DENNIS AV,39.024168,-77.045533
1575,1,0,6,115,GEORGIA AV & DAYTON ST,39.028262,-77.046924
1580,1,0,3,69,GEORGIA AV & PRICE AV,39.040681,-77.051358
1582,1,0,3,69,GEORGIA AV & DAWSON AV,39.045359,-77.051958
1583,1,0,3,69,GEORGIA AV & ARCOLA AVE,39.04694,-77.051912
1584,1,0,3,69,GEORGIA AV & PARKER AV,39.049307,-77.051725
1585,1,1,2,64,GEORGIA AV & HENDERSON AV,39.050834,-77.051722
1586,1,0,3,69,GEORGIA AV & SHOREFIELD RD,39.053404,-77.050661
1587,1,1,2,64,GEORGIA AV & MASON ST,39.055451,-77.050242
1591,1,0,3,69,GEORGIA AV & GLENALLAN AV,39.063354,-77.054932
1594,1,0,3,69,GEORGIA AV & WELLER RD,39.067042,-77.059696
160,1,1,1,11,85TH PL & POWHATAN ST,38.966979,-76.87211
1600,1,1,2,64,GEORGIA AV & VERONA DR,39.075014,-77.068136
16028,1,0,1,37,SE SHERIDAN RD & SE BOWEN RD,38.859152,-76.993467
16028,1,1,2,77,SE SHERIDAN RD & SE BOWEN RD,38.859152,-76.993467
1603,1,0,3,69,GEORGIA AV & WENDY LA,39.079642,-77.073384
16030,1,0,1,40,SE POMEROY RD & SE SHERIDAN RD,38.855672,-76.992608
16043,1,1,1,58,OLD COLUMBIA PI & HIDDEN VALLEY DR,39.074638,-76.958714
16058,1,1,3,109,NW NEW HAMPSHIRE AV & NW SPRING RD,38.935279,-77.025238
16060,1,0,1,30,ADELPHI RD & RIGGS RD,39.004493,-76.968358
16063,1,1,1,14,SEAT PLEASANT DR & HEDGELEAF AV,38.899478,-76.892239
16064,1,0,1,15,SEAT PLEASANT DR & HEDGELEAF AV,38.899371,-76.892019
16071,1,0,2,28,25TH AV & QUEENS CHAPEL RD,38.947873,-76.970733
16071,1,1,1,14,25TH AV & QUEENS CHAPEL RD,38.947873,-76.970733
1609,1,1,2,64,MANOR APTS;14301 GEORGIA AV,39.090113,-77.080194
16097,1,0,1,33,PARK RUN DR & WESTPARK DR,38.928217,-77.226857
16104,1,1,1,33,26TH ST S & S VEITCH ST,38.846957,-77.075856
16109,1,0,1,55,WISCONSIN AV & CHELTENHAM DR,38.988402,-77.095232
16113,1,0,1,33,GALLERIA DR & TYSONS BV,38.922194,-77.220227
16113,1,1,2,46,GALLERIA DR & TYSONS BV,38.922194,-77.220227
1612,1,1,2,42,GEORGIA AV & EMORY LA,39.125775,-77.072714
16128,1,0,1,16,BLAKE LA & BUSHMAN DR,38.876487,-77.294299
1614,1,1,2,42,GEORGIA AV & KING WILLIAM DR,39.14554,-77.067295
16160,1,0,1,14,DISTRICT HGTS PW & ADDISON RD S,38.861015,-76.888042
16167,1,0,1,16,ALLENTOWN RD & WALDRAN AV,38.792714,-76.922803
16173,1,0,1,17,5848 ALLENTOWN WY,38.801231,-76.907836
16173,1,1,1,17,5848 ALLENTOWN WY,38.801231,-76.907836
1618,1,1,1,98,GEORGIA AV & 13TH ST,38.986906,-77.026812
16196,1,1,1,16,OLD BRANCH AV & ALLENTOWN WY,38.804119,-76.906916
1621,1,1,1,98,GEORGIA AV & BONIFANT ST,38.993704,-77.02687
16217,1,1,1,58,WOODMONT AV & CHELTENHAM DR,38.988021,-77.095966
16218,1,1,1,58,WISCONSIN AV & CHELSEA LA (N),38.994721,-77.096251
16227,1,0,2,35,MARLBORO PI & PENN CROSSING DR,38.859193,-76.908752
16235,1,0,1,30,RANDOLPH RD & GARDEN GATE RD,39.063855,-77.039417
1624,1,1,5,108,GEORGIA AV & CAMERON ST,38.99753,-77.02997
16240,1,1,1,31,ADELPHI RD & CHEROKEE ST,39.004235,-76.967579
16241,1,1,1,31,ADELPHI RD & EVANSDALE DR,39.009678,-76.97541
1626,1,0,6,115,GEORGIA AV & BALLARD ST,39.000821,-77.033102
1630,1,1,5,108,GEORGIA AV & LUZERNE AV,39.006918,-77.039602
1635,1,0,6,115,GEORGIA AV & BELVEDERE BV,39.019419,-77.043873
1637,1,0,6,115,GEORGIA AV & DEXTER AV,39.022491,-77.044964
1638,1,1,5,108,GEORGIA AV & DENNIS AV,39.025415,-77.046293
1642,1,0,6,115,GEORGIA AV & WINDHAM LA,39.032208,-77.048286
1643,1,1,5,108,GEORGIA AV & VEIRS MILL RD,39.03491,-77.049548
1646,1,1,2,64,GEORGIA AV & BLUERIDGE AV,39.043432,-77.05221
1647,1,1,2,64,GEORGIA AV & DAWSON AV,39.045698,-77.052289
1650,1,0,3,69,GEORGIA AV & HENDERSON AV,39.05108,-77.051327
1651,1,1,2,64,GEORGIA AV & WEISMAN RD,39.052798,-77.051177
1653,1,0,1,30,GEORGIA AV & RANDOLPH RD,39.058263,-77.049131
1656,1,0,1,16,GOOD LUCK RD & PALAMAR DR,38.985519,-76.839416
1668,1,1,2,64,GEORGIA AV & WENDY LA,39.079733,-77.074226
1674,1,0,3,69,MANOR APTS;14301 GEORGIA AV,39.090935,-77.079647
1680,1,0,2,45,GEORGIA AV & KING WILLIAM DR,39.145869,-77.066866
1681,1,1,2,42,GEORGIA AV & QUEEN MARY DR,39.14856,-77.067014
1683,1,1,2,35,GLASSMANOR DR & IRVINGTON ST,38.822851,-76.993509
1685,1,0,1,36,GLASSMANOR DR & KENNEBEC ST,38.819281,-76.992779
1685,1,1,2,35,GLASSMANOR DR & KENNEBEC ST,38.819281,-76.992779
17,1,0,1,15,23RD AV & SHERIDAN ST,38.969746,-76.972667
17,1,1,1,14,23RD AV & SHERIDAN ST,38.969746,-76.972667
170,1,0,2,48,SE BARNABY ST & SE WHEELER RD,38.833218,-76.989905
1701,1,0,1,11,GLENARDEN PW & HAYES ST,38.933734,-76.867999
17035,1,0,1,17,28TH AV & KEITH ST,38.835731,-76.948438
17035,1,1,1,17,28TH AV & KEITH ST,38.835731,-76.948438
1708,1,1,1,11,GLENARDEN PW & WESLEY ST,38.930887,-76.861848
1709,1,1,1,11,GLENARDEN PW & BRIGHTSEAT RD,38.930144,-76.859969
171,1,0,1,32,CHERRYWOOD LA & SPRINGHILL DR,39.007011,-76.906041
171,1,1,1,16,CHERRYWOOD LA & SPRINGHILL DR,39.007011,-76.906041
1718,1,1,1,16,ALLENTOWN RD & ROBIN LANE,38.806961,-76.90227
1721,1,0,1,11,GOOD LUCK RD & TREXLER RD,38.972733,-76.889878
1726,1,1,1,16,GOOD LUCK RD & CIPRIANO RD,38.977923,-76.853912
1731,1,1,1,16,GOOD LUCK RD & 100TH PL,38.983261,-76.842506
1734,1,1,1,11,GOOD LUCK RD & IAN ST,38.972574,-76.891294
1735,1,1,1,11,GOOD LUCK RD & HARLAND ST,38.973224,-76.888926
1737,1,0,1,11,LAMONT ELEM SCHOOL;GOOD LUCK RD,38.974865,-76.883697
1742,1,0,1,16,GOOD LUCK RD & PRESLEY RD,38.980126,-76.848469
1744,1,0,1,16,GOOD LUCK RD & 97TH PL,38.982702,-76.843732
1748,1,1,1,15,ARBOR ST & 59TH AV,38.917755,-76.919108
1754,1,0,1,15,PLUM ORCHARD DR & BROADBIRCH DR,39.054919,-76.957678
1754,1,1,1,14,PLUM ORCHARD DR & BROADBIRCH DR,39.054919,-76.957678
1756,1,0,2,46,GREENBELT RD & 48TH AV,38.998204,-76.929523
1760,1,0,1,16,GREENBELT RD & 63RD AV,38.996689,-76.90563
1760,1,1,1,15,GREENBELT RD & 63RD AV,38.996689,-76.90563
1761,1,0,1,14,GREENBELT RD & EDMONSTON RD,38.996546,-76.901898
1761,1,1,1,16,GREENBELT RD & EDMONSTON RD,38.996546,-76.901898
1767,1,0,1,16,NASA MAIN ENTRANCE ON GREENBELT RD,38.990794,-76.852618
1770,1,0,1,32,GREENBELT RD & RHODE ISLAND AV,38.998086,-76.926104
1772,1,0,1,16,CHERRYWOOD LANE & GREENBELT RD,38.999465,-76.911842
1772,1,1,2,48,CHERRYWOOD LANE & GREENBELT RD,38.999465,-76.911842
1774,1,0,1,14,GREENBELT RD & 63RD AV,38.996856,-76.90452
1774,1,1,1,16,GREENBELT RD & 63RD AV,38.996856,-76.90452
1776,1,1,1,16,GREENBELT RD & HANOVER PW,38.994866,-76.874038
1781,1,1,1,16,NASA MAIN ENTRANCE ON GREENBELT RD,38.991172,-76.853335
1790,1,1,2,24,GREENLEAF RD & ROMNEY CT,38.920202,-76.873456
1794,1,0,3,38,FREDERICK RD & REDLAND RD,39.115351,-77.165413
1796,1,1,3,40,HUNGERFORD DR &   BEALL  AV,39.087923,-77.150691
1804,1,1,1,16,JERMANTOWN RD & ARROWHEAD DR,38.874075,-77.314354
1819,1,0,1,13,WHITEHOLM DR & KENDLE ST,38.893145,-76.778226
1819,1,1,1,14,WHITEHOLM DR & KENDLE ST,38.893145,-76.778226
1823,1,1,1,15,HAMILTON ST & 36TH AV,38.954357,-76.958175
1824,1,1,1,15,HAMILTON ST & 37TH AV,38.95385,-76.956378
1829,1,0,1,15,HAMILTON ST & 31ST AV,38.956193,-76.963265
1829,1,1,2,28,HAMILTON ST & 31ST AV,38.956193,-76.963265
1832,1,0,1,15,HAMILTON ST & 36TH AV,38.95436,-76.958679
1838,1,0,1,24,HAWTHORNE ST & KENT VILLAGE DR,38.924036,-76.884071
1839,1,0,3,105,U ST & 11TH ST NW,38.917108,-77.026865
1839,1,1,1,43,U ST & 11TH ST NW,38.917108,-77.026865
1844,1,0,1,24,HAWTHORNE ST & PINEBROOK AV,38.925253,-76.890752
1845,1,1,1,11,HAYES ST & GLENARDEN PW,38.933925,-76.868074
1846,1,0,1,11,HAYES ST & JOHNSON AV,38.934328,-76.867172
1847,1,1,1,11,HAYES ST & JOHNSON AV,38.934443,-76.867262
1848,1,0,1,44,U ST & 13TH ST NW,38.916919,-77.029202
1848,1,1,3,99,U ST & 13TH ST NW,38.916919,-77.029202
1851,1,0,1,17,HELMONT DR & FENWOOD AV,38.808731,-76.977638
1851,1,1,1,18,HELMONT DR & FENWOOD AV,38.808731,-76.977638
1853,1,0,1,17,HELMONT DR & CLEARVIEW AV,38.811857,-76.98016
1853,1,1,1,18,HELMONT DR & CLEARVIEW AV,38.811857,-76.98016
1854,1,0,1,17,HELMONT DR & DUNDALK DR,38.813258,-76.982739
1854,1,1,1,18,HELMONT DR & DUNDALK DR,38.813258,-76.982739
1876,1,1,1,18,6600 HIL MAR DR,38.84374,-76.900538
1879,1,0,3,105,U ST & 13TH ST NW,38.917108,-77.029418
1879,1,1,1,43,U ST & 13TH ST NW,38.917108,-77.029418
1888,1,0,1,13,KEVERTON DR & DAUNTLY ST,38.890837,-76.780477
1888,1,1,1,14,KEVERTON DR & DAUNTLY ST,38.890837,-76.780477
1897,1,1,1,14,KETTERING DR & HERRINGTON DR,38.895833,-76.807213
1901,1,0,2,33,INDIAN HEAD HW & SOUTHERN AV,38.820708,-77.001027
1907,1,1,1,17,INDIAN HEAD HW & WILSON BRIDGE DR,38.787228,-76.99834
1913,1,1,2,35,INDIAN HEAD HW & SOUTHERN AV,38.820972,-77.000908
1914,1,0,3,69,INDIAN HEAD HW & AUDREY LA,38.818979,-76.998579
1919,1,1,1,14,KETTERING DR & KETTERING TE,38.89474,-76.807295
1926,1,1,2,35,IRVINGTON ST & AUDREY LA,38.822024,-76.996433
1927,1,1,1,34,IVERSON ST & OWENS RD,38.824211,-76.990887
1931,1,1,1,34,IVERSON ST & 19TH AV,38.830036,-76.967556
1933,1,1,1,34,IVERSON ST & 22ND AV,38.831837,-76.962176
1937,1,1,2,51,IVERSON ST & 24TH AV,38.835002,-76.956597
1939,1,1,2,51,IVERSON ST & 26TH AV,38.836692,-76.953043
1942,1,0,1,36,IVERSON ST & OWENS RD,38.824115,-76.990727
1944,1,1,1,34,IVERSON ST & SUTLER DR,38.824084,-76.985286
1946,1,0,1,36,IVERSON ST & 21ST AV,38.830828,-76.963489
1947,1,0,1,36,IVERSON ST & 22ND AV,38.831804,-76.961737
195,1,0,1,15,ADDISON RD & ANTELOPE LA,38.911094,-76.929285
1950,1,0,2,54,IVERSON ST & 24TH AV,38.835183,-76.955591
1953,1,0,1,36,IVERSON ST & 28TH AV,38.837994,-76.949703
1956,1,0,1,13,KETTERING DR & RED JADE DR,38.892358,-76.807701
1958,1,1,1,15,38TH AVE;3800 JEFFERSON ST,38.954653,-76.952878
196,1,1,1,14,ADDISON RD & ANTELOPE LA,38.911233,-76.929406
1962,1,0,1,15,JEFFERSON ST & 43RD AV,38.95508,-76.943266
1964,1,1,1,11,JEFFERSON ST & 40TH AV,38.95482,-76.949968
1965,1,1,1,15,JEFFERSON ST & 41ST AV,38.954883,-76.94748
1966,1,0,1,15,JEFFERSON ST & 42ND AV,38.95488,-76.945654
1967,1,1,1,15,JEFFERSON ST & 43RD AV,38.955182,-76.943113
1968,1,0,1,15,JEFFERSON ST & BALTIMORE AV,38.955302,-76.940577
197,1,0,1,15,ADDISON RD & DOEWOOD LA,38.911006,-76.92631
1970,1,1,1,14,KETTERING DR & ABBOTSWOOD CT,38.890254,-76.808462
1977,1,0,3,79,PENNSYLVANIA AV &    11TH ST,38.894641,-77.027314
1978,1,0,1,16,EVERHART PL & CORNING AVE,38.808528,-76.962558
1978,1,1,1,17,EVERHART PL & CORNING AVE,38.808528,-76.962558
198,1,1,1,14,ADDISON RD & DOEWOOD LA,38.911211,-76.926431
1980,1,0,1,16,GLEN ROCK AVE & CORNING AVE,38.807821,-76.963739
1980,1,1,1,17,GLEN ROCK AVE & CORNING AVE,38.807821,-76.963739
1981,1,0,1,55,MONTGOMERY AV & WAVERLY ST,38.983941,-77.09145
202,1,0,1,15,ADDISON RD & N ENGLEWOOD DR,38.910055,-76.922458
2023,1,0,1,14,KENILWORTH AV & FROLICH LA,38.921893,-76.931031
2035,1,0,2,25,KENILWORTH AV & KENNEDY ST,38.954968,-76.922974
204,1,0,1,15,ADDISON RD & CHAPELWOOD LA,38.907907,-76.919825
2045,1,1,2,30,KENILWORTH AV & LYDELL RD,38.925864,-76.928217
20457,1,1,1,58,CEDAR LA & CYPRESS AV,39.005605,-77.102498
2046,1,0,1,14,KENILWORTH AV & 52ND AV,38.930048,-76.931384
205,1,1,1,14,ADDISON RD & DUNBAR OAKS DR,38.906775,-76.918338
2050,1,0,1,18,25TH AV &    IVERSON ST,38.836457,-76.9547
2055,1,1,2,26,KENILWORTH AV & GREENWAY DR,38.954129,-76.923592
20579,1,1,3,40,COLLEGE PW & FREDERICK AV,39.103556,-77.15623
2058,1,0,2,25,KENILWORTH AV & NICHOLSON ST,38.95787,-76.920773
2060,1,0,1,14,KENILWORTH AV & QUINTANA ST,38.961679,-76.919506
20614,1,0,3,38,COLLEGE PW & FREDERICK AV,39.10374,-77.15596
2065,1,1,1,34,KENNEBEC ST & GLASSMANOR DR,38.819514,-76.99242
2067,1,0,1,36,KENNEBEC ST & OWENS RD,38.820147,-76.988623
2072,1,0,1,17,REGENCY PKWY & ROCK QUARRY TERR,38.840362,-76.910289
2078,1,0,1,17,HIL MAR DR & MONACCO CT,38.843436,-76.910264
20795,1,0,1,65,EASTERN AV & 16TH ST,38.991649,-77.035571
208,1,0,1,15,ADDISON RD & DUEL PL,38.905977,-76.917664
2084,1,1,1,18,SURREY SQUARE LN & REGENCY PKWY,38.847536,-76.903621
2088,1,0,1,13,KETTERING DR & KETTERING CT,38.885436,-76.81258
20923,1,1,1,32,FENTON ST & PHILADELPHIA AV,38.988854,-77.023732
20955,1,1,1,58,FERNWOOD RD & DEMOCRACY BV,39.022398,-77.134361
210,1,0,1,15,ADDISON RD & SHERIFF RD,38.904613,-76.915716
210,1,1,1,11,ADDISON RD & SHERIFF RD,38.904613,-76.915716
21030,1,1,5,108,FOREST GLEN RD & GEORGIA AV,39.016112,-77.043068
21075,1,0,2,74,GEORGIA AV & REEDIE DR,39.038667,-77.050915
211,1,0,1,11,ADDISON RD & L ST,38.903399,-76.914432
211,1,1,1,14,ADDISON RD & L ST,38.903399,-76.914432
2111,1,0,1,16,RIDGE RD & #35 COURT,39.002695,-76.8725
2114,1,0,1,16,LAKESIDE DR & WEST WY,38.998574,-76.884871
2114,1,1,1,16,LAKESIDE DR & WEST WY,38.998574,-76.884871
2115,1,0,1,16,LAKESIDE DR & LAKECREST DR,38.998078,-76.885965
2115,1,1,1,16,LAKESIDE DR & LAKECREST DR,38.998078,-76.885965
2116,1,0,1,11,LAMONT DR & CARROLLTON PW,38.969916,-76.880462
2117,1,1,1,11,LAMONT DR & QUENTIN ST,38.971829,-76.880777
2118,1,0,1,11,LAMONT DR & DONOGHUE DR,38.974287,-76.882124
2119,1,0,1,11,LAMONT DR & QUENTIN ST,38.972021,-76.880965
2120,1,1,1,11,LAMONT DR & FAIRBANKS ST,38.973509,-76.881001
2125,1,0,1,15,LANDOVER RD & ANNAPOLIS RD,38.938373,-76.924917
2125,1,1,1,15,LANDOVER RD & ANNAPOLIS RD,38.938373,-76.924917
21265,1,0,3,38,HUNGERFORD DR & FREDERICK AV,39.093302,-77.153253
2127,1,0,1,15,LANDOVER RD & 56TH AV,38.937343,-76.921829
2127,1,1,1,15,LANDOVER RD & 56TH AV,38.937343,-76.921829
2138,1,0,1,13,HARRY S TRUMAN DR & MT LUBENTIA WAY,38.878534,-76.828145
2138,1,1,1,14,HARRY S TRUMAN DR & MT LUBENTIA WAY,38.878534,-76.828145
21537,1,0,1,55,MONTGOMERY LA & EAST LA,38.983393,-77.095299
21663,1,1,1,58,NEW HAMPSHIRE AVE & LOCKWOOD DR,39.039207,-76.991637
21668,1,0,1,58,NEW HAMPSHIRE AVE & LOCKWOOD DR,39.040237,-76.98928
21688,1,1,1,32,NICHOLSON LA & NEBEL ST,39.045918,-77.104414
217,1,0,1,11,ADDISON RD & GREIG ST,38.898294,-76.909908
217,1,1,1,14,ADDISON RD & GREIG ST,38.898294,-76.909908
2181,1,1,2,19,LARCHMONT AV & MARLBORO PI,38.870823,-76.92261
2183,1,0,1,11,LARCHMONT AV & FABLE ST,38.87624,-76.920528
2183,1,1,1,18,LARCHMONT AV & FABLE ST,38.87624,-76.920528
2184,1,0,1,18,LARCHMONT AV & EMO ST,38.878109,-76.919711
2184,1,1,2,12,LARCHMONT AV & EMO ST,38.878109,-76.919711
21846,1,1,2,78,PINEY BRANCH RD & E UNIVERSITY BV,39.00015,-76.995346
2186,1,0,1,11,LARCHMONT AV & DOPPLER ST,38.880586,-76.918283
2186,1,1,1,18,LARCHMONT AV & DOPPLER ST,38.880586,-76.918283
219,1,0,1,11,ADDISON RD & G ST,38.89674,-76.90859
219,1,1,1,14,ADDISON RD & G ST,38.89674,-76.90859
2195,1,0,1,18,LARCHMONT AV & CUMBERLAND ST,38.882819,-76.917288
2195,1,1,2,12,LARCHMONT AV & CUMBERLAND ST,38.882819,-76.917288
21958,1,1,2,78,REEDIE DR & FERN ST,39.038998,-77.049401
2196,1,0,1,18,LARCHMONT AV & CLOVIS AV,38.884524,-76.916382
2196,1,1,2,12,LARCHMONT AV & CLOVIS AV,38.884524,-76.916382
220,1,0,1,15,ADDISON RD & FIELD ST,38.89677,-76.908843
220,1,1,1,11,ADDISON RD & FIELD ST,38.89677,-76.908843
2203,1,0,4,98,LAYHILL RD & GEORGIA AV,39.059644,-77.050344
2203,1,1,1,31,LAYHILL RD & GEORGIA AV,39.059644,-77.050344
22064,1,0,1,55,ROCKVILLE PI & SOUTH DR,38.998697,-77.097061
223,1,1,2,24,ADDISON RD & EADS ST,38.893698,-76.903377
2234,1,0,1,11,OLD BRANCH AV & OXFORD DR,38.829603,-76.929959
2239,1,0,1,16,AUTH RD & DUBLIN DR,38.820075,-76.905901
224,1,0,1,24,ADDISON RD & EADS ST,38.894055,-76.903541
2240,1,1,1,10,OLD BRANCH AV & HARTFORD HILLS DR,38.829157,-76.929213
2242,1,1,2,28,ST BARNABAS RD & BEDFORD WY,38.835706,-76.940506
2247,1,1,1,17,LEYTE DR & SHELBY DR,38.79581,-76.991363
2252,1,1,1,17,LINDSAY RD & JARRETT AV,38.793191,-76.988373
22538,1,0,2,43,W UNIVERSITY BV & VEIRS MILL RD,39.040369,-77.056421
22538,1,1,4,68,W UNIVERSITY BV & VEIRS MILL RD,39.040369,-77.056421
22556,1,1,2,78,W UNIVERSITY BV & SLIGO CREEK PW,39.036672,-77.030216
22561,1,1,2,78,W UNIVERSITY BV & MARKWOOD DR,39.038977,-77.041573
22564,1,0,2,74,W UNIVERSITY BV & ORANGE DR,39.030106,-77.021565
22609,1,0,2,74,E UNIVERSITY BV & GLENVILLE DR,39.004811,-76.997128
2261,1,1,1,18,LIVINGSTON RD & COMANCHE DR,38.807432,-76.990425
22617,1,1,2,78,E UNIVERSITY BV & SEEK LA,38.997587,-76.993747
2262,1,0,1,30,LIVINGSTON RD & OXON HILL RD,38.803149,-76.991488
2263,1,0,1,17,OXON HILL RD & LIVINGSTON RD,38.804259,-76.990417
22659,1,1,1,31,CLARK ST & 20TH ST,38.855129,-77.05205
2276,1,0,1,17,LIVINGSTON RD & COMANCHE DR,38.807525,-76.990642
2278,1,0,1,44,NW 18TH ST & NW PENNSYLVANIA AV,38.899316,-77.041633
228,1,1,2,24,ADDISON RD & CROWN ST,38.891931,-76.901986
2280,1,0,1,11,ST BARNABAS RD & BEDFORD WY,38.836029,-76.940167
22810,1,1,1,36,WISCONSIN AV & WESTERN AV,38.960794,-77.085738
2282,1,1,1,17,LIVINGSTON RD & WHITE OAK DR,38.790719,-76.98832
2292,1,1,1,58,LOCKWOOD DR & OAK LEAF DR,39.038091,-76.994271
23,1,1,1,14,23RD AV & DREXEL ST,38.977192,-76.971833
2300,1,1,1,58,LOCKWOOD DR & BURNT MILLS AV,39.035332,-76.997319
2301,1,1,1,58,LOCKWOOD DR & MEADOWHILL RD,39.034181,-76.999901
23021,1,1,1,16,BLAKE LN & OAKTON CREST PL,38.875936,-77.284502
23047,1,0,2,56,CLARENDON BLVD & N COURTHOUSE RD,38.89146,-77.083596
2310,1,0,1,33,20TH ST S & CRYSTAL DR,38.855554,-77.049264
23120,1,1,3,40,FREDERICK RD & MANNAKEE ST,39.096884,-77.153524
2315,1,0,2,33,MARCY AV & LEVERETT ST,38.817034,-76.994745
23164,1,0,1,40,NEW YORK AVE NW & 9TH ST NW,38.901801,-77.02461
232,1,1,2,24,ADDISON RD & ADEL ST,38.88916,-76.89918
2321,1,0,1,11,MARLBORO PI & GLACIER AV,38.872428,-76.926453
2325,1,0,1,18,MARLBORO PI & OPUS AV,38.869962,-76.920546
2326,1,1,2,19,MARLBORO PI & SHAMROCK AV,38.868649,-76.917599
233,1,0,1,24,ADDISON RD & ADAK ST,38.887582,-76.898244
2331,1,1,3,37,MARLBORO PI & OAKWOOD LA,38.860782,-76.910557
2333,1,1,3,37,MARLBORO PI & SILVER HILL RD,38.857571,-76.905152
2334,1,1,3,37,MARLBORO PI & DELANO LA,38.8564,-76.90271
2338,1,0,1,18,MARLBORO PI & UPLAND AV,38.852068,-76.89308
23381,1,0,1,30,NEW HAMPSHIRE AVE & BREGMAN RD,39.071608,-77.003355
2339,1,1,2,19,MARLBORO PIKE & WALTERS LANE,38.851616,-76.890236
2344,1,0,1,18,MARLBORO PI & NEWKIRK AV,38.846892,-76.87707
2350,1,0,1,18,MARLBORO PI & LORRING DR,38.84967,-76.882913
23503,1,1,2,42,SPARTAN RD & MARKSMAN CIRCLE,39.155723,-77.059406
2352,1,0,1,18,MARLBORO PI & WALTERS LA,38.851547,-76.89072
2356,1,0,2,35,MARLBORO PI & DELANO LA,38.856368,-76.903108
2358,1,0,2,35,MARLBORO PI & WEBER DR,38.858384,-76.907272
2359,1,0,2,35,MARLBORO PI & OAKWOOD LA,38.860708,-76.910784
2360,1,0,2,35,MARLBORO PI & TANOW PL,38.862144,-76.912511
2362,1,0,1,18,MARLBORO PI & BROOKS DR,38.865271,-76.916215
23642,1,0,1,38,SOUTHERN AVE & MISSISSIPPI AVE,38.843927,-76.972347
2365,1,1,2,19,MARLBORO PI & OPUS AV,38.870179,-76.920747
2368,1,1,3,13,MARLBORO PI & JANSEN AV,38.872184,-76.924919
237,1,0,1,58,BRIGGS CHANEY RD & CASTLE BV,39.081196,-76.945901
237,1,1,1,58,BRIGGS CHANEY RD & CASTLE BV,39.081196,-76.945901
2370,1,1,3,13,MARLBORO PI & EDGEWICK AV,38.873352,-76.929829
2376,1,0,2,128,NW 16TH ST & NW S ST,38.914459,-77.036357
2384,1,0,1,14,MASON ST & HALLECK ST,38.857686,-76.885194
2387,1,0,1,14,MASON ST  & SENATOR AVE,38.856063,-76.881912
239,1,0,1,15,ADELPHI RD & RUTGERS ST,38.983352,-76.955298
24145,1,0,1,30,RANDOLPH RD & KEMP MILL RD,39.066374,-77.029945
2426,1,1,2,24,MATTHEW HENSON AV & BARLOWE RD,38.918733,-76.870817
2428,1,0,1,16,MAXWELL DR & ALLENTOWN RD,38.814373,-76.895178
243,1,0,1,15,ADELPHI RD & PENNSYLVANIA ST,38.981694,-76.954995
2430,1,0,1,15,MERRIMAC DRIVE AT 12TH AVENUE       .,38.99334,-76.987972
2433,1,1,1,15,MERRIMAC DRIVE AT 14TH AVENUE       .,38.992578,-76.984757
2435,1,1,2,64,S ARLINGTON RIDGE RD & S  LANG ST,38.847917,-77.067096
2448,1,0,1,58,TECH RD & OLD COLUMBIA PI,39.058605,-76.968902
2463,1,1,1,43,NW NEW JERSEY AV & NW Q ST,38.910825,-77.016622
2466,1,1,2,26,BALTIMORE AV & REGENTS DR,38.982371,-76.938078
247,1,1,1,15,ADELPHI RD & WELLS PW,38.979206,-76.954246
2473,1,1,1,14,SEAT PLEASANT DR & HILL RD,38.901818,-76.887396
2476,1,1,1,14,HASTINGS DR & VALLEY PARK RD,38.894679,-76.882448
2479,1,0,1,15,SEAT PLEASANT DR & HILL RD,38.901903,-76.886912
2480,1,1,1,14,HILL RD & HASTINGS DR,38.896315,-76.880873
2492,1,0,1,15,NE NEW HAMPSHIRE AV & NE EASTERN AV,38.965425,-77.001971
2493,1,0,1,56,NEW HAMPSHIRE AV & SHERIDAN ST,38.968469,-77.000233
2494,1,0,1,56,NEW HAMPSHIRE AV & RAY RD,38.970667,-76.998616
2498,1,0,1,56,NEW HAMPSHIRE AV & KENTLAND AV,38.977066,-76.992174
2499,1,1,1,55,NEW HAMPSHIRE AV & LARCH AV,38.977904,-76.991827
2500,1,1,1,55,NEW HAMPSHIRE AV & LINDEN AV,38.978628,-76.991263
2504,1,0,1,56,NEW HAMPSHIRE AV & KINGWOOD DR,38.984426,-76.988114
2506,1,0,1,56,NEW HAMPSHIRE AV & UNIVERSITY BV,38.987232,-76.987756
2510,1,0,1,56,NEW HAMPSHIRE AV & QUEBEC ST,38.996121,-76.984784
2511,1,0,1,56,NEW HAMPSHIRE AV & RUATAN ST,38.999426,-76.983002
2518,1,0,1,56,NEW HAMPSHIRE AV & ELTON RD,39.020691,-76.97658
2518,1,1,1,31,NEW HAMPSHIRE AV & ELTON RD,39.020691,-76.97658
2519,1,0,1,30,NEW HAMPSHIRE AV & POWDER MILL RD,39.021855,-76.977462
2519,1,1,1,55,NEW HAMPSHIRE AV & POWDER MILL RD,39.021855,-76.977462
2520,1,0,1,56,NEW HAMPSHIRE AV & OVERLOOK DR,39.024467,-76.979234
2520,1,1,1,31,NEW HAMPSHIRE AV & OVERLOOK DR,39.024467,-76.979234
2522,1,0,1,56,NEW HAMPSHIRE AV & CHALMERS RD,39.029429,-76.98329
2522,1,1,1,31,NEW HAMPSHIRE AV & CHALMERS RD,39.029429,-76.98329
2523,1,0,1,30,NEW HAMPSHIRE AV & RUPPERT RD,39.031838,-76.984765
2523,1,1,1,55,NEW HAMPSHIRE AV & RUPPERT RD,39.031838,-76.984765
2529,1,1,1,31,NEW HAMPSHIRE AV & NORA DR,39.050499,-76.99311
2530,1,1,1,31,NEW HAMPSHIRE AV & TANLEY RD,39.051954,-76.993534
2532,1,1,1,31,NEW HAMPSHIRE AV & VALLEY BROOK DR,39.058786,-76.997491
2533,1,1,1,31,NEW HAMPSHIRE AV & VENICE DR,39.061414,-76.998202
2536,1,0,1,30,NEW HAMPSHIRE AV & SHAW AV,39.068993,-77.003149
2537,1,1,1,31,NEW HAMPSHIRE AV & BREGMAN RD,39.071386,-77.003051
2538,1,1,1,31,NEW HAMPSHIRE AV & WOLF DR,39.073403,-77.002455
2539,1,0,1,30,NEW HAMPSHIRE AV & RANDOLPH RD,39.074934,-77.002394
25458,1,0,1,4,NW GEORGIA AVE & NW RANDOLPH ST,38.93842,-77.024518
25515,1,0,2,41,M ST SE & HALF ST SE,38.876478,-77.007463
25515,1,1,4,60,M ST SE & HALF ST SE,38.876478,-77.007463
2560,1,0,1,56,NE NEW HAMPSHIRE AV & NE EASTERN AV,38.966189,-77.001925
25619,1,1,1,34,BELVOIR RD & 16TH ST,38.694259,-77.137802
2565,1,1,1,55,NEW HAMPSHIRE AV & DEVONSHIRE RD,38.976592,-76.993069
2566,1,0,1,56,NEW HAMPSHIRE AV & LARCH AV,38.977868,-76.991457
2571,1,0,1,56,NEW HAMPSHIRE AV & HOLTON LA,38.986224,-76.987887
2574,1,1,2,70,NEW HAMPSHIRE AV & LEBANON ST,38.991329,-76.987518
2575,1,1,2,70,NEW HAMPSHIRE AVENUE & MERRIMAC ST .,38.992723,-76.986909
25810,1,0,1,16,LIVINGSTON RD & HART RD,38.782816,-76.99206
25833,1,0,1,16,LIVINGSTON RD & BRODERICK DR,38.788384,-76.989703
2584,1,0,1,30,NEW HAMPSHIRE AV & ELTON RD,39.020466,-76.976865
2584,1,1,1,55,NEW HAMPSHIRE AV & ELTON RD,39.020466,-76.976865
25845,1,0,1,16,LINDSAY RD & LEYETE DR,38.793073,-76.991732
2585,1,0,1,56,NEW HAMPSHIRE AV & POWDER MILL RD,39.022143,-76.977169
2585,1,1,1,31,NEW HAMPSHIRE AV & POWDER MILL RD,39.022143,-76.977169
25852,1,0,1,16,LEYETE DR & # 6902,38.794391,-76.991633
2586,1,0,1,30,NEW HAMPSHIRE AV & OVERLOOK DR,39.024546,-76.979755
2586,1,1,1,55,NEW HAMPSHIRE AV & OVERLOOK DR,39.024546,-76.979755
25861,1,0,1,16,WENTWORTH DR & # 1121,38.796104,-76.987382
25881,1,1,1,15,RT 236 DUKE ST & HENRY ST,38.803395,-77.05167
25888,1,1,2,48,OXON HILL RD & RIVERSIDE PLAZA APTS,38.803719,-76.987408
25890,1,0,1,15,RT 236 DUKE ST & PEYTON ST,38.803869,-77.056815
25892,1,1,1,15,RT 236 DUKE ST & PEYTON ST,38.804083,-77.056882
25894,1,0,1,16,BRINKLEY RD & BRINKLEY CREST TOWNHO,38.804045,-76.956642
25900,1,0,1,13,S PICKETT ST & #648,38.804368,-77.132129
25903,1,1,1,14,S PICKETT ST & #631,38.804568,-77.132035
25904,1,0,3,78,S WASHINGTON ST & KING ST (RT 7),38.804642,-77.046931
25908,1,1,1,17,ST BARNABAS RD & JOHN HANSON LA,38.804867,-76.974272
25909,1,0,1,16,BRINKLEY RD & ST IGNATIUS DR,38.804859,-76.96776
25910,1,0,1,16,BRINKLEY RD & #2505,38.804842,-76.965288
25911,1,1,1,17,BRINKLEY RD & ST IGNATIUS DR,38.80499,-76.967613
25913,1,1,3,79,N WASHINGTON ST & KING ST (RT 7),38.805253,-77.04707
25918,1,1,1,15,RT 236 DUKE ST & ROBERTS LA,38.805626,-77.068674
25922,1,0,1,13,S PICKETT ST & #600,38.805889,-77.130081
25927,1,0,1,15,RT 236 DUKE ST & MONCURE DR,38.806292,-77.073655
25928,1,1,1,15,RT 236 DUKE ST & MONCURE DR,38.806604,-77.073957
25929,1,0,1,36,KING ST STA & BUS BAY A,38.806706,-77.059724
25929,1,1,1,34,KING ST STA & BUS BAY A,38.806706,-77.059724
2593,1,0,1,58,NEW HAMPSHIRE AV & LOCKWOOD DR,39.038977,-76.991732
25931,1,0,1,15,RT 236 DUKE ST & W TAYLOR RUN PKWY,38.806747,-77.077563
25935,1,0,1,15,RT 236 DUKE ST & LONGVIEW DR,38.806917,-77.078752
25937,1,0,1,15,RT 236 DUKE ST & ROTH ST,38.80735,-77.081782
2594,1,0,1,30,NEW HAMPSHIRE AV & QUAINT ACRES DR,39.047907,-76.993069
25940,1,1,1,15,RT 236 DUKE ST & CAMBRIDGE ST,38.80755,-77.081656
25941,1,0,1,16,INDIAN HEAD HWY & I-495 / I-95,38.807583,-76.998771
25942,1,0,1,15,RT 236 DUKE ST & BET SWEELEY ST,38.807572,-77.083266
25944,1,0,1,15,RT 236 DUKE ST & ALEXANDRIA COMMONS,38.807977,-77.086007
25945,1,0,1,13,S REYNOLDS ST & EDSALL RD,38.808065,-77.129756
25946,1,1,1,15,RT 236 DUKE ST & ALEXANDRIA COMMONS,38.808153,-77.085798
25952,1,0,1,13,S REYNOLDS ST & BRENT PLACE,38.808912,-77.129643
25953,1,0,1,17,BIRCHWOOD DR & DUNWOODY AVE (W),38.808936,-76.988512
25953,1,1,1,18,BIRCHWOOD DR & DUNWOODY AVE (W),38.808936,-76.988512
25955,1,0,1,15,RT 236 DUKE ST & NORMANDY HILL DR,38.809125,-77.092449
25964,1,1,1,15,RT 236 DUKE ST & N DONELSON ST,38.810334,-77.097466
25967,1,1,1,15,RT 236 DUKE ST & FLOYD ST,38.810687,-77.09935
2597,1,1,1,31,NEW HAMPSHIRE AV & JACKSON RD,39.055144,-76.995182
25982,1,1,1,15,RT 236 DUKE ST & N GORDON ST,38.811487,-77.103184
25983,1,0,1,15,RT 236 DUKE ST & CAMERON STATION,38.811589,-77.116761
25986,1,1,1,15,RT 236 DUKE ST & SHOPS AT FOXCHASE,38.81197,-77.112124
25989,1,1,1,15,RT 236 DUKE ST & #4939,38.811983,-77.117332
25990,1,0,1,15,RT 236 DUKE ST & JORDAN ST,38.811948,-77.10897
25991,1,1,1,15,RT 236 DUKE ST & INGRAM ST,38.812129,-77.105676
25994,1,0,1,15,RT 236 DUKE ST & S PICKETT ST,38.812181,-77.1213
25998,1,1,1,15,RT 236 DUKE ST & PAXTON ST,38.812759,-77.123572
26000,1,1,1,18,ST BARNABAS RD & ROSECROFT VILLAGE,38.813258,-76.965809
26001,1,0,1,15,RT 236 DUKE ST & RIPLEY ST,38.813181,-77.126278
26001,1,1,1,14,RT 236 DUKE ST & RIPLEY ST,38.813181,-77.126278
26009,1,1,1,18,MORRIS AVE & AUTH RD,38.814302,-76.897722
26010,1,0,1,17,ST BARNABAS RD & ARTS DR,38.814343,-76.964095
26012,1,0,1,16,INDIAN HEAD HWY W RD & SENECA DR,38.814957,-76.998748
26018,1,0,2,66,MOUNT VERNON AVE & SPRING ST,38.816135,-77.05674
26022,1,1,1,43,DC VILLAGE & SHEPHERD PKWY,38.816294,-77.018111
26031,1,0,2,66,MOUNT VERNON AVE & GLENDALE AVE,38.81719,-77.056937
26034,1,0,2,26,RT 236 LITTLE RIVER TPKE & OASIS DR,38.817878,-77.141604
26034,1,1,1,15,RT 236 LITTLE RIVER TPKE & OASIS DR,38.817878,-77.141604
26039,1,1,1,16,ALLENTOWN RD & ANDREWS MANOR S/C,38.818431,-76.890757
26041,1,0,2,66,MOUNT VERNON AVE & ALEXANDRIA AVE,38.818535,-77.057176
26042,1,0,2,61,LINCOLNIA RD & BRECKENRIDGE PL,38.818837,-77.13841
26043,1,0,1,15,RT 236 LITTLE RIVER TPKE & MANITOBA,38.818705,-77.144897
26044,1,0,1,13,N HOWARD ST & THE PLAZA APTS #801-8,38.818892,-77.105106
26047,1,1,3,69,AUDREY LA & INDIAN HEAD HWY,38.819127,-76.9987
26050,1,1,3,69,AUDREY LA & #632,38.819503,-76.997415
26055,1,1,2,66,MOUNT VERNON AVE & E NELSON AVE,38.819716,-77.057562
26057,1,0,1,36,KENNEBEC ST & #1101,38.819758,-76.990352
26071,1,1,1,14,N HOWARD ST & ORMOND AVE,38.821035,-77.10376
26074,1,1,1,18,AUTH RD & LEAH CT,38.821298,-76.907993
26076,1,0,2,33,GLASSMANOR DR & #5009,38.821221,-76.992488
26078,1,0,1,15,RT 236 LITTLE RIVER TPKE & VIRGINIA,38.82141,-77.158736
26081,1,0,3,58,SOUTHERN AVE & SOUTH CAPITOL ST,38.821711,-77.000584
26081,1,1,4,87,SOUTHERN AVE & SOUTH CAPITOL ST,38.821711,-77.000584
26082,1,1,1,15,RT 236 LITTLE RIVER TPKE & GREEN SP,38.821892,-77.159497
26089,1,0,1,15,N CHAMBLISS ST & LINCOLNIA RD E,38.822257,-77.14242
26095,1,0,1,43,M L KING AVE & BLUE PLAINS RD,38.822487,-77.011498
26095,1,1,1,49,M L KING AVE & BLUE PLAINS RD,38.822487,-77.011498
26096,1,1,1,15,RT 236 LITTLE RIVER TPKE & BRADDOCK,38.822618,-77.162598
26101,1,1,1,34,OWENS RD & #1100,38.822797,-76.990028
26108,1,0,1,15,RT 236 LITTLE RIVER TPKE & MINOR LA,38.823334,-77.16655
26110,1,0,1,45,M L KING AVE & GALVESTON ST,38.823427,-77.011731
26110,1,1,1,43,M L KING AVE & GALVESTON ST,38.823427,-77.011731
26111,1,1,1,15,RT 236 LITTLE RIVER TPKE & PINECRES,38.823495,-77.165869
26113,1,0,1,15,RT 236 LITTLE RIVER TPKE & MAYHUNT,38.823594,-77.167592
26115,1,1,1,16,SUITLAND RD & MCKELDIN DR,38.824032,-76.890424
26116,1,1,1,13,N MORGAN ST & N CHAMBLISS ST (S),38.824241,-77.140937
26117,1,0,1,43,M L KING AVE & GALVESTON PL,38.824268,-77.012275
26117,1,1,1,49,M L KING AVE & GALVESTON PL,38.824268,-77.012275
26127,1,0,2,66,MOUNT VERNON AVE & E WINDSOR AVE,38.824586,-77.058296
26130,1,0,1,43,OVERLOOK AVE & BEYER RD,38.824627,-77.017304
26137,1,0,1,45,M L KING AVE & FORRESTER ST,38.825057,-77.012394
26137,1,1,1,43,M L KING AVE & FORRESTER ST,38.825057,-77.012394
26141,1,1,1,15,RT 236 LITTLE RIVER TPKE & OLD COLU,38.825271,-77.173207
26144,1,0,1,15,RT 236 LITTLE RIVER TPKE & COLUMBIA,38.82532,-77.174547
26145,1,0,1,36,SOUTHVIEW APTS & #1373,38.825424,-76.984553
26148,1,1,1,34,SOUTHVIEW APTS & #1373,38.825474,-76.984791
26150,1,1,1,15,RT 236 LITTLE RIVER TPKE & PINECRES,38.825655,-77.174821
26157,1,1,1,15,RT 236 LITTLE RIVER TPKE & PINECRES,38.826181,-77.17657
26167,1,0,2,66,MOUNT VERNON AVE & OXFORD AVE,38.826743,-77.05865
26171,1,0,1,36,SOUTHVIEW DR & #1124,38.826836,-76.98825
26174,1,1,1,34,SOUTHVIEW DR & #1333,38.826896,-76.985393
26176,1,1,2,66,MOUNT VERNON AVE & OXFORD AVE,38.826992,-77.058893
26182,1,0,1,15,RT 236 LITTLE RIVER TPKE & MORNING,38.827389,-77.18122
26183,1,1,2,52,SOUTH CAPITOL ST & DANBURY ST,38.827513,-77.007763
26185,1,0,1,33,PATRIOT DR & BRIARWOOD SOUTH CT,38.827704,-77.215691
26189,1,0,2,48,SOUTH CAPITOL ST & DANBURY ST,38.828104,-77.007589
26194,1,1,1,15,RT 236 LITTLE RIVER TPKE & EVERGREE,38.828587,-77.184829
26195,1,0,2,33,SOUTHERN AVE & SOUTHVIEW DR,38.828548,-76.991898
26195,1,1,3,53,SOUTHERN AVE & SOUTHVIEW DR,38.828548,-76.991898
26207,1,1,1,15,RT 236 LITTLE RIVER TPKE & JOHN MAR,38.829924,-77.192085
26210,1,1,2,52,SOUTH CAPITOL ST & BRANDYWINE ST,38.83002,-77.00777
26213,1,1,1,15,RT 236 LITTLE RIVER TPKE & BACKLICK,38.830105,-77.193623
26214,1,0,1,45,M L KING AVE & BRANDYWINE ST,38.830203,-77.011447
26215,1,1,2,47,AMERICANA DR & #4301,38.830201,-77.218024
26216,1,0,1,13,36TH ST & UTAH ST,38.830135,-77.08973
26218,1,1,1,49,M L KING AVE & BRANDYWINE ST,38.830557,-77.011266
26219,1,0,2,66,MOUNT VERNON AVE & HUME AVE,38.830631,-77.059398
26220,1,1,3,62,RT 236 LITTLE RIVER TPKE & ANNANDAL,38.830889,-77.1981
26231,1,0,3,43,SOUTHERN TOWERS RD & STRATFORD BLDG,38.831519,-77.113291
26231,1,1,1,33,SOUTHERN TOWERS RD & STRATFORD BLDG,38.831519,-77.113291
26233,1,1,3,62,RT 236 LITTLE RIVER TPKE & MARKHAM,38.831557,-77.201698
26234,1,1,1,16,SUITLAND RD & SKYLINE TERR,38.83159,-76.897401
26236,1,0,1,13,KING ST SERVICE RDWY & MENOKIN DR,38.831686,-77.094103
26237,1,0,2,48,RT 236 LITTLE RIVER TPKE & MEDFORD,38.831697,-77.204531
26238,1,0,1,18,MARLOW HGTS S/C & 28TH ST,38.831809,-76.94182
26238,1,1,2,28,MARLOW HGTS S/C & 28TH ST,38.831809,-76.94182
26239,1,1,3,62,RT 236 LITTLE RIVER TPKE & MEDFORD,38.831941,-77.204297
26241,1,1,1,13,KING ST SERVICE RDWY & MENOKIN DR,38.832053,-77.094366
26242,1,1,1,18,28TH AVE & #4217,38.832001,-76.945918
26243,1,0,3,93,SOUTH CAPITOL ST & ATLANTIC ST,38.832094,-77.007981
26244,1,0,2,48,RT 236 LITTLE RIVER TPKE & WEDGEWOO,38.832072,-77.206867
26245,1,1,2,52,SOUTH CAPITOL ST & M L KING & ATLAN,38.832237,-77.008278
26248,1,1,3,62,RT 236 LITTLE RIVER TPKE & WOODLAND,38.832464,-77.207355
26251,1,1,1,49,M L KING AVE &ENIA ST,38.832642,-77.009032
26252,1,1,1,14,ANNANDALE RD & MAPLE PL,38.83262,-77.197014
26258,1,1,2,47,AMERICANA DR & #4233,38.832903,-77.21434
26260,1,1,2,33,NOTTINGHAM DR & BEAUREGARD ST,38.832927,-77.119465
26263,1,0,4,102,WHEELER RD & BARNABY TERR (S),38.833138,-76.988843
26265,1,0,1,17,SUITLAND RD & SKYLINE DR,38.833256,-76.899778
26268,1,1,1,34,FOREST HILLS APTS & WHEELER HILLS R,38.8335,-76.981222
26274,1,0,3,43,SOUTHERN TOWERS RD & BERKELEY BLDG,38.833733,-77.115413
26274,1,1,1,33,SOUTHERN TOWERS RD & BERKELEY BLDG,38.833733,-77.115413
26277,1,0,3,93,SOUTH CAPITOL ST & XENIA ST,38.834018,-77.0082
26280,1,1,2,36,S STAFFORD ST & 34TH ST,38.834095,-77.087227
26282,1,0,2,66,MOUNT VERNON AVE & HERBERT ST,38.83441,-77.060076
26283,1,0,2,28,MARLOW HGTS S/C & MACYS,38.834456,-76.944232
26283,1,1,3,45,MARLOW HGTS S/C & MACYS,38.834456,-76.944232
26288,1,1,1,34,FOREST HILLS APTS & RENTAL OFFICE,38.83481,-76.981664
2629,1,0,1,13,NORTHWEST DR & TOLEDO TE,38.971843,-76.959152
26293,1,0,3,43,BEAUREGARD ST & HERMITAGE HILL APTS,38.835281,-77.115309
26293,1,1,1,33,BEAUREGARD ST & HERMITAGE HILL APTS,38.835281,-77.115309
26298,1,1,1,15,RT 236 LITTLE RIVER TPKE & LAKE BLV,38.835591,-77.224804
26299,1,1,2,37,13TH ST & #1326,38.835766,-76.986569
26300,1,0,1,15,RT 236 L R TPKE & DUNCAN DR,38.835832,-77.231503
26301,1,0,2,38,13TH ST & #1326,38.835901,-76.986901
26302,1,0,3,93,M L KING AVE & HALLEY PL,38.835947,-77.00748
26305,1,0,1,15,RT 236 L R TPKE & LAKE DR,38.836128,-77.234919
26306,1,0,2,66,MOUNT VERNON AVE & W GLEBE RD,38.836336,-77.061021
26307,1,0,1,13,BRADDOCK RD & #4702-4868,38.836254,-77.109524
26308,1,1,1,13,BRADDOCK RD & NEWPORT VILLAGE APT,38.836388,-77.109322
26311,1,1,1,33,COLUMBIA PK & SLEEPY HOLLOW MANOR,38.836569,-77.175475
26312,1,0,2,48,MISSISSIPPI AVE & 4TH ST (E),38.83652,-77.000232
26317,1,0,2,38,VALLEY AVE & WHEELER RD,38.836753,-76.992795
26321,1,1,1,14,ANNANDALE RD & HAMILTON ST,38.836868,-77.198359
26323,1,0,1,15,RT 236 LITTLE RIVER TPKE & WAKEFIEL,38.836805,-77.239334
26324,1,0,1,11,BRANCH AVE & MARLOW HEIGHTS S/C MAI,38.837112,-76.944988
26325,1,1,1,15,RT 236 L R TPKE & SHELLEY LA,38.837071,-77.239226
26329,1,1,2,37,VALLEY AVE & #1201,38.837517,-76.990192
26330,1,0,1,33,COLUMBIA PK & ANCIENT OAK CT,38.837512,-77.169434
26331,1,0,1,18,PENNSYLVANIA AVE & OLD MARLBORO PIK,38.837561,-76.86248
26334,1,1,2,66,MOUNT VERNON AVE & REED AVE,38.837578,-77.061863
26336,1,0,2,30,S 31ST ST & #4428,38.837753,-77.092591
26336,1,1,1,23,S 31ST ST & #4428,38.837753,-77.092591
26337,1,0,1,23,S 31ST ST & #4507,38.837841,-77.093635
26337,1,1,2,33,S 31ST ST & #4507,38.837841,-77.093635
26339,1,1,1,15,RT 236 LITTLE RIVER TPKE & PROSPERI,38.837939,-77.246105
2634,1,1,1,11,NALLEY RD & NALLEY TE,38.907548,-76.877263
26340,1,0,2,66,MOUNT VERNON AVE & REED AVE,38.838038,-77.061892
26344,1,0,3,93,M L KING AVE & UPSAL ST,38.838342,-77.005674
26346,1,1,1,18,ST BARNABAS RD & MARLOW TOWERS (N),38.838496,-76.941027
26347,1,0,1,15,RT 236 LITTLE RIVER TPKE & GUINEA R,38.838441,-77.251689
26351,1,1,1,16,SUITLAND RD & REGENCY PARK CT,38.838961,-76.909382
26352,1,1,2,48,6TH ST & #3633,38.839159,-76.998527
26354,1,0,2,38,MISSISSIPPI AVE & 10TH PL,38.839255,-76.991409
26356,1,1,1,15,RT 236 LITTLE RIVER TPKE & GLENBROO,38.839468,-77.257107
26357,1,1,3,101,M L KING AVE & STERLING ST,38.839583,-77.004967
26359,1,0,2,38,MISSISSIPPI AVE & #1200,38.83974,-76.98946
26366,1,1,1,15,RT 236 LITTLE RIVER TPKE & PRINCE W,38.840057,-77.262318
26371,1,0,2,30,BEAUREGARD ST & BRANCH AVE,38.840663,-77.109054
26372,1,0,2,30,RT 7 KING ST & N BEAUREGARD ST,38.840696,-77.106665
26373,1,1,1,15,RT 236 L R TPKE & PERSIMMON DR,38.840888,-77.268424
26380,1,1,3,101,M L KING AVE & HIGHVIEW PL,38.841471,-77.00354
26391,1,1,2,66,MOUNT VERNON AVE & EXECUTIVE AVE,38.842195,-77.063759
26395,1,0,1,11,BRANCH AVE & COLEBROOKE DR,38.842258,-76.948947
26396,1,0,2,48,4TH ST & M L KING AVE,38.842809,-77.000506
26398,1,0,3,93,M L KING AVE & 4TH ST,38.842743,-77.001123
26401,1,1,2,37,11TH PL & SAVANNAH PL,38.842861,-76.991492
26404,1,0,3,18,HIL MAR DR & RENTAL OFFICE (#6579),38.842959,-76.898615
26408,1,1,5,149,M L KING AVE & 5TH ST,38.843516,-76.999472
26413,1,1,2,37,CONGRESS ST & SAVANNAH ST,38.843998,-76.985178
26416,1,0,2,66,MOUNT VERNON AVE & BET S GLEBE & EL,38.844119,-77.064335
26422,1,0,1,33,S GLEBE RD & SHIRLEY PARK SHOPPING,38.844686,-77.068532
26422,1,1,1,33,S GLEBE RD & SHIRLEY PARK SHOPPING,38.844686,-77.068532
26428,1,0,7,195,M L KING AVE & MALCOLM AVE,38.844847,-76.997455
26431,1,0,1,38,MALCOLM AVE & M L KING AVE,38.845023,-76.997703
26436,1,1,1,14,ANNANDALE RD & FRANKLIN RD,38.845108,-77.202119
26437,1,0,1,33,MOUNT VERNON AVE & S GLEBE RD,38.845261,-77.064812
2644,1,1,1,11,85TH AV; @ ENT TO CARROLLTON MANOR APTS,38.956039,-76.868284
26440,1,1,7,196,M L KING AVE & MALCOLM AVE,38.845275,-76.9974
26456,1,0,1,35,SEMINARY RD & SCOVILLE ST,38.846412,-77.125322
26457,1,1,1,33,28TH ST SHIR PK & #1334,38.846462,-77.070546
26464,1,0,2,38,SOUTHERN AVE & #2524,38.846873,-76.968537
26467,1,0,1,13,RT 7 LEESBURG PK & CROSSROADS S/C,38.847163,-77.120777
26467,1,1,2,42,RT 7 LEESBURG PK & CROSSROADS S/C,38.847163,-77.120777
26471,1,0,1,35,CARLIN SPRINGS RD & SEMINARY RD,38.847369,-77.125261
26472,1,0,1,33,28TH ST & #1501-1507,38.847555,-77.072854
26473,1,0,2,15,DONNELL DR & FOREST VILLAGE PARK S/,38.845834,-76.884785
26478,1,0,2,12,MELLON ST & #431,38.847886,-77.001177
26478,1,1,2,27,MELLON ST & #431,38.847886,-77.001177
26487,1,0,3,18,SURREY SERVICE DR & #6024 (SURREY SQUARE APTS),38.848673,-76.901689
26491,1,0,1,13,CARLIN SPRINGS RD & LEESBURG PK,38.848772,-77.124079
26491,1,1,2,46,CARLIN SPRINGS RD & LEESBURG PK,38.848772,-77.124079
26493,1,0,1,23,FOUR MILE RUN DR & W VILL SHIRLINGT,38.848717,-77.097838
26495,1,1,1,23,FOUR MILE RUN DR & W VILL SHIRLINGT,38.848854,-77.097808
26496,1,0,2,12,NEWCOMB ST (N&S) & NEWCOMB ST (E&W),38.848944,-77.004691
26496,1,1,2,27,NEWCOMB ST (N&S) & NEWCOMB ST (E&W),38.848944,-77.004691
26497,1,1,2,19,MARLBORO PIKE & BOONES LA,38.849303,-76.881054
26498,1,0,9,223,M L KING AVE & ST ES GATE 3,38.849388,-76.995889
26498,1,1,1,11,M L KING AVE & ST ES GATE 3,38.849388,-76.995889
26501,1,0,1,11,CURTIS DR APT LOOP & #3352,38.849476,-76.947823
26501,1,1,1,10,CURTIS DR APT LOOP & #3352,38.849476,-76.947823
26502,1,1,9,234,M L KING AVE & ST ES GATE 3,38.849635,-76.996044
26506,1,0,2,38,SOUTHERN AVE & #2912,38.850161,-76.964333
26508,1,1,2,37,SOUTHERN AVE & #2916,38.850117,-76.964133
26513,1,0,1,13,CARLIN SPRINGS RD & #3437,38.85044,-77.123509
26513,1,1,2,46,CARLIN SPRINGS RD & #3437,38.85044,-77.123509
26514,1,0,1,28,JEFFERSON ST & #1075,38.850701,-77.118207
26516,1,1,1,14,BOONES LA & MARION ST,38.850983,-76.880823
26521,1,0,1,40,12TH PL & JASPER RD,38.851254,-76.985278
26521,1,1,1,40,12TH PL & JASPER RD,38.851254,-76.985278
26522,1,0,2,78,ALABAMA AVE SE & 24TH ST SE,38.851465,-76.971925
26522,1,1,2,90,ALABAMA AVE SE & 24TH ST SE,38.851465,-76.971925
26523,1,0,1,40,JASPER RD & 12TH PLACE,38.851567,-76.985995
26523,1,1,1,40,JASPER RD & 12TH PLACE,38.851567,-76.985995
26526,1,0,1,40,BRUCE PL & #3100,38.85166,-76.983541
26526,1,1,1,40,BRUCE PL & #3100,38.85166,-76.983541
26528,1,0,2,48,CARLIN SPRINGS RD & #3421,38.851821,-77.122549
26528,1,1,1,14,CARLIN SPRINGS RD & #3421,38.851821,-77.122549
26531,1,1,1,14,ANNANDALE RD & STATECREST DR,38.852032,-77.199983
26532,1,1,3,72,VISTA DR & #6017,38.852005,-77.139574
26543,1,0,2,48,CARLIN SPRINGS RD & COLUMBIA PK,38.852748,-77.122161
26543,1,1,1,14,CARLIN SPRINGS RD & COLUMBIA PK,38.852748,-77.122161
26547,1,1,2,38,IRVING ST & 24TH PL,38.853077,-76.971068
26548,1,0,4,107,RT 7 LEESBURG PK & WASHINGTON DR,38.853074,-77.134533
26549,1,0,2,66,S 23RD ST & FT SCOTT DR,38.853096,-77.067405
26554,1,1,9,234,M L KING AVE & ST ES GATE 2,38.853211,-76.996007
26555,1,1,3,76,COLUMBIA PK & CARLIN SPRINGS RD,38.853323,-77.122668
26558,1,1,4,106,COLUMBIA PK & S JEFFERSON ST,38.853638,-77.119708
26561,1,1,1,23,FOUR MILE RUN DR(E) & S THOMAS ST,38.853767,-77.103988
26562,1,0,4,107,RT 7 LEESBURG PK & CHARLES ST,38.853712,-77.135658
26563,1,1,1,34,PENNSYLVANIA AVE & PENN STATION S/C,38.853786,-76.909032
26567,1,0,1,33,S EADS ST & 23RD ST,38.853962,-77.053265
26570,1,0,1,16,LEE HWY (RT 29) & WALNUT ST,38.854058,-77.31833
26572,1,1,1,14,ANNANDALE RD & CASILEAR RD,38.854121,-77.192728
26576,1,0,1,11,BRANCH AVE & SOUTHERN AVE,38.854721,-76.957778
26577,1,0,4,107,RT 7 LEESBURG PK & GLEN CARLYN DR (,38.854669,-77.137434
26579,1,0,1,16,LEE HWY (RT 29) & OAK ST,38.854858,-77.316285
26583,1,1,1,40,POMEROY RD & #2500,38.855159,-76.989892
26586,1,1,1,16,LEE HWY (RT 29) & MEREDITH DR,38.855326,-77.315622
26588,1,0,2,38,LANGSTON PL & RAYNOLDS PL,38.855491,-76.973377
26590,1,0,2,4,8TH RD & CARLIN SPRINGS RD,38.855737,-77.123085
26590,1,1,2,63,8TH RD & CARLIN SPRINGS RD,38.855737,-77.123085
26592,1,0,1,16,LEE HWY (RT 29) & PAUL VI H S,38.855715,-77.314123
26594,1,0,1,16,RT 50 MAIN ST & JERMANTOWN RD,38.855746,-77.331714
26596,1,0,4,107,RT 7 LEESBURG PK & GLEN CARLYN DR (,38.855798,-77.139461
26597,1,1,1,16,RT 50 MAIN ST & JERMANTOWN RD,38.855896,-77.331473
26600,1,1,1,40,SHERIDAN RD & #2646,38.856387,-76.993446
26601,1,1,1,33,RT 7 LEESBURG PK & GLEN CARLYN RD,38.856409,-77.140154
26603,1,0,1,14,MASON ST & LANSDALE ST,38.856444,-76.882979
26605,1,0,1,2,8TH RD & GREENBRIAR ST,38.856502,-77.119159
26605,1,1,2,63,8TH RD & GREENBRIAR ST,38.856502,-77.119159
26607,1,0,2,38,BRUCE PL & RAYNOLDS PL,38.856738,-76.974911
26609,1,1,9,234,M L KING AVE & POMEROY RD,38.856855,-76.995998
2661,1,0,1,29,NICHOLSON LA & HUFF CT,39.044778,-77.108683
26612,1,1,2,38,MORRIS RD & 16TH ST,38.857025,-76.982521
26616,1,1,2,38,FORT PL & #1901,38.857247,-76.976814
26617,1,0,2,38,MORRIS RD & 17TH ST,38.857181,-76.980992
26618,1,1,1,32,S WALTER REED DR & 15TH ST (E),38.85716,-77.088289
2662,1,0,1,29,WHITE FLINT PLAZA;5500 NICHOLSON LA,39.044871,-77.106424
26620,1,1,2,38,MORRIS RD & 17TH ST,38.857258,-76.98117
26626,1,1,1,10,POMEROY RD & ERIE ST (93),38.857392,-76.985247
2663,1,1,1,17,ST BARNABAS RD & BARROWFIELD RD,38.803604,-76.975827
26631,1,1,1,14,ANNANDALE RD & BLUE HERON DR,38.857598,-77.181632
26633,1,1,1,14,ANNANDALE RD & BEECHTREE LA,38.857812,-77.17993
26636,1,0,2,51,GALLOWS RD & FFX HOSP EMER ENT,38.85819,-77.225652
26636,1,1,2,47,GALLOWS RD & FFX HOSP EMER ENT,38.85819,-77.225652
26640,1,1,1,40,SOUTH CAPITOL ST & #2750,38.858225,-77.004646
26641,1,0,1,17,ROCHELLE AVE & ELMHURST ST,38.858354,-76.895016
26642,1,0,1,37,STANTON RD & SHERIDAN RD (94),38.858371,-76.992834
26642,1,1,1,37,STANTON RD & SHERIDAN RD (94),38.858371,-76.992834
26643,1,0,1,37,STANTON RD & BRYAN PL (94),38.858387,-76.988646
26643,1,1,1,37,STANTON RD & BRYAN PL (94),38.858387,-76.988646
26644,1,0,1,12,MORRIS RD & HUNTER PL (E),38.8585,-76.98534
26644,1,1,2,38,MORRIS RD & HUNTER PL (E),38.8585,-76.98534
26645,1,0,1,74,STANTON RD & WASH VIEW APTS (94),38.858546,-76.990185
26646,1,0,1,13,CARLIN SPRINGS RD & CAMBELL ELEMENT,38.858461,-77.126912
26646,1,1,1,14,CARLIN SPRINGS RD & CAMBELL ELEMENT,38.858461,-77.126912
26649,1,0,1,37,33RD ST SE & DENVER ST SE,38.858563,-76.960249
2665,1,1,1,32,NICHOLSON LA & HUFF CT,39.044964,-77.108857
26650,1,1,1,33,RT 7 LEESBURG PK & LAKESIDE VIEW DR,38.858694,-77.144237
26654,1,1,1,16,LEE HWY (RT 29) & CHAIN BRIDGE RD,38.858932,-77.305949
26656,1,0,7,195,M L KING AVE & STANTON RD,38.859143,-76.995216
26660,1,1,7,196,M L KING AVE & SUMNER RD,38.859491,-76.995173
26662,1,1,1,16,JERMANTOWN RD & FAIR HAVEN CT,38.859544,-77.329183
26665,1,1,1,18,ROCHELLE AVE & DISTRICT HGTS PKWY,38.859642,-76.894447
26666,1,1,1,16,LEE HWY (RT 29) & UNIVERSITY DR,38.859711,-77.303682
26669,1,1,1,11,SOUTHERN AVE & FOREST GLADE LA,38.859924,-76.951793
26672,1,0,1,16,LEE HWY (RT 29) & EATON PL,38.860297,-77.301287
26674,1,1,2,38,25TH ST & SKYLAND PL (W2),38.860423,-76.969938
26675,1,0,2,38,25TH ST & SKYLAND PL (W2),38.860409,-76.969772
26679,1,0,1,17,ROCHELLE AVE & ATWOOD ST,38.860903,-76.893931
2668,1,0,1,56,NORTHAMPTON DR & COLONY RD,39.0078,-76.986482
26682,1,1,1,18,ROCHELLE AVE & ATWOOD ST,38.860936,-76.894075
26683,1,0,1,13,CARLIN SPRINGS RD & 5TH RD,38.861021,-77.128739
26683,1,1,1,13,CARLIN SPRINGS RD & 5TH RD,38.861021,-77.128739
26686,1,1,1,14,ADDISON RD & DISTRICT HGTS PKWY,38.861144,-76.88793
26687,1,1,1,14,ANNANDALE RD & KENFIG DR,38.86107,-77.178819
26689,1,1,1,34,COUNTY RD & ALPINE ST,38.861303,-76.898517
26691,1,0,1,14,ATWOOD ST & #6803,38.861393,-76.890179
26693,1,1,1,14,ATWOOD ST & #6804,38.861525,-76.890198
26694,1,0,3,78,MORRIS RD & #1349-51,38.861511,-76.989422
26694,1,1,1,10,MORRIS RD & #1349-51,38.861511,-76.989422
26696,1,0,2,18,SHADYSIDE AVE & #2104,38.861807,-76.931949
26701,1,0,1,35,RT 7 LEESBURG PK & PEACE VALLEY LA,38.861851,-77.148
26702,1,0,1,16,LEE HWY (RT 29) & PLANTATION PKWY,38.861947,-77.293835
26705,1,1,1,16,LEE HWY (RT 29) & PLANTATION PKWY,38.862128,-77.294484
26708,1,1,3,37,MARLBORO PK & TANOW PL,38.862295,-76.912375
26711,1,0,1,17,ROCHELLE AVE & #1994-1998,38.862421,-76.894277
26711,1,1,1,14,ROCHELLE AVE & #1994-1998,38.862421,-76.894277
26714,1,0,2,38,CVS PARKING LOT & NAYLOR RD,38.862569,-76.969073
26714,1,1,2,38,CVS PARKING LOT & NAYLOR RD,38.862569,-76.969073
26715,1,0,1,36,COUNTY RD & WALKER MILL RD,38.862585,-76.897677
26719,1,1,2,74,NAYLOR RD SE & #2631,38.862994,-76.969974
2672,1,1,1,55,NORTHAMPTON DR & COLONY RD,39.007918,-76.986628
26722,1,1,1,33,RT 7 LEESBURG PK & #6166,38.863144,-77.148656
26724,1,0,1,35,RT 7 LEESBURG PK & #6166,38.863087,-77.148917
26726,1,1,1,38,BRANCH AVE SE & #2136,38.863492,-76.959212
26727,1,0,2,50,WALKER MILL RD & COUNTY RD,38.863446,-76.896622
2673,1,0,1,56,NORTHAMPTON DR & BEACON RD,39.007831,-76.984559
26730,1,1,1,14,WALKER MILL RD & HAZELWOOD DR,38.863635,-76.89738
26731,1,1,1,18,SHADYSIDE AVE & EDGAR ALLAN POE ELE,38.863583,-76.932503
26735,1,1,1,14,WALKER MILL RD & SCOTT KEY DR,38.863942,-76.903023
26736,1,0,1,40,GOOD HOPE RD & MARBURY PLAZA APTS,38.863772,-76.974697
26736,1,1,1,50,GOOD HOPE RD & MARBURY PLAZA APTS,38.863772,-76.974697
26738,1,0,2,90,W ST SE & 14TH ST V,38.864106,-76.985623
26739,1,0,1,16,LEE HWY (RT 29) & SPRING ST,38.864084,-77.278564
26740,1,0,1,53,GOOD HOPE RD & MARBURY PLAZA APTS,38.86424,-76.97538
26740,1,1,1,40,GOOD HOPE RD & MARBURY PLAZA APTS,38.86424,-76.97538
26741,1,0,5,137,COLUMBIA PK & S COURT HOUSE RD,38.864087,-77.080507
26742,1,0,8,200,M L KING AVE SE & W ST SE,38.864254,-76.989992
26743,1,1,5,135,COLUMBIA PK & S COURT HOUSE RD,38.864249,-77.081016
26744,1,1,1,14,ANNANDALE RD & GOUTHIER RD,38.86426,-77.176336
26750,1,1,1,34,WALKER MILL RD & ROCHELLE AVE,38.86458,-76.894292
26752,1,0,1,17,ARLINGTON BLVD & CIRCLE TOWER APTS,38.864843,-77.267984
26756,1,1,8,197,M L KING AVE SE & W ST SE,38.865054,-76.989783
26757,1,1,1,16,ARLINGTON BLVD & CIRCLE TOWER APTS,38.865175,-77.269216
26763,1,1,5,135,COLUMBIA PK & S ROLFE ST,38.865635,-77.075412
26764,1,0,1,38,ALABAMA AVE & 38TH ST,38.865364,-76.951741
26765,1,1,2,47,ARLINGTON BLVD & CEDAR LA,38.865452,-77.24633
2677,1,0,1,13,NORTHVIEW DR & NASHUA LA,38.942519,-76.742035
26773,1,0,1,34,ARLINGTON BLVD & CORALAIN GARDENS (,38.865928,-77.202737
26777,1,0,2,28,ARLINGTON BLVD SERVICE RD & CARLIN,38.866128,-77.128704
26778,1,1,1,50,GOOD HOPE RD & 16TH ST (E),38.866178,-76.982127
2678,1,1,1,12,NORTHVIEW DR & NEW HAVEN DR,38.943952,-76.741093
26780,1,0,1,18,MARLBORO PIKE & LEE JAY DR,38.866285,-76.916833
26782,1,1,5,96,RT 7 LEESBURG PK & PATRICK HENRY DR,38.866553,-77.151195
26783,1,1,2,28,ARLINGTON BLVD S R & CARLIN SPRINGS,38.866682,-77.128039
26785,1,1,1,23,S GEORGE MASON DR & NATIONAL GUARD,38.866951,-77.106419
26786,1,1,8,197,M L KING AVE SE & U ST SE,38.866997,-76.988939
26788,1,0,1,23,S GEORGE MASON DR & NATIONAL GUARD,38.867068,-77.106858
26789,1,1,1,50,GOOD HOPE RD & M L KING AVE,38.8672,-76.987806
26793,1,0,1,13,CARLIN SPRINGS RD & N KENSINGTON ST,38.868455,-77.127306
26793,1,1,1,13,CARLIN SPRINGS RD & N KENSINGTON ST,38.868455,-77.127306
26795,1,1,1,32,S FILLMORE ST & 6TH STS,38.868523,-77.088337
2680,1,1,1,12,NORTHVIEW DR & NASHUA LA,38.94284,-76.742103
26802,1,1,1,12,ARLINGTON BLVD S R & GEORGE MASON D,38.869093,-77.108057
26803,1,0,1,16,BLAKE LA & CEDAR GROVE DR,38.869219,-77.277717
26804,1,1,2,35,PATRICK HENRY DR & ARLINGTON BLVD,38.869661,-77.146227
26805,1,0,1,23,N GEORGE MASON DR & N SERV RD ARL B,38.869444,-77.107124
26807,1,0,1,11,ARLINGTON BLVD S R & ARLINGTON HALL,38.869581,-77.104088
26808,1,0,2,36,PATRICK HENRY DR & ARLINGTON BLVD,38.869567,-77.145968
26809,1,1,1,34,WALKER MILL RD & FOXGLENN APTS,38.869669,-76.890219
26810,1,1,1,23,N GEORGE MASON DR & ARLINGTON BLVD(,38.869762,-77.106926
26811,1,1,1,12,ARLINGTON BLVD S R & TRENTON ST,38.869957,-77.104569
26814,1,0,1,33,S 2ND ST & HUDSON ST,38.870187,-77.091146
26815,1,0,1,33,S GLEBE RD & S SERV RDWY ARL BLVD,38.870184,-77.100012
26815,1,1,1,31,S GLEBE RD & S SERV RDWY ARL BLVD,38.870184,-77.100012
26816,1,0,1,33,S 2ND ST & GARFIELD ST,38.870507,-77.089808
26817,1,1,2,64,CASTLE RD & RT 7 LEESBURG PK,38.870477,-77.154154
26819,1,1,1,14,ANNANDALE RD & ARLINGTON BLVD,38.870431,-77.174723
26820,1,0,1,13,CARLIN SPRINGS RD & N 2ND ST,38.870658,-77.125139
26820,1,1,1,13,CARLIN SPRINGS RD & N 2ND ST,38.870658,-77.125139
26822,1,0,1,13,CARLIN SPRINGS RD & N JEFFERSON ST,38.870691,-77.125396
26822,1,1,1,14,CARLIN SPRINGS RD & N JEFFERSON ST,38.870691,-77.125396
26823,1,1,1,32,S 2ND ST & FILLMORE ST,38.870721,-77.088527
26824,1,1,1,12,ARLINGTON BLVD & RDWY TO GLEBE RD,38.871129,-77.099285
26828,1,1,1,34,WALKER MILL RD & SHANDY GLEN DR,38.871521,-76.884794
26829,1,0,1,13,CARLIN SPRINGS RD & N GALVESTON ST,38.871587,-77.123674
26829,1,1,1,13,CARLIN SPRINGS RD & N GALVESTON ST,38.871587,-77.123674
2683,1,1,1,13,NORTHWEST DR & TOLEDO TE,38.971319,-76.958927
26832,1,1,3,52,SOUTHERN AVE SE & TORQUE ST SE,38.87176,-76.936618
26835,1,0,1,33,N GLEBE RD & 2ND ST,38.872045,-77.102938
26835,1,1,1,32,N GLEBE RD & 2ND ST,38.872045,-77.102938
26837,1,0,1,13,CARLIN SPRINGS RD & N GREENBRIER ST,38.872302,-77.121607
26837,1,1,1,13,CARLIN SPRINGS RD & N GREENBRIER ST,38.872302,-77.121607
26838,1,0,1,16,LEE HWY (RT 29) & NUTLEY ST (E),38.872278,-77.26072
26839,1,0,1,13,CARLIN SPRINGS RD & N GREENBRIER ST,38.872346,-77.122032
26839,1,1,1,14,CARLIN SPRINGS RD & N GREENBRIER ST,38.872346,-77.122032
26840,1,0,1,16,LEE HWY (RT 29) & BRAXTON WOOD CT,38.87236,-77.257865
26844,1,0,1,16,LEE HWY (RT 29) & MAINSTONE DR,38.872483,-77.251919
26848,1,1,1,16,LEE HWY (RT 29) & ESPANA CT,38.872686,-77.252702
26851,1,0,1,16,LEE HWY (RT 29) & CEDAREST RD,38.872691,-77.248541
26854,1,0,1,16,LEE HWY (RT 29) & CEDAR LA,38.872943,-77.245177
26856,1,1,1,16,LEE HWY (RT 29) & FAIRHILL RD,38.873146,-77.245013
26857,1,0,1,18,LARCHMONT AVE & #1221,38.873176,-76.922278
26857,1,1,2,12,LARCHMONT AVE & #1221,38.873176,-76.922278
26858,1,0,1,11,LARCHMONT AVE & #1218,38.87333,-76.922047
26858,1,1,1,18,LARCHMONT AVE & #1218,38.87333,-76.922047
26859,1,0,1,13,CARLIN SPRINGS RD & N EDISON ST,38.873281,-77.118768
26859,1,1,1,13,CARLIN SPRINGS RD & N EDISON ST,38.873281,-77.118768
2686,1,1,1,12,NOTTINGHILL DR & NUTWOOD LA,38.930544,-76.741303
26862,1,0,1,11,MARLBORO PIKE & BOONES HILL RD,38.87345,-76.931281
26865,1,0,1,13,CARLIN SPRINGS RD & N EDISON ST,38.873533,-77.118536
26865,1,1,1,14,CARLIN SPRINGS RD & N EDISON ST,38.873533,-77.118536
26867,1,1,3,13,MARLBORO PIKE & BOONES HILL RD,38.873724,-76.931999
2687,1,1,1,12,NOTTINGHILL DR & NEW COACH LA,38.932512,-76.742776
26872,1,0,1,16,LEE HWY (RT 29) & HILLTOP RD,38.873689,-77.234455
26874,1,1,1,16,LEE HWY (RT 29) & HILLTOP RD,38.873922,-77.234101
26876,1,0,1,35,RT 7 E BROAD ST & RT 50,38.874051,-77.158078
26877,1,0,3,110,PENNSYLVANIA AVE SE & L ENFANT SQUA,38.874168,-76.971706
26877,1,1,6,165,PENNSYLVANIA AVE SE & L ENFANT SQUA,38.874168,-76.971706
26878,1,0,1,38,SOUTHERN AVE & MARLBORO PK,38.874146,-76.933305
26882,1,1,1,23,HENDERSON RD & N THOMAS ST,38.874105,-77.110529
26885,1,1,3,35,LEE HWY (RT 29) & GALLOWS RD,38.874801,-77.22615
26888,1,0,1,23,HENDERSON RD & N THOMAS ST,38.874867,-77.109847
2689,1,0,1,13,NEEDLEWOOD LANE-SOUTH & NOTTINGHILL DR,38.928053,-76.739663
26890,1,0,3,37,LEE HWY (RT 29) & WINDSOR DR,38.875051,-77.209407
26891,1,1,3,35,LEE HWY (RT 29) & MARY ST,38.875144,-77.212152
26892,1,1,3,35,LEE HWY (RT 29) & WINDSOR DR,38.875245,-77.209486
26893,1,0,3,37,LEE HWY (RT 29) & FAIRVIEW PARK DR,38.875295,-77.214617
26895,1,1,3,35,LEE HWY (RT 29) & HOLLYWOOD RD,38.875396,-77.207196
26896,1,0,3,37,LEE HWY (RT 29) & HARTLAND RD,38.875366,-77.222522
2690,1,0,1,13,NEEDLEWOOD LANE-NORTH & NOTTINGHILL DR,38.930149,-76.740996
26900,1,0,3,37,LEE HWY (RT 29) & LAWRENCE DR,38.875558,-77.202031
26903,1,1,3,35,LEE HWY (RT 29) & NATIONAL MEMORIAL,38.875741,-77.202398
26905,1,0,1,13,HARRY S TRUMAN DR & NEW ORCHARD DR,38.875917,-76.826576
26905,1,1,1,14,HARRY S TRUMAN DR & NEW ORCHARD DR,38.875917,-76.826576
26906,1,0,1,35,RT 7 E BROAD ST & CHURCH PL,38.875813,-77.161078
26907,1,0,1,13,CARLIN SPRINGS RD & N WAKEFIELD ST,38.875889,-77.114804
26907,1,1,1,13,CARLIN SPRINGS RD & N WAKEFIELD ST,38.875889,-77.114804
26908,1,1,1,14,ANNANDALE RD & SAMPSON ST,38.875876,-77.174505
26909,1,0,3,37,LEE HWY (RT 29) & WEST ST,38.875865,-77.199173
26911,1,1,1,16,JERMANTOWN RD & AT&T DRWY,38.876095,-77.303479
26912,1,0,1,13,CARLIN SPRINGS RD & N WAKEFIELD ST,38.876103,-77.114492
26912,1,1,1,14,CARLIN SPRINGS RD & N WAKEFIELD ST,38.876103,-77.114492
26913,1,0,1,15,JERMANTOWN RD & ROSEHAVEN ST (N),38.876147,-77.3103
26915,1,1,1,18,ADDISON RD & GETHSEMANE UNITED METH,38.876256,-76.895716
26916,1,0,1,17,ADDISON RD & GETHSEMANE UNITED METH,38.876385,-76.89557
26917,1,1,1,16,BLAKE LA & CYRANDAL VALLEY RD,38.876402,-77.289112
26918,1,0,1,53,M ST & BET 3RD & 4TH STS,38.876341,-77.016459
26918,1,1,4,80,M ST & BET 3RD & 4TH STS,38.876341,-77.016459
26919,1,0,2,41,M ST SE & BETWEEN NJ AVE SE & 1ST S,38.876383,-77.003727
26919,1,1,4,60,M ST SE & BETWEEN NJ AVE SE & 1ST S,38.876383,-77.003727
26920,1,0,3,37,LEE HWY (RT 29) & LEE OAKS CT,38.87632,-77.197116
26921,1,1,3,35,LEE HWY (RT 29) & LEE OAKS CT,38.876457,-77.197463
26924,1,1,1,16,BLAKE LA & PALMER ST,38.876687,-77.296634
26925,1,0,1,16,BLAKE LA & WINDWOOD FARMS DR,38.876563,-77.296093
26927,1,0,3,37,LEE HWY (RT 29) & BISVEY DR,38.876654,-77.195633
26928,1,1,3,35,LEE HWY (RT 29) & BISVEY DR,38.876868,-77.195578
2693,1,1,1,12,NOTTINGHILL DR & NORTHVIEW DR,38.93657,-76.740097
26931,1,0,3,37,LEE HWY (RT 29) & LITTLE FALLS PL,38.877035,-77.193876
26934,1,1,1,14,ANNANDALE RD & SCIPIO LA,38.877303,-77.173714
26936,1,0,3,37,LEE HWY (RT 29) & GRAHAM RD,38.877375,-77.192197
26938,1,1,3,35,LEE HWY (RT 29) & WOODLEY PL,38.877709,-77.191757
26939,1,0,1,35,RT 7 E BROAD ST & TOLLGATE WAY,38.877755,-77.164289
2694,1,1,1,11,OGLETHORPE ST & 40TH AV,38.960136,-76.949382
26940,1,1,1,33,RT 7 E BROAD ST & NOLAND ST,38.878043,-77.164441
26941,1,0,3,26,MAINE AVE SE & 7TH ST SE,38.878408,-77.022228
26946,1,0,1,65,H ST SE & 46TH PL SE (W),38.878605,-76.933678
26947,1,1,3,35,S WASHINGTON ST & ROSEMARY LA (W),38.878767,-77.187883
2695,1,1,1,11,OGLETHORPE ST & 42ND AV,38.959594,-76.946574
26950,1,1,1,31,N RANDOLPH ST & BALLSTON COMMOMS,38.878975,-77.109119
26951,1,1,1,14,ANNANDALE RD & HILLWOOD AVE,38.878873,-77.173319
26964,1,0,2,41,POTOMAC AVE (S RDWY) & 14TH ST,38.880027,-76.985719
26965,1,1,1,33,4 TH ST SW & AMIDON SCHOOL,38.879939,-77.017673
26966,1,1,1,33,RT 7 E BROAD ST & FAIRFAX ST,38.880093,-77.167617
26969,1,0,1,35,RT 7 E BROAD ST & E FAIRFAX ST,38.880323,-77.168293
26971,1,1,1,12,ARLINGTON BLVD & PERSHING DR (E),38.880605,-77.084296
26977,1,1,1,33,4 TH ST SW & G ST SW,38.881501,-77.017665
26978,1,1,1,56,POTOMAC AVE SE & KENTUCKY AVE SE,38.881422,-76.983035
26984,1,1,1,33,RT 7 E BROAD ST & WASHINGTON ST,38.882178,-77.170845
26991,1,0,1,35,RT 7 W BROAD ST &S MAPLE AVE,38.882745,-77.172077
26992,1,1,1,33,4 TH ST SW & E ST SW,38.882904,-77.017663
26994,1,1,1,18,ADDISON RD & ST MARGARET OF SCOTLAN,38.88294,-76.897319
27000,1,0,1,17,ADDISON RD & ST MARGARET OF SCOTLAN,38.883378,-76.897207
27003,1,0,1,30,RIDGE RD & ELY PL (N),38.883658,-76.947082
27004,1,1,1,17,COTTAGE ST & PATRICK ST,38.883439,-77.249114
27009,1,0,2,50,RT 7 W BROAD ST & LITTLE FALLS ST,38.883905,-77.173873
27011,1,0,1,13,HARRY S TRUMAN DR & #442,38.883981,-76.833255
27013,1,1,1,34,SHADY GLEN DR & MILLWOOF DR,38.884201,-76.87709
27014,1,0,3,109,PENNSYLVANIA AVE SE & 8TH ST SE,38.884236,-76.995572
27022,1,0,1,44,MASSACHUSETTS AVE SE & 19TH ST SE,38.884538,-76.977477
27022,1,1,2,99,MASSACHUSETTS AVE SE & 19TH ST SE,38.884538,-76.977477
27023,1,0,1,4,MEMORIAL DR & RAMP FROM N/B RT 110,38.884666,-77.06258
27027,1,0,1,11,OLD CENTRAL AVE & LARCHMONT AVE,38.884858,-76.915416
27027,1,1,1,18,OLD CENTRAL AVE & LARCHMONT AVE,38.884858,-76.915416
27028,1,0,1,11,CENTRAL AVE & USPO,38.884908,-76.911254
27028,1,1,1,18,CENTRAL AVE & USPO,38.884908,-76.911254
27029,1,1,2,48,RT 7 W BROAD ST &N VIRGINIA AVE,38.885146,-77.175443
2703,1,1,1,58,OLD GEORGETOWN RD & WOODMONT AV,38.986032,-77.096196
27033,1,0,3,72,MINNESOTA AVE & #3501,38.885598,-76.955998
27034,1,0,3,37,WASHINGTON BLVD & LANCASTER ST,38.885445,-77.141366
27037,1,1,1,17,COTTAGE ST & BUCKNELL DR (W),38.885705,-77.232664
27038,1,0,2,103,BENNING RD SE & C ST SE (S),38.885826,-76.935735
27039,1,0,2,56,TEXAS AVE SE & DUBOIS PL SE,38.885804,-76.940696
27046,1,0,1,11,OLD CENTRAL AVE & YOLANDA AVE,38.886321,-76.901449
27046,1,1,2,32,OLD CENTRAL AVE & YOLANDA AVE,38.886321,-76.901449
27048,1,1,2,48,RT 7 W BROAD ST & PENNSYLVANIA AVE,38.886763,-77.177963
27049,1,1,1,11,EAST CAPITOL ST & YOST PL,38.886848,-76.902501
27050,1,0,1,13,HARRY S TRUMAN DR & CAMPUS WAY SOUT,38.886963,-76.835786
27052,1,0,4,52,RT 29 LEE HWY & FAIRFAX DR,38.887119,-77.162423
27053,1,1,5,64,N WASHINGTON ST & FAIRFAX DR,38.887292,-77.162526
27054,1,1,1,17,COTTAGE ST & YEONAS DR,38.887187,-77.25519
27055,1,0,1,17,BARTON ST & FAIRFAX DR,38.887338,-77.088184
27057,1,1,2,24,ADDISON RD & CENTRAL AVE,38.887333,-76.898416
27063,1,0,1,4,INDEPENDENCE AVE & 10TH ST,38.887697,-77.025768
27064,1,1,1,14,CAMPUS WAY SOUTH & HARRY S TRUMAN D,38.887714,-76.835228
27065,1,0,1,30,RIDGE RD & 37TH ST,38.887905,-76.951109
27069,1,1,2,48,RT 7 W BROAD ST & N OAK ST,38.888075,-77.179975
27071,1,1,1,16,BARTON ST & FAIRFAX DR,38.888182,-77.088479
27073,1,1,1,11,EAST CAPITOL ST & MARYLAND PARK DR,38.888333,-76.907438
27076,1,0,1,13,CENTRAL AVE & SHADY GLEN RD,38.888544,-76.876458
27077,1,0,1,11,ARLINGTON BLVD S R & ROLFE ST,38.888621,-77.078697
27079,1,0,1,15,RT 29 LEE HWY & WASHINGTON BLVD,38.888588,-77.160128
27081,1,1,1,14,CAMPUS WAY SOUTH & #10143,38.888727,-76.83161
27088,1,1,1,12,ARLINGTON BLVD S R & ARLINGTON BLVD,38.888977,-77.07914
27091,1,1,2,29,RT 29 LEE HWY & UNDERWOOD ST,38.889084,-77.159506
27099,1,0,1,11,ARLINGTON BLVD S R & QUEEN ST,38.889402,-77.077726
27100,1,0,1,17,BARTON ST & CLARENDON BLVD,38.889476,-77.088438
27102,1,0,4,140,EAST CAPITOL ST SE & BENNING RD SE,38.889604,-76.936625
27104,1,0,2,82,EAST CAPITOL ST SE & 50TH ST SE,38.889656,-76.929707
27105,1,0,4,140,EAST CAPITOL ST SE & 49TH ST SE (W),38.889656,-76.932301
27106,1,0,4,140,EAST CAPITOL ST SE & 47TH ST SE,38.889662,-76.933893
27110,1,0,1,13,CENTRAL AVE & RICHIE RD,38.889717,-76.861737
27113,1,0,1,44,EAST CAPITOL ST SE & 52ND ST SE,38.889654,-76.927373
27114,1,0,1,44,EAST CAPITOL ST SE & 55TH ST SE,38.889651,-76.923134
27116,1,0,1,44,EAST CAPITOL ST SE & #5901,38.889637,-76.91636
27121,1,0,1,44,EAST CAPITOL ST SE & 3RD ST SE,38.889736,-77.002194
27122,1,0,1,44,EAST CAPITOL ST SE & 58TH ST SE,38.889643,-76.917455
27123,1,0,1,44,EAST CAPITOL ST SE & FIRST ST SE,38.88973,-77.005455
27131,1,1,1,43,EAST CAPITOL ST NE & 3RD ST NE,38.8899,-77.001889
27132,1,1,1,43,EAST CAPITOL ST NE & 8TH ST NE,38.889884,-76.994708
27138,1,1,1,43,EAST CAPITOL ST NE & 4TH ST NE,38.889889,-77.000379
27139,1,0,2,58,EAST CAPITOL ST NE & 47TH ST NE,38.889928,-76.934776
27139,1,1,2,83,EAST CAPITOL ST NE & 47TH ST NE,38.889928,-76.934776
27142,1,1,1,43,EAST CAPITOL ST NE & #4250,38.889903,-76.942374
27144,1,0,2,58,EAST CAPITOL ST NE & SYCAMORE RD NE,38.889925,-76.931899
27144,1,1,2,83,EAST CAPITOL ST NE & SYCAMORE RD NE,38.889925,-76.931899
27145,1,0,1,59,EAST CAPITOL ST NE & 19TH ST NE,38.889906,-76.977759
27147,1,1,1,43,EAST CAPITOL ST NE & 55TH ST NE,38.889887,-76.922651
27148,1,1,1,43,EAST CAPITOL ST NE & 53RD ST NE,38.889887,-76.92588
27151,1,1,1,43,EAST CAPITOL ST NE & 41ST ST NE,38.8899,-76.944412
27153,1,1,2,83,EAST CAPITOL ST NE & 50TH ST NE,38.889895,-76.929833
27154,1,1,1,43,EAST CAPITOL ST NE & BENNING RD NE,38.889958,-76.938352
27155,1,1,2,83,EAST CAPITOL ST NE & DIVISION AVE N,38.889889,-76.928393
27156,1,0,1,26,EAST CAPITOL ST NE & BENNING RD NE,38.889955,-76.936652
27156,1,1,1,43,EAST CAPITOL ST NE & BENNING RD NE,38.889955,-76.936652
27157,1,1,1,14,CENTRAL AVE & GARRETT A MORGAN BLVD,38.890004,-76.86175
27159,1,0,3,105,8TH ST & EAST CAPITOL ST,38.890111,-76.994884
2716,1,1,1,58,OLD GEORGETOWN RD & ALTA VISTA RD,39.006441,-77.11154
27161,1,0,1,59,15TH ST NE & EAST CAPITOL ST NE,38.89012,-76.983558
27164,1,1,2,48,RT 7 W BROAD ST & ROWELL CT,38.890331,-77.18348
27169,1,0,1,11,ARLINGTON BLVD S R & MEADE ST,38.891265,-77.071984
2717,1,1,1,58,OLD GEORGETOWN RD & SPRUCE TREE AV,39.008655,-77.113307
27172,1,0,2,56,CLARENDON BLVD & UHLE ST,38.891314,-77.085038
27176,1,1,3,36,RT 29 LEE HWY & ROOSEVELT ST,38.891465,-77.154714
27180,1,1,1,12,FAIRFAX DR & #1501,38.891627,-77.075014
27185,1,0,1,13,PRINCE PL & TREETOP CONDOS,38.891824,-76.830838
27189,1,0,1,35,BLAINE ST & ANACOSTIA AVE,38.892054,-76.96104
27190,1,1,1,40,DIVISION AVE & BROOKS ST,38.892024,-76.928048
27191,1,1,1,12,FAIRFAX DR & THE BELVEDERE,38.892106,-77.073941
27192,1,1,1,4,CONSTITUTION AVE NW & WASHINGTON MO,38.892221,-77.036395
27194,1,1,3,36,RT 29 LEE HWY & QUANTICO ST,38.892284,-77.153071
27199,1,0,2,23,RT 29 LEE HWY & POTOMAC ST,38.892512,-77.151621
